{"type": "FeatureCollection", "features": [{"type": "Feature", "geometry": {"type": "Point", "coordinates": [2.3165971, 48.8314626]}, "properties": {"osm_id": 158268042, "osm_type": "node", "amenity": "kindergarten", "check_date": "2025-05-20", "name": "Haltes-garderie municipale", "website": "https://mairie14.paris.fr/pages/creches-du-14e-11074"}}, {"type": "Feature", "geometry": {"type": "Point", "coordinates": [2.2333391, 48.8896116]}, "properties": {"osm_id": 227420651, "osm_type": "node", "amenity": "kindergarten", "check_date": "2026-03-19", "kindergarten:FR": "crèche", "name": "Crèche des Jardins"}}, {"type": "Feature", "geometry": {"type": "Point", "coordinates": [5.0713669, 47.3296247]}, "properties": {"osm_id": 251008340, "osm_type": "node", "amenity": "kindergarten", "name": "Crèche des Grésilles"}}, {"type": "Feature", "geometry": {"type": "Point", "coordinates": [5.035678, 47.3143675]}, "properties": {"osm_id": 252124532, "osm_type": "node", "amenity": "kindergarten", "check_date": "2023-05-19", "created_by": "JOSM", "kindergarten:FR": "multiaccueil", "name": "Maison de la Petite Enfance Petit Citeaux"}}, {"type": "Feature", "geometry": {"type": "Point", "coordinates": [2.5254541, 48.8440401]}, "properties": {"osm_id": 271418762, "osm_type": "node", "amenity": "kindergarten", "check_date": "2026-05-13", "name": "Maison de la petite enfance \"La Brytournelle\""}}, {"type": "Feature", "geometry": {"type": "Point", "coordinates": [2.4218896, 48.85446]}, "properties": {"osm_id": 282945882, "osm_type": "node", "addr:housenumber": "5", "addr:street": "Rue Paul Éluard", "amenity": "kindergarten", "check_date": "2026-04-10", "kindergarten:FR": "multi_accueil", "name": "Crèche Départementale Voltaire"}}, {"type": "Feature", "geometry": {"type": "Point", "coordinates": [5.9546141, 45.5311985]}, "properties": {"osm_id": 286642762, "osm_type": "node", "amenity": "kindergarten"}}, {"type": "Feature", "geometry": {"type": "Point", "coordinates": [1.3856298, 43.6321091]}, "properties": {"osm_id": 288553060, "osm_type": "node", "amenity": "kindergarten", "check_date": "2024-09-30", "contact:housenumber": "23", "contact:phone": "+33 5 61 71 76 80", "contact:street": "Chemin de Bélisaire", "description": "de 2 mois à 4 ans", "name": "Créche des Écureuils"}}, {"type": "Feature", "geometry": {"type": "Point", "coordinates": [1.3868996, 43.6374824]}, "properties": {"osm_id": 305104845, "osm_type": "node", "addr:housenumber": "31", "addr:street": "Avenue de Cornebarrieu", "amenity": "kindergarten", "name": "Les Dauphins", "operator": "Mairie de Blagnac", "preschool": "no", "ref:FR:SIRET": "21310069600375"}}, {"type": "Feature", "geometry": {"type": "Point", "coordinates": [-0.628057, 44.8237417]}, "properties": {"osm_id": 307442247, "osm_type": "node", "addr:housenumber": "14", "addr:street": "Avenue du Maréchal Joffre", "amenity": "kindergarten", "capacity": "25", "contact:phone": "+33 5 56 45 50 64", "kindergarten:FR": "multiaccueil", "name": "Crèche Multi-Accueil \"Au Fil de l'Eau\""}}, {"type": "Feature", "geometry": {"type": "Point", "coordinates": [1.4911639, 49.0989942]}, "properties": {"osm_id": 311146097, "osm_type": "node", "amenity": "kindergarten"}}, {"type": "Feature", "geometry": {"type": "Point", "coordinates": [-2.3821467, 47.8073134]}, "properties": {"osm_id": 316324650, "osm_type": "node", "addr:housename": "maison de l'enfance", "addr:street": "Faubourg Saint-Julien", "amenity": "kindergarten", "name": "L'oust'ick", "website": "https://www.oust-broceliande.bzh/accueil_obc/enfance_jeunesse/enfance_0_4ans/multi_accueils"}}, {"type": "Feature", "geometry": {"type": "Point", "coordinates": [-0.5704537, 44.8563607]}, "properties": {"osm_id": 347058416, "osm_type": "node", "amenity": "kindergarten", "contact:email": "creche.barreyre@mairie-bordeaux.fr", "contact:phone": "+33 5 56 00 49 75", "contact:website": "http://www.bordeaux.fr/o10277", "kindergarten:FR": "multiaccueil", "name": "Multiaccueil Barreyre", "opening_hours": "Mo-Fr 07:30-18:30 ; PH off", "operator:type": "public"}}, {"type": "Feature", "geometry": {"type": "Point", "coordinates": [1.7154524, 43.4005307]}, "properties": {"osm_id": 366831982, "osm_type": "node", "amenity": "kindergarten", "source": "cadastre-dgi-fr source : Direction Générale des Impôts - Cadastre ; mise à jour : 2009"}}, {"type": "Feature", "geometry": {"type": "Point", "coordinates": [6.1049025, 46.1201646]}, "properties": {"osm_id": 387180642, "osm_type": "node", "amenity": "kindergarten", "name": "Crèche intercommunale"}}, {"type": "Feature", "geometry": {"type": "Point", "coordinates": [6.3506836, 46.9038441]}, "properties": {"osm_id": 390157050, "osm_type": "node", "addr:city": "Pontarlier", "addr:country": "FR", "addr:housenumber": "5", "addr:postcode": "25300", "addr:street": "Rue du Parc", "alt_name": "Crèche collective", "amenity": "kindergarten", "kindergarten:FR": "microcrèche", "max_age": "3 years", "min_age": "2 months 15 days", "name": "Microcrèche Les P'tits Loups", "opening_hours": "Mo-Fr 07:30-18:30", "phone": "+33 3 81 39 79 16", "website": "https://www.ville-pontarlier.fr/page/vivre-a-pontarlier/vie-quotidienne-2/petite-enfance/creches"}}, {"type": "Feature", "geometry": {"type": "Point", "coordinates": [-0.8854412, 48.8417319]}, "properties": {"osm_id": 401532036, "osm_type": "node", "amenity": "kindergarten", "name": "Crèche Halte Garderie", "source": "cadastre-dgi-fr source : Direction Générale des Impôts - Cadastre ; mise à jour : 2006"}}, {"type": "Feature", "geometry": {"type": "Point", "coordinates": [2.250267, 48.8977688]}, "properties": {"osm_id": 410886870, "osm_type": "node", "amenity": "kindergarten", "check_date": "2025-06-17", "kindergarten:FR": "crèche_collective", "name": "Crèche Municipale Le Chat Botté", "operator:type": "public", "source": "cadastre-dgi-fr source : Direction Générale des Impôts - Cadastre ; mise à jour : 2009"}}, {"type": "Feature", "geometry": {"type": "Point", "coordinates": [-0.5267927, 44.6815543]}, "properties": {"osm_id": 428848444, "osm_type": "node", "addr:housenumber": "9", "addr:street": "Place Saint Jean d'Etampes", "amenity": "kindergarten", "name": "Maison \"Tom Pousse\"", "ref:FR:NAF": "88.91A", "ref:FR:SIREN": "213302136", "ref:FR:SIRET": "21330213600055", "source": "INSEE - 2025-03"}}, {"type": "Feature", "geometry": {"type": "Point", "coordinates": [0.2159116, 49.5814579]}, "properties": {"osm_id": 462687143, "osm_type": "node", "amenity": "kindergarten", "source": "cadastre-dgi-fr source : Direction Générale des Impôts - Cadastre ; mise à jour : 2009"}}, {"type": "Feature", "geometry": {"type": "Point", "coordinates": [6.4812829, 43.5308668]}, "properties": {"osm_id": 482582901, "osm_type": "node", "amenity": "kindergarten", "kindergarten:FR": "halte_garderie", "name": "Garderie", "source": "cadastre-dgi-fr source : Direction Générale des Impôts - Cadastre. Mise à jour : 2009"}}, {"type": "Feature", "geometry": {"type": "Point", "coordinates": [2.567397, 48.9457787]}, "properties": {"osm_id": 494397614, "osm_type": "node", "amenity": "kindergarten", "contact:city": "Tremblay-en-France", "contact:housenumber": "1", "contact:postcode": "93290", "contact:street": "Rue Tolstoi", "name": "Crèche Anne Frank", "operator": "Mairie de Tremblay-en-France"}}, {"type": "Feature", "geometry": {"type": "Point", "coordinates": [5.9329003, 45.3248724]}, "properties": {"osm_id": 495547507, "osm_type": "node", "amenity": "kindergarten", "kindergarten:FR": "halte_garderie", "name": "Garderie municipale", "operator:type": "public", "source": "cadastre-dgi-fr source : Direction Générale des Impôts - Cadastre ; mise à jour : 06-03-2009"}}, {"type": "Feature", "geometry": {"type": "Point", "coordinates": [3.8947413, 49.3012642]}, "properties": {"osm_id": 526140074, "osm_type": "node", "amenity": "kindergarten"}}, {"type": "Feature", "geometry": {"type": "Point", "coordinates": [-1.58192, 47.9825692]}, "properties": {"osm_id": 540336272, "osm_type": "node", "amenity": "kindergarten", "kindergarten:FR": "halte_garderie", "name": "Halte Garderie Parentale"}}, {"type": "Feature", "geometry": {"type": "Point", "coordinates": [2.9177456, 42.8319212]}, "properties": {"osm_id": 541429570, "osm_type": "node", "alt_name": "Crèche", "amenity": "kindergarten", "name": "Halte Garderie", "official_name": "Multi-Accueil Anne-Marie", "phone": "+33 4 68 38 62 22", "website": "http://www.salses-le-chateau.fr/articles-3/9-59-halte-garderie/"}}, {"type": "Feature", "geometry": {"type": "Point", "coordinates": [2.3800465, 48.9434821]}, "properties": {"osm_id": 541474531, "osm_type": "node", "amenity": "kindergarten", "name": "Crèche"}}, {"type": "Feature", "geometry": {"type": "Point", "coordinates": [2.3860935, 48.9779611]}, "properties": {"osm_id": 543361112, "osm_type": "node", "amenity": "kindergarten", "education": "kindergarten", "kindergarten:FR": "crèche_collective", "name": "Crèche familiale Pablo Réjas"}}, {"type": "Feature", "geometry": {"type": "Point", "coordinates": [2.397489, 48.9758274]}, "properties": {"osm_id": 543365236, "osm_type": "node", "amenity": "kindergarten", "education": "kindergarten", "name": "Crèche"}}, {"type": "Feature", "geometry": {"type": "Point", "coordinates": [2.0918975, 49.0633874]}, "properties": {"osm_id": 552146251, "osm_type": "node", "amenity": "kindergarten", "kindergarten:FR": "crèche_familiale", "name": "Crèche Familiale", "operator:type": "private"}}, {"type": "Feature", "geometry": {"type": "Point", "coordinates": [-3.6912459, 47.8427022]}, "properties": {"osm_id": 552958150, "osm_type": "node", "addr:city": "Riec-sur-Bélon", "addr:postcode": "29340", "addr:street": "Rue des Vieux Chênes", "amenity": "kindergarten", "name": "Crèche Les Pitchounets", "operator": "Association", "source": "cadastre-dgi-fr source : Direction Générale des Impôts - Cadastre. Mise à jour : 2009"}}, {"type": "Feature", "geometry": {"type": "Point", "coordinates": [2.5457393, 48.9025529]}, "properties": {"osm_id": 553022797, "osm_type": "node", "amenity": "kindergarten", "name": "Crèche Georges Parouty"}}, {"type": "Feature", "geometry": {"type": "Point", "coordinates": [4.7408893, 45.7073327]}, "properties": {"osm_id": 557201789, "osm_type": "node", "amenity": "kindergarten", "email": "creche.lesgalipettes@mairie-chaponost.fr", "kindergarten:FR": "crèche_familiale", "name": "Les Galipettes", "opening_hours": "Mo-Fr 07:15-18:45", "phone": "+33 4 78 87 99 76", "website": "https://www.mairie-chaponost.fr/mairie/la-mairie/services-municipaux-464/creche-les-galipettes-157.html"}}, {"type": "Feature", "geometry": {"type": "Point", "coordinates": [1.3626677, 43.6834195]}, "properties": {"osm_id": 571158390, "osm_type": "node", "amenity": "kindergarten", "name": "Bambins Constellation"}}, {"type": "Feature", "geometry": {"type": "Point", "coordinates": [1.5856149, 43.9662741]}, "properties": {"osm_id": 582519795, "osm_type": "node", "amenity": "kindergarten", "name": "La maison de l'enfance"}}, {"type": "Feature", "geometry": {"type": "Point", "coordinates": [3.2475513, 45.7548721]}, "properties": {"osm_id": 582944882, "osm_type": "node", "amenity": "kindergarten"}}, {"type": "Feature", "geometry": {"type": "Point", "coordinates": [2.3610306, 48.5708607]}, "properties": {"osm_id": 583581234, "osm_type": "node", "amenity": "kindergarten"}}, {"type": "Feature", "geometry": {"type": "Point", "coordinates": [2.3596707, 48.5734394]}, "properties": {"osm_id": 583581235, "osm_type": "node", "amenity": "kindergarten"}}, {"type": "Feature", "geometry": {"type": "Point", "coordinates": [3.8706532, 43.6052469]}, "properties": {"osm_id": 585171936, "osm_type": "node", "amenity": "kindergarten", "description": "Crèche associative ou parentale", "name": "Crèche La Gerbe"}}, {"type": "Feature", "geometry": {"type": "Point", "coordinates": [3.8845815, 43.6072273]}, "properties": {"osm_id": 585173372, "osm_type": "node", "amenity": "kindergarten", "kindergarten:FR": "crèche_collective", "name": "Crèche collective municipale Antigone", "operator:type": "public"}}, {"type": "Feature", "geometry": {"type": "Point", "coordinates": [3.8795472, 43.6142035]}, "properties": {"osm_id": 585182991, "osm_type": "node", "amenity": "kindergarten", "education": "kindergarten", "name": "Crèche collective municipale Les Sept Nains", "wheelchair": "no"}}, {"type": "Feature", "geometry": {"type": "Point", "coordinates": [3.8551489, 43.6115692]}, "properties": {"osm_id": 585199240, "osm_type": "node", "amenity": "kindergarten", "kindergarten:FR": "crèche_parentale", "name": "Crèche associative La Bambinerie"}}, {"type": "Feature", "geometry": {"type": "Point", "coordinates": [3.9012512, 43.6181211]}, "properties": {"osm_id": 585201019, "osm_type": "node", "amenity": "kindergarten", "check_date": "2023-06-10", "kindergarten:FR": "crèche_parentale", "name": "Crèche associative Ricochet", "ref:FR:SIRET": "38818903700012"}}, {"type": "Feature", "geometry": {"type": "Point", "coordinates": [3.8843711, 43.5954156]}, "properties": {"osm_id": 585202599, "osm_type": "node", "amenity": "kindergarten", "kindergarten:FR": "halte_garderie", "name": "Halte-garderie municipale L'Oustal Dou Caganis", "operator:type": "public"}}, {"type": "Feature", "geometry": {"type": "Point", "coordinates": [3.8909382, 43.6077742]}, "properties": {"osm_id": 585203689, "osm_type": "node", "amenity": "kindergarten", "kindergarten:FR": "halte_garderie", "name": "Halte-garderie municipale La Coupole", "operator:type": "public", "ref:FR:SIRET": "21340172201993"}}, {"type": "Feature", "geometry": {"type": "Point", "coordinates": [3.8884756, 43.6220277]}, "properties": {"osm_id": 595252160, "osm_type": "node", "amenity": "kindergarten", "kindergarten:FR": "jardin_enfants", "name": "Jardin d'enfants municipal Les Boutons d'Or", "operator:type": "public"}}, {"type": "Feature", "geometry": {"type": "Point", "coordinates": [3.8821147, 43.6176873]}, "properties": {"osm_id": 595256929, "osm_type": "node", "amenity": "kindergarten", "kindergarten:FR": "crèche_parentale", "name": "Crèche associative Accroche Cœur", "website": "http://accrochecoeur34.free.fr/"}}, {"type": "Feature", "geometry": {"type": "Point", "coordinates": [3.8633874, 43.6428346]}, "properties": {"osm_id": 598146025, "osm_type": "node", "amenity": "kindergarten", "kindergarten:FR": "crèche_parentale", "name": "Crèche associative Gingko Biloba"}}, {"type": "Feature", "geometry": {"type": "Point", "coordinates": [3.8628357, 43.6158375]}, "properties": {"osm_id": 598191190, "osm_type": "node", "amenity": "kindergarten", "name": "Jardin d'enfant privé Le Petit Home"}}, {"type": "Feature", "geometry": {"type": "Point", "coordinates": [2.3766927, 48.8956591]}, "properties": {"osm_id": 599970033, "osm_type": "node", "amenity": "kindergarten"}}, {"type": "Feature", "geometry": {"type": "Point", "coordinates": [3.880709, 43.6034665]}, "properties": {"osm_id": 607355557, "osm_type": "node", "amenity": "kindergarten", "check_date": "2023-06-08", "name": "Crèche municipale Edelweiss", "operator": "Ville de Montpellier", "operator:type": "government", "operator:wikidata": "Q86688720"}}, {"type": "Feature", "geometry": {"type": "Point", "coordinates": [3.8901515, 43.6159641]}, "properties": {"osm_id": 608113364, "osm_type": "node", "amenity": "kindergarten", "name": "Lieu de rencontre parents-enfants Le Baobab"}}, {"type": "Feature", "geometry": {"type": "Point", "coordinates": [3.8699824, 43.5964073]}, "properties": {"osm_id": 608304402, "osm_type": "node", "amenity": "kindergarten", "name": "Crèche collective municipale Blanche Neige", "ref:FR:SIRET": "21340172201860"}}, {"type": "Feature", "geometry": {"type": "Point", "coordinates": [3.8435575, 43.599059]}, "properties": {"osm_id": 613529339, "osm_type": "node", "amenity": "kindergarten", "name": "Crèche parentale Bamboubulle"}}, {"type": "Feature", "geometry": {"type": "Point", "coordinates": [3.8613663, 43.6070489]}, "properties": {"osm_id": 613535562, "osm_type": "node", "amenity": "kindergarten", "name": "Crèche parentale Les Moussaillons"}}, {"type": "Feature", "geometry": {"type": "Point", "coordinates": [3.9156578, 43.6018745]}, "properties": {"osm_id": 617636853, "osm_type": "node", "amenity": "kindergarten", "name": "Crèche collective Robin des Bois"}}, {"type": "Feature", "geometry": {"type": "Point", "coordinates": [3.9155692, 43.6019172]}, "properties": {"osm_id": 617638467, "osm_type": "node", "amenity": "kindergarten", "name": "Crèche familiale municipale Les Elfes"}}, {"type": "Feature", "geometry": {"type": "Point", "coordinates": [3.915462, 43.6019503]}, "properties": {"osm_id": 617639143, "osm_type": "node", "amenity": "kindergarten", "check_date": "2024-06-08", "name": "Halte-garderie Mowgli"}}, {"type": "Feature", "geometry": {"type": "Point", "coordinates": [3.9153466, 43.6019639]}, "properties": {"osm_id": 617639404, "osm_type": "node", "amenity": "kindergarten", "name": "Crèche familiale municipale Les Petits Loups"}}, {"type": "Feature", "geometry": {"type": "Point", "coordinates": [3.8353471, 43.6092387]}, "properties": {"osm_id": 617642399, "osm_type": "node", "amenity": "kindergarten", "name": "Halte-garderie municipale André Chamson"}}, {"type": "Feature", "geometry": {"type": "Point", "coordinates": [3.8649012, 43.5927929]}, "properties": {"osm_id": 617646074, "osm_type": "node", "amenity": "kindergarten", "name": "Crèche associative Les Lilas"}}, {"type": "Feature", "geometry": {"type": "Point", "coordinates": [3.8644166, 43.5889695]}, "properties": {"osm_id": 617655390, "osm_type": "node", "amenity": "kindergarten", "name": "Halte-garderie municipale Villeneuve d'Angoulême", "ref:FR:SIRET": "21340172202009"}}, {"type": "Feature", "geometry": {"type": "Point", "coordinates": [3.8939905, 43.6189235]}, "properties": {"osm_id": 617718152, "osm_type": "node", "amenity": "kindergarten", "name": "Lieu de rencontre parents-enfants Doudou partage"}}, {"type": "Feature", "geometry": {"type": "Point", "coordinates": [3.8768532, 43.5808543]}, "properties": {"osm_id": 617728569, "osm_type": "node", "amenity": "kindergarten", "name": "Lieu de rencontre parents-enfants L'aile et la Plume"}}, {"type": "Feature", "geometry": {"type": "Point", "coordinates": [7.7178392, 48.594817]}, "properties": {"osm_id": 617835445, "osm_type": "node", "amenity": "kindergarten", "check_date": "2025-03-10", "name": "micro-crèche tam-tam", "note": "ancien café À la cloche", "source": "survey"}}, {"type": "Feature", "geometry": {"type": "Point", "coordinates": [3.8418899, 43.5939712]}, "properties": {"osm_id": 621890204, "osm_type": "node", "amenity": "kindergarten", "name": "Espace Petite Enfance Val de Croze", "ref:FR:SIRET": "34446376500083"}}, {"type": "Feature", "geometry": {"type": "Point", "coordinates": [3.9041301, 43.6106339]}, "properties": {"osm_id": 621896482, "osm_type": "node", "amenity": "kindergarten", "check_date": "2025-08-11", "name": "Crèche associative Coste Belle"}}, {"type": "Feature", "geometry": {"type": "Point", "coordinates": [3.8412333, 43.5930504]}, "properties": {"osm_id": 621900172, "osm_type": "node", "amenity": "kindergarten", "name": "Crèche associative La Ribambelle", "wheelchair": "yes"}}, {"type": "Feature", "geometry": {"type": "Point", "coordinates": [3.8702654, 43.5965742]}, "properties": {"osm_id": 621911520, "osm_type": "node", "amenity": "kindergarten", "name": "Halte-garderie municipale Mary Poppins"}}, {"type": "Feature", "geometry": {"type": "Point", "coordinates": [3.8399974, 43.6261298]}, "properties": {"osm_id": 628986701, "osm_type": "node", "amenity": "kindergarten", "name": "Jardin d'enfants associatif Sur les Ailes des Lutins"}}, {"type": "Feature", "geometry": {"type": "Point", "coordinates": [3.8876144, 43.6087716]}, "properties": {"osm_id": 629020994, "osm_type": "node", "addr:street": "Place du Nombre d'Or", "amenity": "kindergarten", "name": "Lieu de rencontre parents-enfants Le Baobab", "wheelchair": "yes"}}, {"type": "Feature", "geometry": {"type": "Point", "coordinates": [3.8735178, 43.6056122]}, "properties": {"osm_id": 629025208, "osm_type": "node", "amenity": "kindergarten", "name": "Lieu de rencontre parents-enfants Montpellier Gambetta"}}, {"type": "Feature", "geometry": {"type": "Point", "coordinates": [-0.6018566, 47.503717]}, "properties": {"osm_id": 631435094, "osm_type": "node", "amenity": "kindergarten", "kindergarten:FR": "crèche_familiale", "name": "Crèche familiale de l'Adezière"}}, {"type": "Feature", "geometry": {"type": "Point", "coordinates": [2.5028912, 48.8523941]}, "properties": {"osm_id": 631838814, "osm_type": "node", "amenity": "kindergarten", "name": "Crèche des Joncs Marins"}}, {"type": "Feature", "geometry": {"type": "Point", "coordinates": [2.3286192, 48.9043184]}, "properties": {"osm_id": 637464441, "osm_type": "node", "amenity": "kindergarten", "name": "Relais petite enfance Émile Zola", "survey:date": "2025-01-08"}}, {"type": "Feature", "geometry": {"type": "Point", "coordinates": [-1.6669613, 47.9970046]}, "properties": {"osm_id": 639966240, "osm_type": "node", "amenity": "kindergarten", "check_date": "2024-04-14", "name": "Espace Petite Enfance"}}, {"type": "Feature", "geometry": {"type": "Point", "coordinates": [-1.6370598, 48.1267919]}, "properties": {"osm_id": 662422082, "osm_type": "node", "amenity": "kindergarten", "check_date": "2024-12-28", "name": "Crèche municipale du Lac"}}, {"type": "Feature", "geometry": {"type": "Point", "coordinates": [2.5003377, 48.8374374]}, "properties": {"osm_id": 665550782, "osm_type": "node", "amenity": "kindergarten", "kindergarten:FR": "crèche_collective", "name": "Crèche Départementale Gabriel Péri", "operator:type": "public"}}, {"type": "Feature", "geometry": {"type": "Point", "coordinates": [4.6015654, 44.7369541]}, "properties": {"osm_id": 665715810, "osm_type": "node", "amenity": "kindergarten", "education": "kindergarten", "name": "Crèche Municipale", "source": "cadastre-dgi-fr source : Direction Générale des Impôts - Cadastre. Mise à jour : 2010"}}, {"type": "Feature", "geometry": {"type": "Point", "coordinates": [2.5074956, 48.8344735]}, "properties": {"osm_id": 670930265, "osm_type": "node", "amenity": "kindergarten", "check_date": "2025-06-22", "name": "Crèche Pierre Brossolette"}}, {"type": "Feature", "geometry": {"type": "Point", "coordinates": [2.515001, 48.8332693]}, "properties": {"osm_id": 676316480, "osm_type": "node", "amenity": "kindergarten", "kindergarten:FR": "crèche_collective", "name": "Crèche Associative Les Diablotins"}}, {"type": "Feature", "geometry": {"type": "Point", "coordinates": [-1.6643537, 48.0901021]}, "properties": {"osm_id": 681288385, "osm_type": "node", "amenity": "kindergarten", "kindergarten:FR": "crèche_parentale", "name": "Crêche parentale Les petits potes", "ref:FR:SIRET": "38753200500049"}}, {"type": "Feature", "geometry": {"type": "Point", "coordinates": [2.4983066, 48.8351495]}, "properties": {"osm_id": 684447219, "osm_type": "node", "amenity": "kindergarten", "name": "Crèche Les Titounets"}}, {"type": "Feature", "geometry": {"type": "Point", "coordinates": [-2.7174074, 48.4968789]}, "properties": {"osm_id": 703503424, "osm_type": "node", "amenity": "kindergarten", "name": "Garderie Périscolaire Municipale", "name:br": "Diwallerezh troskol kêr", "name:fr": "Garderie Périscolaire Municipale", "source:name:br": "ofis publik ar brezhoneg"}}, {"type": "Feature", "geometry": {"type": "Point", "coordinates": [3.1583414, 50.697107]}, "properties": {"osm_id": 705260891, "osm_type": "node", "amenity": "kindergarten", "name": "Garderie", "source": "cadastre-dgi-fr source : Direction Générale des Impôts - Cadastre. Mise à jour : 2010"}}, {"type": "Feature", "geometry": {"type": "Point", "coordinates": [2.5231682, 48.8378144]}, "properties": {"osm_id": 705627331, "osm_type": "node", "addr:housenumber": "15", "addr:street": "Passage Paillot", "amenity": "kindergarten", "name": "Crèche municipale du Colombier", "opening_hours": "Mo-Fr 07:30-19:00", "operator:type": "public"}}, {"type": "Feature", "geometry": {"type": "Point", "coordinates": [2.5293241, 48.8347959]}, "properties": {"osm_id": 745965706, "osm_type": "node", "amenity": "kindergarten", "name": "La Maison Kangourou"}}, {"type": "Feature", "geometry": {"type": "Point", "coordinates": [5.8833952, 45.280426]}, "properties": {"osm_id": 784208755, "osm_type": "node", "amenity": "kindergarten", "name": "Les Charmanches"}}, {"type": "Feature", "geometry": {"type": "Point", "coordinates": [2.136764, 48.8938999]}, "properties": {"osm_id": 792766914, "osm_type": "node", "addr:city": "Le Vésinet", "addr:country": "FR", "addr:housenumber": "56", "addr:postcode": "78110", "addr:street": "Boulevard Carnot", "amenity": "kindergarten", "check_date": "2026-04-13", "ele": "49", "name": "Crèche du Centre"}}, {"type": "Feature", "geometry": {"type": "Point", "coordinates": [2.0997321, 48.9980419]}, "properties": {"osm_id": 814130359, "osm_type": "node", "amenity": "kindergarten", "check_date": "2025-06-15", "kindergarten:FR": "multiaccueil", "name": "Multi Accueil Tournycoti"}}, {"type": "Feature", "geometry": {"type": "Point", "coordinates": [-1.7569089, 48.2202828]}, "properties": {"osm_id": 817300499, "osm_type": "node", "amenity": "kindergarten", "name": "Astromôme"}}, {"type": "Feature", "geometry": {"type": "Point", "coordinates": [1.8716353, 46.1703888]}, "properties": {"osm_id": 817725675, "osm_type": "node", "addr:housenumber": "2", "addr:street": "Rue de la Laïcité", "amenity": "kindergarten", "name": "Relais d'assistante maternelle du grand Guéret"}}, {"type": "Feature", "geometry": {"type": "Point", "coordinates": [-1.4249698, 46.8051133]}, "properties": {"osm_id": 826712858, "osm_type": "node", "amenity": "kindergarten", "kindergarten:FR": "halte_garderie", "name": "Garderie Périscolaire La Marelle"}}, {"type": "Feature", "geometry": {"type": "Point", "coordinates": [7.4465246, 48.4067803]}, "properties": {"osm_id": 856496878, "osm_type": "node", "amenity": "kindergarten", "check_date": "2024-04-05", "name": "Maison de l'Enfant"}}, {"type": "Feature", "geometry": {"type": "Point", "coordinates": [5.7070853, 45.1798605]}, "properties": {"osm_id": 857513849, "osm_type": "node", "amenity": "kindergarten", "check_date": "2026-02-11", "contact:phone": "+33 7 60 24 09 10", "contact:website": "https://mamlecocondeveil.fr/", "description": "Maison d'assistance maternelle pouvant accueillir des enfants dès 3 mois.", "kindergarten:FR": "maison_assistante_maternelle", "name": "Le Cocon d’Eveil", "opening_hours": "Mo-Fr 06:00-20:00", "wheelchair": "limited"}}, {"type": "Feature", "geometry": {"type": "Point", "coordinates": [-1.2004472, 45.8349872]}, "properties": {"osm_id": 862885510, "osm_type": "node", "amenity": "kindergarten", "name": "Centre de Vacances - Le Soleil Levant"}}, {"type": "Feature", "geometry": {"type": "Point", "coordinates": [2.2278623, 48.8352001]}, "properties": {"osm_id": 868425746, "osm_type": "node", "addr:housenumber": "40", "addr:street": "Rue de Sèvres", "amenity": "kindergarten", "name": "Le Manège Enchanté", "opening_hours": "Mo-Fr 08:00-19:00"}}, {"type": "Feature", "geometry": {"type": "Point", "coordinates": [3.4749296, 45.9637468]}, "properties": {"osm_id": 872513687, "osm_type": "node", "amenity": "kindergarten", "name": "Parc paysager"}}, {"type": "Feature", "geometry": {"type": "Point", "coordinates": [3.4817796, 45.9646252]}, "properties": {"osm_id": 873873162, "osm_type": "node", "amenity": "kindergarten"}}, {"type": "Feature", "geometry": {"type": "Point", "coordinates": [4.1231049, 49.0465673]}, "properties": {"osm_id": 874298357, "osm_type": "node", "amenity": "kindergarten", "name": "Crèche"}}, {"type": "Feature", "geometry": {"type": "Point", "coordinates": [2.3610276, 48.8819609]}, "properties": {"osm_id": 877958811, "osm_type": "node", "amenity": "kindergarten", "check_date": "2024-03-17", "contact:housenumber": "13", "contact:street": "Rue Philippe de Girard", "kindergarten:FR": "crèche_collective", "name": "Crèche collective Philippe de Girard", "operator": "Mairie de Paris", "operator:type": "government", "operator:wikidata": "Q3278478", "source": "survey"}}, {"type": "Feature", "geometry": {"type": "Point", "coordinates": [2.2401129, 48.8330959]}, "properties": {"osm_id": 882356112, "osm_type": "node", "addr:housenumber": "8", "amenity": "kindergarten", "name": "Les Glycines", "ref:FR:SIRET": "21920012800581", "source": "survey"}}, {"type": "Feature", "geometry": {"type": "Point", "coordinates": [7.5842605, 48.0325873]}, "properties": {"osm_id": 906765107, "osm_type": "node", "amenity": "kindergarten", "name": "Tageselternverein Breisach e.V.", "website": "http://tageselternverein-suedlicher-breisgau-kaiserstuhl.de"}}, {"type": "Feature", "geometry": {"type": "Point", "coordinates": [2.3655987, 48.8832881]}, "properties": {"osm_id": 912442492, "osm_type": "node", "amenity": "kindergarten", "check_date": "2025-08-23", "contact:city": "Paris", "contact:housenumber": "55", "contact:phone": "+33 1 55 26 94 60", "contact:postcode": "75010", "contact:street": "Rue de l'Aqueduc", "education": "kindergarten", "kindergarten:FR": "halte_garderie", "name": "Halte-garderie Aqueduc", "operator": "Ville de Paris", "ref:FR:SIRET": "21750001621437"}}, {"type": "Feature", "geometry": {"type": "Point", "coordinates": [2.1407458, 48.6736156]}, "properties": {"osm_id": 915607678, "osm_type": "node", "amenity": "kindergarten", "kindergarten:FR": "crèche_parentale", "name": "Crèche parentale les Casteloups"}}, {"type": "Feature", "geometry": {"type": "Point", "coordinates": [6.9266274, 43.659217]}, "properties": {"osm_id": 915613501, "osm_type": "node", "addr:housenumber": "6", "addr:street": "Boulevard Gambetta", "amenity": "kindergarten", "name": "Halte Garderie – La Roque"}}, {"type": "Feature", "geometry": {"type": "Point", "coordinates": [2.3674139, 48.831878]}, "properties": {"osm_id": 916462805, "osm_type": "node", "amenity": "kindergarten", "check_date": "2024-11-23", "kindergarten:FR": "crèche_parentale", "name": "Crèche Parentale Capucine et Papillon", "source": "http://www.paris.fr/creches"}}, {"type": "Feature", "geometry": {"type": "Point", "coordinates": [4.3521301, 43.8344646]}, "properties": {"osm_id": 920223225, "osm_type": "node", "addr:housenumber": "12", "amenity": "kindergarten", "name": "Delon Soubeyran", "source": "cadastre-dgi-fr source : Direction Générale des Impôts - Cadastre. Mise à jour : 2010"}}, {"type": "Feature", "geometry": {"type": "Point", "coordinates": [4.3496719, 43.8358571]}, "properties": {"osm_id": 926990139, "osm_type": "node", "addr:housenumber": "31", "amenity": "kindergarten", "name": "Les Petites Canailles", "ref:FR:SIRET": "38361214000012", "source": "cadastre-dgi-fr source : Direction Générale des Impôts - Cadastre. Mise à jour : 2010"}}, {"type": "Feature", "geometry": {"type": "Point", "coordinates": [4.8387992, 45.7376021]}, "properties": {"osm_id": 931804414, "osm_type": "node", "amenity": "kindergarten", "check_date": "2026-06-06", "name": "Crèche Gribouille"}}, {"type": "Feature", "geometry": {"type": "Point", "coordinates": [3.6629493, 45.5639326]}, "properties": {"osm_id": 941640376, "osm_type": "node", "amenity": "kindergarten"}}, {"type": "Feature", "geometry": {"type": "Point", "coordinates": [4.4356768, 45.4939442]}, "properties": {"osm_id": 944435324, "osm_type": "node", "amenity": "kindergarten", "name": "Les Petits Filous", "website": "https://creche-lespetitsfilous.fr/"}}, {"type": "Feature", "geometry": {"type": "Point", "coordinates": [2.2516476, 48.8779095]}, "properties": {"osm_id": 946419370, "osm_type": "node", "amenity": "kindergarten", "brand": "Crèche People & Baby", "brand:wikidata": "Q112913569", "check_date": "2024-11-09", "name": "Crèche People & Baby", "nursery": "yes", "source": "survey"}}, {"type": "Feature", "geometry": {"type": "Point", "coordinates": [3.0734551, 50.6327792]}, "properties": {"osm_id": 947011458, "osm_type": "node", "amenity": "kindergarten", "check_date": "2024-08-25", "contact:city": "Lille", "contact:housenumber": "90", "contact:postcode": "59000", "contact:street": "Avenue du Président John-Fitzgerald Kennedy", "name": "Crèche Municipale les Marmottes", "source": "cadastre-dgi-fr source : Direction Générale des Impôts - Cadastre. Mise à jour : 2010"}}, {"type": "Feature", "geometry": {"type": "Point", "coordinates": [5.6890691, 45.2242544]}, "properties": {"osm_id": 952060401, "osm_type": "node", "addr:housenumber": "4", "addr:street": "Rue du 19 Mars 1962", "amenity": "kindergarten", "name": "Crèche Fiancey", "phone": "+33 4 76 99 30 06", "source": "cadastre-dgi-fr source : Direction Générale des Impôts - Cadastre ; mise à jour :2010"}}, {"type": "Feature", "geometry": {"type": "Point", "coordinates": [1.0081005, 49.2920713]}, "properties": {"osm_id": 967767195, "osm_type": "node", "amenity": "kindergarten"}}, {"type": "Feature", "geometry": {"type": "Point", "coordinates": [3.2397953, 50.6319626]}, "properties": {"osm_id": 967996097, "osm_type": "node", "amenity": "kindergarten", "kindergarten:FR": "halte_garderie", "name": "Garderie Coccinelle", "source": "cadastre-dgi-fr source : Direction Générale des Impôts - Cadastre. Mise à jour : 2010"}}, {"type": "Feature", "geometry": {"type": "Point", "coordinates": [1.5759596, 50.0677601]}, "properties": {"osm_id": 971983238, "osm_type": "node", "amenity": "kindergarten", "name": "Nid'Anges", "source": "cadastre-dgi-fr source : Direction Générale des Impôts - Cadastre. Mise à jour : 2010"}}, {"type": "Feature", "geometry": {"type": "Point", "coordinates": [2.2362328, 48.8286512]}, "properties": {"osm_id": 974136667, "osm_type": "node", "addr:city": "Boulogne-Billancourt", "addr:housenumber": "13", "addr:postcode": "92100", "addr:street": "Cours de l'Île Seguin", "amenity": "kindergarten", "name": "Crèche Cours-Seguin", "operator": "Les Petits Chaperons Rouges", "operator:type": "public", "phone": "+33 1 86 22 30 48"}}, {"type": "Feature", "geometry": {"type": "Point", "coordinates": [2.3483492, 48.7477504]}, "properties": {"osm_id": 979800388, "osm_type": "node", "amenity": "kindergarten", "name": "Centre aéré Médicis"}}, {"type": "Feature", "geometry": {"type": "Point", "coordinates": [2.3478575, 48.7472444]}, "properties": {"osm_id": 979800414, "osm_type": "node", "amenity": "kindergarten", "name": "Crèche Les P'tis Loups"}}, {"type": "Feature", "geometry": {"type": "Point", "coordinates": [2.0393545, 48.7890992]}, "properties": {"osm_id": 985224836, "osm_type": "node", "amenity": "kindergarten", "check_date": "2025-05-12", "kindergarten:FR": "crèche_collective", "name": "Crèche collective Charles Perrault"}}, {"type": "Feature", "geometry": {"type": "Point", "coordinates": [2.0394906, 48.7893555]}, "properties": {"osm_id": 985224839, "osm_type": "node", "amenity": "kindergarten", "check_date": "2025-05-12", "name": "Centre de Loisirs"}}, {"type": "Feature", "geometry": {"type": "Point", "coordinates": [7.3600808, 47.7576198]}, "properties": {"osm_id": 985243635, "osm_type": "node", "amenity": "kindergarten", "name": "Bab'Ill", "source": "cadastre-dgi-fr source : Direction Générale des Impôts - Cadastre. Mise à jour : 2010"}}, {"type": "Feature", "geometry": {"type": "Point", "coordinates": [2.9026465, 42.6835877]}, "properties": {"osm_id": 992585207, "osm_type": "node", "amenity": "kindergarten", "name": "Crèche Multi-Accueil du Moulin-à-Vent", "opening_hours": "Mo-Fr 07:30-18:30"}}, {"type": "Feature", "geometry": {"type": "Point", "coordinates": [2.3659695, 48.8308432]}, "properties": {"osm_id": 1000763333, "osm_type": "node", "amenity": "kindergarten", "check_date": "2024-04-07", "kindergarten:FR": "crèche_collective", "name": "Crèche collective Clisson", "source": "http://www.paris.fr/creches"}}, {"type": "Feature", "geometry": {"type": "Point", "coordinates": [6.5538533, 44.4836469]}, "properties": {"osm_id": 1005455883, "osm_type": "node", "addr:place": "Bois Méan 1800", "amenity": "kindergarten", "email": "info@esi-lesorres.com", "hide": "no", "max_age": "15", "min_age": "0", "name": "ESI Ozone Club des Souris", "opening_hours": "Tu-Su 14:00-17:00;We off;Fr off;Sa off;SH off", "phone": "+33 4 92 44 07 97", "ref": "A28", "website": "https://www.esi-lesorres.com/"}}, {"type": "Feature", "geometry": {"type": "Point", "coordinates": [3.0743055, 50.6145248]}, "properties": {"osm_id": 1019089091, "osm_type": "node", "amenity": "kindergarten", "check_date": "2026-05-02", "name": "Crèche Line Dariel", "operator:type": "public"}}, {"type": "Feature", "geometry": {"type": "Point", "coordinates": [4.8509323, 45.7579329]}, "properties": {"osm_id": 1035630764, "osm_type": "node", "amenity": "kindergarten", "check_date": "2026-04-18", "name": "Crèche Boileau", "ref:FR:SIRET": "21690123103072"}}, {"type": "Feature", "geometry": {"type": "Point", "coordinates": [2.8915522, 42.7097262]}, "properties": {"osm_id": 1059646766, "osm_type": "node", "amenity": "kindergarten", "name": "Crèche Familiale du Moyen-Vernet"}}, {"type": "Feature", "geometry": {"type": "Point", "coordinates": [0.6873272, 47.3807398]}, "properties": {"osm_id": 1083305506, "osm_type": "node", "amenity": "kindergarten", "name": "Bambins des Bois"}}, {"type": "Feature", "geometry": {"type": "Point", "coordinates": [2.4417143, 49.3864112]}, "properties": {"osm_id": 1128593916, "osm_type": "node", "amenity": "kindergarten", "name": "École Jardin d'enfants"}}, {"type": "Feature", "geometry": {"type": "Point", "coordinates": [2.1692838, 43.8920081]}, "properties": {"osm_id": 1133613412, "osm_type": "node", "amenity": "kindergarten"}}, {"type": "Feature", "geometry": {"type": "Point", "coordinates": [2.276171, 48.904031]}, "properties": {"osm_id": 1138850747, "osm_type": "node", "amenity": "kindergarten", "name": "Jean Mermoz"}}, {"type": "Feature", "geometry": {"type": "Point", "coordinates": [2.276866, 48.904008]}, "properties": {"osm_id": 1138852618, "osm_type": "node", "amenity": "kindergarten"}}, {"type": "Feature", "geometry": {"type": "Point", "coordinates": [-4.0557574, 47.9978932]}, "properties": {"osm_id": 1142046459, "osm_type": "node", "amenity": "kindergarten", "name": "Crèche Les Petis Lutins"}}, {"type": "Feature", "geometry": {"type": "Point", "coordinates": [-1.7150125, 47.9798269]}, "properties": {"osm_id": 1147864520, "osm_type": "node", "amenity": "kindergarten", "name": "Centre de loisirs Méli-Mélo", "operator:type": "public"}}, {"type": "Feature", "geometry": {"type": "Point", "coordinates": [5.0929248, 47.4405992]}, "properties": {"osm_id": 1153066443, "osm_type": "node", "amenity": "kindergarten"}}, {"type": "Feature", "geometry": {"type": "Point", "coordinates": [0.7695608, 47.3938212]}, "properties": {"osm_id": 1154327879, "osm_type": "node", "amenity": "kindergarten"}}, {"type": "Feature", "geometry": {"type": "Point", "coordinates": [0.924453, 44.9198526]}, "properties": {"osm_id": 1168431211, "osm_type": "node", "amenity": "kindergarten", "name": "Crèche La Souris Jaune"}}, {"type": "Feature", "geometry": {"type": "Point", "coordinates": [5.7467293, 45.1612519]}, "properties": {"osm_id": 1174698407, "osm_type": "node", "amenity": "kindergarten", "kindergarten:FR": "halte_garderie", "name": "Halte-Garderie Tom Pouce"}}, {"type": "Feature", "geometry": {"type": "Point", "coordinates": [5.9184325, 45.5602784]}, "properties": {"osm_id": 1177078891, "osm_type": "node", "amenity": "kindergarten", "description": "Maison de l'enfance de Bellevue", "name": "La Gaminière", "ref:FR:FINESS": "730006533"}}, {"type": "Feature", "geometry": {"type": "Point", "coordinates": [3.9520281, 49.0488399]}, "properties": {"osm_id": 1179094261, "osm_type": "node", "amenity": "kindergarten", "name": "Crèche Thiercelin"}}, {"type": "Feature", "geometry": {"type": "Point", "coordinates": [5.6833421, 45.1911504]}, "properties": {"osm_id": 1180832799, "osm_type": "node", "addr:city": "Fontaine", "addr:housenumber": "13", "addr:postcode": "38600", "addr:street": "Rue Henri Roudet", "admin_level": "8", "amenity": "kindergarten", "contact:phone": "+33 4 76 28 76 50", "contact:website": "https://ville-fontaine.fr/enfance-jeunesse/espace-3-pom/", "description": "Espace Petite Enfance", "government": "youth_welfare_department", "name": "3 Pom'", "opening_hours": "Mo-Th 09:00-12:00,13:30-17:00; Tu 09:00-12:00,13:30-19:00; Fr 09:00-14:30", "operator": "Ville de Fontaine", "operator:type": "public"}}, {"type": "Feature", "geometry": {"type": "Point", "coordinates": [2.5056702, 48.9449866]}, "properties": {"osm_id": 1185035367, "osm_type": "node", "amenity": "kindergarten", "name": "Crèche Familiale Croix Nobillon"}}, {"type": "Feature", "geometry": {"type": "Point", "coordinates": [6.6555885, 45.1759804]}, "properties": {"osm_id": 1187516003, "osm_type": "node", "amenity": "kindergarten"}}, {"type": "Feature", "geometry": {"type": "Point", "coordinates": [2.2363382, 48.8449764]}, "properties": {"osm_id": 1196728823, "osm_type": "node", "addr:housenumber": "75", "addr:street": "Rue des Tilleuls", "amenity": "kindergarten", "brand": "Babilou", "brand:wikidata": "Q16530800", "check_date": "2025-06-28", "name": "Babilou", "opening_hours": "Mo-Fr 08:00-19:00", "ref:FR:SIRET": "44781860000036", "source": "survey"}}, {"type": "Feature", "geometry": {"type": "Point", "coordinates": [2.242597, 48.908881]}, "properties": {"osm_id": 1200481376, "osm_type": "node", "amenity": "kindergarten"}}, {"type": "Feature", "geometry": {"type": "Point", "coordinates": [7.0949201, 43.6278896]}, "properties": {"osm_id": 1205701128, "osm_type": "node", "amenity": "kindergarten", "contact:city": "Biot", "contact:housename": "Crèche familiale Les Diablotins", "contact:housenumber": "6", "contact:phone": "+33 4 92 38 82 00", "contact:postcode": "06410", "contact:street": "Chemin Neuf", "name": "Crèche familiale LesDiablotins", "toilets:wheelchair": "no", "wheelchair": "yes"}}, {"type": "Feature", "geometry": {"type": "Point", "coordinates": [-0.6397979, 44.7918636]}, "properties": {"osm_id": 1215922234, "osm_type": "node", "addr:housenumber": "1", "addr:street": "Paul Éluard", "amenity": "kindergarten", "capacity": "20", "contact:email": "contact@coquelicot-pessac.fr", "contact:phone": "+33 5 57 26 92 93", "kindergarten:FR": "crèche_collective", "name": "Crèche Coquelicot", "opening_hours": "Mo-Fr 07:30-18:30, PH off", "operator:type": "public"}}, {"type": "Feature", "geometry": {"type": "Point", "coordinates": [-0.6446149, 44.7961617]}, "properties": {"osm_id": 1215922245, "osm_type": "node", "addr:housenumber": "12", "addr:street": "Rue Ferdinand Antoune", "amenity": "kindergarten", "name": "Les petits petons", "ref:FR:NAF": "88.91A", "ref:FR:SIREN": "347615015", "ref:FR:SIRET": "34761501500026", "source": "INSEE - 2025-03"}}, {"type": "Feature", "geometry": {"type": "Point", "coordinates": [0.6934222, 47.3731782]}, "properties": {"osm_id": 1231489021, "osm_type": "node", "amenity": "kindergarten", "check_date": "2024-06-28", "contact:city": "Tours", "contact:housenumber": "7", "contact:postcode": "37000", "contact:street": "Rue Toulouse-Lautrec", "email": "relaispetiteenfance@ville-tours.fr", "kindergarten:FR": "crèche_familiale", "name": "Crèche Toulouse Lautrec", "phone": "+33 2 47 21 67 22", "ref:FR:SIRET": "21370261601340", "website": "https://www.tours.fr/equipement/multi-accueil-municipal-toulouse-lautrec/"}}, {"type": "Feature", "geometry": {"type": "Point", "coordinates": [6.2299218, 45.2219668]}, "properties": {"osm_id": 1231562079, "osm_type": "node", "amenity": "kindergarten", "source": "cadastre-dgi-fr source : Direction Générale des Impôts - Cadastre. Mise à jour : 2011"}}, {"type": "Feature", "geometry": {"type": "Point", "coordinates": [4.8898024, 45.764894]}, "properties": {"osm_id": 1241238678, "osm_type": "node", "amenity": "kindergarten", "check_date": "2025-03-14", "name": "Crêche Nelly Roussel"}}, {"type": "Feature", "geometry": {"type": "Point", "coordinates": [-0.6400542, 44.7685565]}, "properties": {"osm_id": 1242601984, "osm_type": "node", "amenity": "kindergarten"}}, {"type": "Feature", "geometry": {"type": "Point", "coordinates": [1.4827146, 43.5509699]}, "properties": {"osm_id": 1243766550, "osm_type": "node", "amenity": "kindergarten", "check_date": "2026-02-27", "name": "Les Petits Mousses"}}, {"type": "Feature", "geometry": {"type": "Point", "coordinates": [7.6982711, 48.3799166]}, "properties": {"osm_id": 1251826999, "osm_type": "node", "addr:city": "Gerstheim", "addr:housenumber": "13", "addr:postcode": "67150", "addr:street": "Rue de Daubensand", "amenity": "kindergarten", "contact:email": "creche.gerstheim@cc-erstein.fr", "contact:phone": "+33 3 88 98 41 63", "name": "Les libellules", "opening_hours": "Mo-Su 07:30-18:30", "operator": "La Communauté de Communes du Canton d'Erstein", "operator:type": "public", "preschool": "no"}}, {"type": "Feature", "geometry": {"type": "Point", "coordinates": [5.8600641, 45.2179175]}, "properties": {"osm_id": 1252199389, "osm_type": "node", "amenity": "kindergarten"}}, {"type": "Feature", "geometry": {"type": "Point", "coordinates": [7.7056763, 48.3742046]}, "properties": {"osm_id": 1252300578, "osm_type": "node", "addr:city": "Gerstheim", "addr:housenumber": "1", "addr:postcode": "67150", "addr:street": "Rue des Cigognes", "amenity": "kindergarten", "isced:level": "0", "kindergarten:FR": "multiaccueil", "name": "École élémentaire", "operator:type": "public", "ref:UAI": "0671996F", "school:FR": "élémentaire", "source": "Ministère de l'Éducation nationale et de la Jeunesse - 2022-07"}}, {"type": "Feature", "geometry": {"type": "Point", "coordinates": [7.7054212, 48.3746104]}, "properties": {"osm_id": 1252300584, "osm_type": "node", "addr:city": "Gerstheim", "addr:housenumber": "1", "addr:postcode": "67150", "addr:street": "Rue des Cigognes", "amenity": "kindergarten", "isced:level": "1", "kindergarten:FR": "multiaccueil", "name": "École maternelle", "operator:type": "public", "ref:UAI": "0671996F", "school:FR": "maternelle", "source": "Ministère de l'Éducation nationale et de la Jeunesse - 2022-07"}}, {"type": "Feature", "geometry": {"type": "Point", "coordinates": [2.2409014, 48.8455145]}, "properties": {"osm_id": 1255346223, "osm_type": "node", "amenity": "kindergarten", "name": "La Balançoire", "source": "survey"}}, {"type": "Feature", "geometry": {"type": "Point", "coordinates": [1.5332223, 43.5861657]}, "properties": {"osm_id": 1261013337, "osm_type": "node", "amenity": "kindergarten", "check_date": "2026-05-13", "email": "creche@mairie-quint-fonsegrives.fr", "name": "Créche les Quintounets", "opening_hours": "Mo-Fr 07:30-18:30", "phone": "+33561246057", "source": "Local knowledge", "website": "https://www.quint-fonsegrives.fr/enfance-jeunesse/petite-enfance/multi-accueils-creche-et-halte/"}}, {"type": "Feature", "geometry": {"type": "Point", "coordinates": [5.9467344, 45.8653124]}, "properties": {"osm_id": 1271007954, "osm_type": "node", "amenity": "kindergarten", "name": "Croq’Lune"}}, {"type": "Feature", "geometry": {"type": "Point", "coordinates": [2.3185829, 48.8831836]}, "properties": {"osm_id": 1272037733, "osm_type": "node", "addr:city": "Paris", "addr:housenumber": "2", "addr:postcode": "75017", "addr:street": "Rue Dulong", "amenity": "kindergarten", "check_date": "2025-01-24", "education": "kindergarten", "email": "info@club-biberon.fr", "name": "Club biberon", "opening_hours": "Mo-Fr 08:30-19:00", "phone": "+33 1 42 66 43 16", "preschool": "no"}}, {"type": "Feature", "geometry": {"type": "Point", "coordinates": [4.8217642, 45.7524104]}, "properties": {"osm_id": 1275874296, "osm_type": "node", "amenity": "kindergarten", "name": "Les P'Tits Malins"}}, {"type": "Feature", "geometry": {"type": "Point", "coordinates": [2.2372385, 48.8409457]}, "properties": {"osm_id": 1278107349, "osm_type": "node", "amenity": "kindergarten", "check_date": "2025-10-26", "name": "Filapi", "note": "Accueil periscolaire 3-10 ans", "source": "survey"}}, {"type": "Feature", "geometry": {"type": "Point", "coordinates": [2.2973594, 48.8720541]}, "properties": {"osm_id": 1289311110, "osm_type": "node", "amenity": "kindergarten", "education": "kindergarten", "name": "Crèche de l'Étoile"}}, {"type": "Feature", "geometry": {"type": "Point", "coordinates": [2.9514043, 48.3792159]}, "properties": {"osm_id": 1291555679, "osm_type": "node", "addr:housename": "Crèche des Bambins", "amenity": "kindergarten", "name": "Crèche des Bambins", "old_name": "Crèche des Bambins"}}, {"type": "Feature", "geometry": {"type": "Point", "coordinates": [4.3468605, 46.1662296]}, "properties": {"osm_id": 1294997427, "osm_type": "node", "amenity": "kindergarten"}}, {"type": "Feature", "geometry": {"type": "Point", "coordinates": [2.248995, 48.839492]}, "properties": {"osm_id": 1298347303, "osm_type": "node", "amenity": "kindergarten", "name": "Crèche Louis Crestey", "source": "survey"}}, {"type": "Feature", "geometry": {"type": "Point", "coordinates": [-0.6511102, 44.8408832]}, "properties": {"osm_id": 1305747825, "osm_type": "node", "amenity": "kindergarten"}}, {"type": "Feature", "geometry": {"type": "Point", "coordinates": [2.2432781, 48.8306146]}, "properties": {"osm_id": 1306678380, "osm_type": "node", "amenity": "kindergarten", "check_date": "2024-11-12", "name": "Crèche Familiale La Toupie", "source": "survey"}}, {"type": "Feature", "geometry": {"type": "Point", "coordinates": [1.4342451, 43.6949617]}, "properties": {"osm_id": 1306936522, "osm_type": "node", "amenity": "kindergarten"}}, {"type": "Feature", "geometry": {"type": "Point", "coordinates": [-1.455683, 43.4986154]}, "properties": {"osm_id": 1307603715, "osm_type": "node", "addr:street": "Avenue du Béarn", "amenity": "kindergarten", "name": "Crèche Pyrène", "operator": "Ville de Bayonne"}}, {"type": "Feature", "geometry": {"type": "Point", "coordinates": [-3.9965949, 48.1013313]}, "properties": {"osm_id": 1312454879, "osm_type": "node", "addr:postcode": "29510", "addr:street": "Rue Jules Ferry", "amenity": "kindergarten", "name": "L'arbre à mômes - Maison de l'enfance", "name:br": "L'arbre à mômes - Ti ar Vugale", "name:fr": "L'arbre à mômes - Maison de l'enfance", "source:name:br": "proper translation"}}, {"type": "Feature", "geometry": {"type": "Point", "coordinates": [-4.5992925, 48.5256996]}, "properties": {"osm_id": 1314866747, "osm_type": "node", "amenity": "kindergarten", "name": "Maison de l'enfance"}}, {"type": "Feature", "geometry": {"type": "Point", "coordinates": [-0.8279467, 48.0660259]}, "properties": {"osm_id": 1316359065, "osm_type": "node", "amenity": "kindergarten", "name": "L'Île aux Mômes"}}, {"type": "Feature", "geometry": {"type": "Point", "coordinates": [4.3391137, 46.2080561]}, "properties": {"osm_id": 1318587890, "osm_type": "node", "amenity": "kindergarten", "email": "alsh@bsb71.fr", "name": "Pôle Enfance Jeunesse", "phone": "+33 3 85 28 40 73", "preschool": "no"}}, {"type": "Feature", "geometry": {"type": "Point", "coordinates": [2.2663103, 48.8844832]}, "properties": {"osm_id": 1328467046, "osm_type": "node", "amenity": "kindergarten", "name": "Caramel & Nougatine", "source": "survey"}}, {"type": "Feature", "geometry": {"type": "Point", "coordinates": [4.8678952, 45.7476542]}, "properties": {"osm_id": 1346757506, "osm_type": "node", "amenity": "kindergarten", "check_date": "2026-02-22", "name": "Groupe ACPPA - Les cristallines", "ref:FR:SIRET": "32735516000083"}}, {"type": "Feature", "geometry": {"type": "Point", "coordinates": [4.8687482, 45.7505852]}, "properties": {"osm_id": 1346757517, "osm_type": "node", "amenity": "kindergarten", "check_date": "2025-07-27", "name": "Crèche Collective Montbrillant"}}, {"type": "Feature", "geometry": {"type": "Point", "coordinates": [4.8714225, 45.7542783]}, "properties": {"osm_id": 1346757518, "osm_type": "node", "amenity": "kindergarten", "check_date": "2026-03-06", "check_date:opening_hours": "2022-02-13", "contact:email": "direction.paindepice@orange.fr", "contact:phone": "+33 4 72687084", "contact:website": "http://www.friponnerie.fr/index.php?page=pain-d-epices", "name": "Crèche Pain d'Épices", "opening_hours": "Mo-Fr 07:30-18:30", "operator": "La Fripponerie", "operator:type": "association"}}, {"type": "Feature", "geometry": {"type": "Point", "coordinates": [1.8231609, 43.3632896]}, "properties": {"osm_id": 1349066217, "osm_type": "node", "amenity": "kindergarten", "name": "Garderie", "opening_hours": "Mo,Tu 07:30-08:50,16:45-18:30; Th,Fr 07:30-08:50,16:45-18:30"}}, {"type": "Feature", "geometry": {"type": "Point", "coordinates": [1.9423899, 48.5723829]}, "properties": {"osm_id": 1351126058, "osm_type": "node", "addr:postcode": "78730", "addr:street": "Place du Jeu de Paume", "amenity": "kindergarten", "email": "creche.lapinbleus@free.fr", "name": "Crèche Les Lapins Bleus", "opening_hours": "Mo-Fr 08:00-18:30", "phone": "+33 130599594", "ref:FR:SIRET": "33422840000019"}}, {"type": "Feature", "geometry": {"type": "Point", "coordinates": [2.2540212, 48.8227579]}, "properties": {"osm_id": 1352317429, "osm_type": "node", "amenity": "kindergarten", "name": "Crèche Bébé d'Issy"}}, {"type": "Feature", "geometry": {"type": "Point", "coordinates": [6.4640645, 43.5336681]}, "properties": {"osm_id": 1354262473, "osm_type": "node", "amenity": "kindergarten", "name": "Garderie", "source": "cadastre-dgi-fr source : Direction Générale des Impôts - Cadastre. Mise à jour : 2009"}}, {"type": "Feature", "geometry": {"type": "Point", "coordinates": [-1.7060693, 48.0425264]}, "properties": {"osm_id": 1359365381, "osm_type": "node", "amenity": "kindergarten", "name": "Tintinabulle"}}, {"type": "Feature", "geometry": {"type": "Point", "coordinates": [1.7626434, 48.5158892]}, "properties": {"osm_id": 1361483349, "osm_type": "node", "amenity": "kindergarten"}}, {"type": "Feature", "geometry": {"type": "Point", "coordinates": [5.3247174, 45.0289715]}, "properties": {"osm_id": 1371293505, "osm_type": "node", "amenity": "kindergarten", "kindergarten:FR": "halte_garderie", "name": "Halte-garderie \"Les Pilloux\""}}, {"type": "Feature", "geometry": {"type": "Point", "coordinates": [-0.589498, 47.4754551]}, "properties": {"osm_id": 1376195713, "osm_type": "node", "addr:housenumber": "53", "addr:postcode": "49000", "addr:street": "Rue Henri Hamelin", "amenity": "kindergarten", "kindergarten:FR": "crèche_collective", "name": "Crèche collective Belle Beille"}}, {"type": "Feature", "geometry": {"type": "Point", "coordinates": [2.2890182, 48.8805098]}, "properties": {"osm_id": 1379439287, "osm_type": "node", "amenity": "kindergarten"}}, {"type": "Feature", "geometry": {"type": "Point", "coordinates": [0.1606729, 47.9674572]}, "properties": {"osm_id": 1385996302, "osm_type": "node", "alt_name": "Accueil Petite Enfance", "amenity": "kindergarten", "contact:email": "accueil-petite-enfance@ville-allonnes.fr", "contact:phone": "+33 2 43 39 11 85", "name": "Les Petites Frimousses", "opening_hours": "Mo,We 13:15-17:15; Tu,Th,Fr 08:45-12:00,13:15-17:15"}}, {"type": "Feature", "geometry": {"type": "Point", "coordinates": [3.8685024, 43.6169005]}, "properties": {"osm_id": 1386082318, "osm_type": "node", "addr:housenumber": "40", "addr:street": "Rue du Faubourg Saint-Jaumes", "amenity": "kindergarten", "contact:phone": "+33467040157", "name": "Crèche Babilou Saint Jaumes", "operator:type": "private", "wheelchair": "no"}}, {"type": "Feature", "geometry": {"type": "Point", "coordinates": [0.3415325, 46.5884118]}, "properties": {"osm_id": 1387955470, "osm_type": "node", "amenity": "kindergarten", "name": "3 Soleils"}}, {"type": "Feature", "geometry": {"type": "Point", "coordinates": [0.7092899, 44.8349348]}, "properties": {"osm_id": 1395158014, "osm_type": "node", "amenity": "kindergarten", "name": "Crèche", "source": "cadastre-dgi-fr source : Direction Générale des Impôts - Cadastre. Mise à jour : 2011"}}, {"type": "Feature", "geometry": {"type": "Point", "coordinates": [6.4594827, 46.3638937]}, "properties": {"osm_id": 1398650160, "osm_type": "node", "amenity": "kindergarten", "name": "Petit Pas Pillon"}}, {"type": "Feature", "geometry": {"type": "Point", "coordinates": [2.1882327, 48.8824553]}, "properties": {"osm_id": 1401275901, "osm_type": "node", "addr:housenumber": "45", "addr:street": "Avenue Paul Doumer", "amenity": "kindergarten", "brand": "Babilou", "brand:wikidata": "Q16530800", "check_date": "2024-11-08", "education": "kindergarten", "name": "Babilou", "phone": "+33 1 57 69 24 42"}}, {"type": "Feature", "geometry": {"type": "Point", "coordinates": [4.9957816, 47.3663125]}, "properties": {"osm_id": 1402251784, "osm_type": "node", "amenity": "kindergarten", "name": "Centre de loisirs d'Hauteville les Dijon"}}, {"type": "Feature", "geometry": {"type": "Point", "coordinates": [1.4299936, 43.0106407]}, "properties": {"osm_id": 1403099869, "osm_type": "node", "amenity": "kindergarten", "name": "Le Jardin des Lutins"}}, {"type": "Feature", "geometry": {"type": "Point", "coordinates": [3.5130222, 46.0598148]}, "properties": {"osm_id": 1403342962, "osm_type": "node", "amenity": "kindergarten"}}, {"type": "Feature", "geometry": {"type": "Point", "coordinates": [4.8703199, 45.7718657]}, "properties": {"osm_id": 1421722979, "osm_type": "node", "amenity": "kindergarten", "check_date": "2024-02-03", "name": "Cabinet paramédical"}}, {"type": "Feature", "geometry": {"type": "Point", "coordinates": [4.8754617, 45.7659795]}, "properties": {"osm_id": 1421966757, "osm_type": "node", "amenity": "kindergarten", "name": "Relais assistantes maternelles Édouard Herriot", "wheelchair": "yes"}}, {"type": "Feature", "geometry": {"type": "Point", "coordinates": [2.2234508, 48.8810551]}, "properties": {"osm_id": 1423491589, "osm_type": "node", "addr:housenumber": "12", "addr:postcode": "92150", "addr:street": "Allée des Bochoux", "amenity": "kindergarten", "description": "Accueille les enfants dès la fin du congé de maternité et jusqu'à leur entrée en maternelle, du lundi au vendredi de 7h45 à 18h30", "education": "kindergarten", "name": "Crèche Bois Joly", "source": "http://www.suresnes.fr/Plan-interactif/Creche-Bois-Joly"}}, {"type": "Feature", "geometry": {"type": "Point", "coordinates": [2.2234481, 48.8810543]}, "properties": {"osm_id": 1423495851, "osm_type": "node", "amenity": "kindergarten", "education": "kindergarten"}}, {"type": "Feature", "geometry": {"type": "Point", "coordinates": [3.0838928, 50.5392091]}, "properties": {"osm_id": 1426746724, "osm_type": "node", "amenity": "kindergarten"}}, {"type": "Feature", "geometry": {"type": "Point", "coordinates": [-1.0700396, 44.3533523]}, "properties": {"osm_id": 1430868376, "osm_type": "node", "amenity": "kindergarten", "name": "Bassin de natation scolaire"}}, {"type": "Feature", "geometry": {"type": "Point", "coordinates": [-1.6894394, 48.1173667]}, "properties": {"osm_id": 1437380720, "osm_type": "node", "addr:city": "Rennes", "addr:housename": "Annexe maison de quartier la Touche", "addr:housenumber": "4", "addr:street": "Rue Cardinal Paul Gouyon", "amenity": "kindergarten", "name": "Halte garderie Croc’Mahon", "name:br": "Arsav-diwallerezh Croc’Mahon", "name:fr": "Halte garderie Croc’Mahon", "source:addr": "Rennes Métropole", "source:addr:housenumber:ref": "83329", "source:addr:version": "2016-04-01", "source:name:br": "proper translation"}}, {"type": "Feature", "geometry": {"type": "Point", "coordinates": [6.2492641, 46.20088]}, "properties": {"osm_id": 1439809631, "osm_type": "node", "addr:city": "Ville-la-Grand", "addr:housenumber": "10", "addr:postcode": "74100", "addr:street": "Place du Porte Bonheur", "amenity": "kindergarten", "contact:email": "blandine.latron@vlg.fr", "contact:phone": "+33 4 50 84 47 52", "kindergarten:FR": "multiaccueil", "name": "Bébé d'Amour", "source": "Bing"}}, {"type": "Feature", "geometry": {"type": "Point", "coordinates": [6.919014, 45.290898]}, "properties": {"osm_id": 1444599417, "osm_type": "node", "amenity": "kindergarten", "source": "cadastre-dgi-fr source : Direction Générale des Impôts - Cadastre ; mise à jour : 2011"}}, {"type": "Feature", "geometry": {"type": "Point", "coordinates": [6.921139, 45.291313]}, "properties": {"osm_id": 1444600260, "osm_type": "node", "amenity": "kindergarten", "source": "cadastre-dgi-fr source : Direction Générale des Impôts - Cadastre ; mise à jour : 2011"}}, {"type": "Feature", "geometry": {"type": "Point", "coordinates": [5.5530617, 44.897779]}, "properties": {"osm_id": 1448422592, "osm_type": "node", "amenity": "kindergarten", "check_date": "2024-09-19", "name": "Les Mistoullets", "source": "cadastre-dgi-fr source : Direction Générale des Impôts - Cadastre ; mise à jour : 2010"}}, {"type": "Feature", "geometry": {"type": "Point", "coordinates": [6.1715132, 43.9426645]}, "properties": {"osm_id": 1452048230, "osm_type": "node", "amenity": "kindergarten", "name": "CLSH Les Bigoudas"}}, {"type": "Feature", "geometry": {"type": "Point", "coordinates": [2.4651022, 48.7935799]}, "properties": {"osm_id": 1454697242, "osm_type": "node", "amenity": "kindergarten", "education": "kindergarten", "name": "Crèche de la Terrasse"}}, {"type": "Feature", "geometry": {"type": "Point", "coordinates": [-0.3508775, 45.6891102]}, "properties": {"osm_id": 1455687184, "osm_type": "node", "amenity": "kindergarten", "name": "Maison \"Parents-Enfants\""}}, {"type": "Feature", "geometry": {"type": "Point", "coordinates": [-1.0691035, 44.3525371]}, "properties": {"osm_id": 1456671104, "osm_type": "node", "addr:postcode": "40160", "addr:street": "Rue Guy Boniface", "amenity": "kindergarten", "kindergarten:FR": "halte_garderie", "name": "Garderie périscolaire"}}, {"type": "Feature", "geometry": {"type": "Point", "coordinates": [-1.068846, 44.3524758]}, "properties": {"osm_id": 1456676757, "osm_type": "node", "addr:housename": "Pôle Petite Enfance", "addr:housenumber": "1", "addr:postcode": "40160", "addr:street": "Rue Guy Boniface", "amenity": "kindergarten", "name": "Pôle Petite Enfance"}}, {"type": "Feature", "geometry": {"type": "Point", "coordinates": [5.0583895, 47.3095017]}, "properties": {"osm_id": 1458752048, "osm_type": "node", "amenity": "kindergarten", "name": "Halte Garderie Mansart"}}, {"type": "Feature", "geometry": {"type": "Point", "coordinates": [4.4576839, 45.4573995]}, "properties": {"osm_id": 1470756631, "osm_type": "node", "amenity": "kindergarten", "name": "Crèche Le Colombier"}}, {"type": "Feature", "geometry": {"type": "Point", "coordinates": [4.4444987, 45.4484923]}, "properties": {"osm_id": 1470762170, "osm_type": "node", "amenity": "kindergarten", "name": "Accueil de loisirs"}}, {"type": "Feature", "geometry": {"type": "Point", "coordinates": [4.4443509, 45.4481584]}, "properties": {"osm_id": 1470762184, "osm_type": "node", "amenity": "kindergarten", "name": "Relais Assistantes maternelles"}}, {"type": "Feature", "geometry": {"type": "Point", "coordinates": [2.4553903, 48.7697422]}, "properties": {"osm_id": 1474338331, "osm_type": "node", "amenity": "kindergarten", "name": "Crèche Aimé Césaire", "ref:FR:SIRET": "26940132900058", "source": "survey"}}, {"type": "Feature", "geometry": {"type": "Point", "coordinates": [3.0842484, 47.0184116]}, "properties": {"osm_id": 1480526328, "osm_type": "node", "amenity": "kindergarten", "name": "Structure multi-accueil Barbotine", "source": "cadastre-dgi-fr source : Direction Générale des Impôts - Cadastre. Mise à jour : 2011"}}, {"type": "Feature", "geometry": {"type": "Point", "coordinates": [2.3582001, 48.8156713]}, "properties": {"osm_id": 1484017807, "osm_type": "node", "addr:housenumber": "25", "addr:street": "Avenue du Docteur Antoine Lacroix", "amenity": "kindergarten", "name": "Crèche République", "source": "survey"}}, {"type": "Feature", "geometry": {"type": "Point", "coordinates": [4.8296495, 45.7781768]}, "properties": {"osm_id": 1488252419, "osm_type": "node", "amenity": "kindergarten", "name": "Halte Garderie des Canuts", "ref:FR:SIRET": "21690123103148"}}, {"type": "Feature", "geometry": {"type": "Point", "coordinates": [3.0011656, 44.3075392]}, "properties": {"osm_id": 1492230775, "osm_type": "node", "amenity": "kindergarten"}}, {"type": "Feature", "geometry": {"type": "Point", "coordinates": [-0.0781975, 49.0715651]}, "properties": {"osm_id": 1496214977, "osm_type": "node", "addr:city": "Mézidon-Canon", "addr:housename": "Centre d'animation de la CCVA", "addr:postcode": "14270", "addr:street": "Rue Jules Ferry", "alt_name": "La Ligue de l'enseignement du Calvados", "amenity": "kindergarten", "description": "ACM - Accueil collectif de mineurs", "name": "Centre d'animation de la CCVA", "source": "http://www.blog.ccva.laligue14.org/"}}, {"type": "Feature", "geometry": {"type": "Point", "coordinates": [6.1385278, 45.9142906]}, "properties": {"osm_id": 1518729102, "osm_type": "node", "amenity": "kindergarten", "check_date": "2023-06-10", "name": "Les Piou Piou"}}, {"type": "Feature", "geometry": {"type": "Point", "coordinates": [2.2460075, 48.9009386]}, "properties": {"osm_id": 1519658708, "osm_type": "node", "amenity": "kindergarten", "name": "Crèche La Nouvelle Etoile", "source:amenity": "survey"}}, {"type": "Feature", "geometry": {"type": "Point", "coordinates": [6.5540497, 44.4833945]}, "properties": {"osm_id": 1519864537, "osm_type": "node", "addr:place": "Bois Méan 1800", "amenity": "kindergarten", "hide": "no", "max_age": "15", "min_age": "0", "name": "Jardin des Neiges (Bois Méan)", "phone": "+33 4 92 52 73 38", "ref": "A20"}}, {"type": "Feature", "geometry": {"type": "Point", "coordinates": [6.5538376, 44.4835975]}, "properties": {"osm_id": 1519864542, "osm_type": "node", "addr:place": "Bois Méan 1800", "amenity": "kindergarten", "email": "infos@esf-lesorres.com", "hide": "no", "max_age": "15", "min_age": "0", "name": "Espace débutants ESF", "phone": "+33 4 92 45 42 92", "ref": "A27", "website": "https://www.esf-lesorres.com/"}}, {"type": "Feature", "geometry": {"type": "Point", "coordinates": [1.4296524, 43.599106]}, "properties": {"osm_id": 1532506432, "osm_type": "node", "amenity": "kindergarten", "contact:city": "Toulouse", "contact:housenumber": "85", "contact:phone": "+33 5 82 95 69 57", "contact:postcode": "31300", "contact:street": "Allees Charles de Fitte", "name": "Kangourou Kids", "opening_hours": "Mo-Fr 10:00-13:00, 14:00-18:00", "ref:FR:SIRET": "75033057300023", "was:name": "Kangourou Kids", "website": "https://kidsparadis.com/franchise/toulouse/"}}, {"type": "Feature", "geometry": {"type": "Point", "coordinates": [4.8862875, 45.7349409]}, "properties": {"osm_id": 1545763508, "osm_type": "node", "addr:city": "Lyon", "addr:country": "FR", "addr:housenumber": "2", "addr:postcode": "69008", "addr:street": "Passage Ranvier", "amenity": "kindergarten", "email": "ranvier.etablissement@mairie-lyon.fr", "kindergarten:FR": "crèche_collective", "name": "Crèche municipale Ranvier", "opening_hours": "Mo-Fr 07:30-18:00", "operator": "Mairie de Lyon", "phone": "+33 4 78 74 07 87", "website": "https://www.lyon.fr/lieu/etablissements-multi-accueil/ranvier"}}, {"type": "Feature", "geometry": {"type": "Point", "coordinates": [6.1804566, 49.0956438]}, "properties": {"osm_id": 1558600578, "osm_type": "node", "amenity": "kindergarten", "contact:email": "tounicoti.hj@hotmail.fr", "contact:housenumber": "175;177", "contact:street": "Avenue André Malraux", "name": "Halte-jeux Tournicoti", "phone": "+33 3 87 63 97 30", "website": "https://metz.fr/lieux/lieu-3728.php"}}, {"type": "Feature", "geometry": {"type": "Point", "coordinates": [1.4841942, 49.0802436]}, "properties": {"osm_id": 1559610752, "osm_type": "node", "amenity": "kindergarten", "name": "Crèche de la La Poterie"}}, {"type": "Feature", "geometry": {"type": "Point", "coordinates": [-3.8788465, 48.3599344]}, "properties": {"osm_id": 1568069497, "osm_type": "node", "amenity": "kindergarten", "name": "Centre de loisirs Yeun Elez", "name:br": "Kreizenn dudi ar Yeun Elez", "name:fr": "Centre de loisirs Yeun Elez", "source:name:br": "proper translation"}}, {"type": "Feature", "geometry": {"type": "Point", "coordinates": [6.1825987, 43.3001984]}, "properties": {"osm_id": 1570768551, "osm_type": "node", "amenity": "kindergarten", "name": "Crèche intercomunale M.A.M.I."}}, {"type": "Feature", "geometry": {"type": "Point", "coordinates": [6.7285254, 45.8162541]}, "properties": {"osm_id": 1572977262, "osm_type": "node", "amenity": "kindergarten", "name": "La Galipette", "source": "cadastre-dgi-fr source : Direction Générale des Impôts - Cadastre. Mise à jour : 2012"}}, {"type": "Feature", "geometry": {"type": "Point", "coordinates": [6.1514883, 49.1306006]}, "properties": {"osm_id": 1582853246, "osm_type": "node", "amenity": "kindergarten", "capacity": "25", "contact:email": "chatbotte@cogeham.fr", "contact:housenumber": "72", "contact:phone": "+33 3 87 30 32 84", "contact:street": "Rue de la Ronde", "name": "Crèche Le Chat Botté", "opening_hours": "Mo-Fr 07:30-18:15", "ref:FR:SIRET": "77561870500062", "website": "https://www.cogeham.net/nos-creches/chat-botte/"}}, {"type": "Feature", "geometry": {"type": "Point", "coordinates": [2.2591872, 48.816779]}, "properties": {"osm_id": 1583564203, "osm_type": "node", "amenity": "kindergarten", "email": "iris@ville-issy.fr", "name": "Crèche des Épinettes", "phone": "+33 9 50 62 67 74", "website": "https://www.issy.com/vie-quotidienne/petite-enfance"}}, {"type": "Feature", "geometry": {"type": "Point", "coordinates": [3.0801149, 50.3697474]}, "properties": {"osm_id": 1584881056, "osm_type": "node", "amenity": "kindergarten", "name": "Crèche Antoinette DUMONT", "ref:FR:SIRET": "26590178500021"}}, {"type": "Feature", "geometry": {"type": "Point", "coordinates": [3.0804159, 50.3671608]}, "properties": {"osm_id": 1584881063, "osm_type": "node", "addr:city": "Douai", "addr:housenumber": "39", "addr:postcode": "59500", "addr:street": "Rue de l'Université", "amenity": "kindergarten", "name": "Halte-Garderie", "phone": "+33 3 27 88 84 28", "website": "http://www.assodesfamilles-douai.org/la-halte-garderie-petit-a-petit/"}}, {"type": "Feature", "geometry": {"type": "Point", "coordinates": [2.4860273, 48.7995362]}, "properties": {"osm_id": 1589685991, "osm_type": "node", "amenity": "kindergarten", "brand": "Les Petits Chaperons Rouges", "brand:wikidata": "Q130214582", "disused:amenity": "veterinary", "name": "Les Petits Chaperons Rouges", "old_name": "Crèches et Malices", "ref:FR:SIRET": "52857022902134"}}, {"type": "Feature", "geometry": {"type": "Point", "coordinates": [-0.3966382, 45.8047079]}, "properties": {"osm_id": 1594828137, "osm_type": "node", "amenity": "kindergarten", "kindergarten:FR": "jardin_enfants", "name": "Jardin d'enfants"}}, {"type": "Feature", "geometry": {"type": "Point", "coordinates": [2.2198438, 48.8259121]}, "properties": {"osm_id": 1595519174, "osm_type": "node", "amenity": "kindergarten", "name": "Crèche du Vieux Moulin", "ref:FR:SIRET": "21920072200136"}}, {"type": "Feature", "geometry": {"type": "Point", "coordinates": [0.9651888, 44.4987869]}, "properties": {"osm_id": 1595601641, "osm_type": "node", "amenity": "kindergarten"}}, {"type": "Feature", "geometry": {"type": "Point", "coordinates": [3.878468, 43.6173132]}, "properties": {"osm_id": 1600986873, "osm_type": "node", "addr:housenumber": "16", "addr:street": "Rue Ferdinand Fabre", "amenity": "kindergarten", "name": "Crèche Pinocchio", "wheelchair": "no"}}, {"type": "Feature", "geometry": {"type": "Point", "coordinates": [2.2927775, 48.9169403]}, "properties": {"osm_id": 1601728658, "osm_type": "node", "amenity": "kindergarten", "name": "Structure municipale d'Accueil de la Petite Enfance « Peintres en Herbe »"}}, {"type": "Feature", "geometry": {"type": "Point", "coordinates": [-0.5100569, 43.8999628]}, "properties": {"osm_id": 1614262116, "osm_type": "node", "amenity": "kindergarten", "name": "Pole petite enfance du Peyrouat"}}, {"type": "Feature", "geometry": {"type": "Point", "coordinates": [3.2744038, 43.2748943]}, "properties": {"osm_id": 1623652294, "osm_type": "node", "amenity": "kindergarten", "name": "Crèche municipale"}}, {"type": "Feature", "geometry": {"type": "Point", "coordinates": [3.8817711, 43.6184205]}, "properties": {"osm_id": 1623987098, "osm_type": "node", "amenity": "kindergarten", "name": "Crèche municipale Cléonice Pouzin", "operator": "Ville de Montpellier", "operator:type": "government", "operator:wikidata": "Q86688720", "wheelchair": "no"}}, {"type": "Feature", "geometry": {"type": "Point", "coordinates": [2.7594325, 48.8662295]}, "properties": {"osm_id": 1631360620, "osm_type": "node", "amenity": "kindergarten", "kindergarten:FR": "multi_accueil", "name": "Multi-Accueil Les Frênes", "operator:type": "public"}}, {"type": "Feature", "geometry": {"type": "Point", "coordinates": [7.2564315, 43.7245281]}, "properties": {"osm_id": 1633649454, "osm_type": "node", "addr:housenumber": "66", "addr:street": "Boulevard Gorbella", "amenity": "kindergarten", "name": "Crèche La Source", "operator": "Ville de Nice", "operator:type": "public", "phone": "+33492079190", "preschool": "no", "website": "https://www.nice.fr/lieux/creche-la-source/"}}, {"type": "Feature", "geometry": {"type": "Point", "coordinates": [-0.3533864, 49.1793366]}, "properties": {"osm_id": 1635236205, "osm_type": "node", "amenity": "kindergarten", "name": "Garderie Henri Brunet"}}, {"type": "Feature", "geometry": {"type": "Point", "coordinates": [-0.344395, 49.1615133]}, "properties": {"osm_id": 1636411769, "osm_type": "node", "amenity": "kindergarten"}}, {"type": "Feature", "geometry": {"type": "Point", "coordinates": [2.5139168, 48.7946617]}, "properties": {"osm_id": 1642962857, "osm_type": "node", "amenity": "kindergarten", "check_date": "2025-07-21", "name": "Crèche du Mesnil", "operator": "Ville de Saint-Maur des Fossés"}}, {"type": "Feature", "geometry": {"type": "Point", "coordinates": [2.5848724, 49.1026353]}, "properties": {"osm_id": 1643546460, "osm_type": "node", "addr:housenumber": "19", "addr:street": "Rue Georges Bouchard", "amenity": "kindergarten", "phone": "+33 3 44 54 40 11"}}, {"type": "Feature", "geometry": {"type": "Point", "coordinates": [1.4981408, 43.6090031]}, "properties": {"osm_id": 1647190415, "osm_type": "node", "amenity": "kindergarten", "check_date": "2023-04-02", "name": "Crèche Collective Marie Laurencin", "source": "GrandToulouse", "source:date": "2011-11-10"}}, {"type": "Feature", "geometry": {"type": "Point", "coordinates": [5.0658038, 44.5207314]}, "properties": {"osm_id": 1661682954, "osm_type": "node", "amenity": "kindergarten", "contact:email": "dieulefilous@wanadoo.fr", "contact:phone": "+33 4 75 46 88 28", "kindergarten:FR": "halte_garderie", "name": "Crèche Les Dieul’filous", "opening_hours": "Mo-Fr 07:30-18:30"}}, {"type": "Feature", "geometry": {"type": "Point", "coordinates": [-0.7717893, 44.8099797]}, "properties": {"osm_id": 1666965308, "osm_type": "node", "amenity": "kindergarten"}}, {"type": "Feature", "geometry": {"type": "Point", "coordinates": [2.8160597, 48.3727104]}, "properties": {"osm_id": 1669199470, "osm_type": "node", "amenity": "kindergarten", "name": "La Grange aux Enfants"}}, {"type": "Feature", "geometry": {"type": "Point", "coordinates": [2.2523109, 48.7707333]}, "properties": {"osm_id": 1672456368, "osm_type": "node", "amenity": "kindergarten"}}, {"type": "Feature", "geometry": {"type": "Point", "coordinates": [4.3787741, 45.4740666]}, "properties": {"osm_id": 1674388706, "osm_type": "node", "addr:housename": "Crèche Castor et Pollux", "addr:housenumber": "16", "addr:postcode": "42270", "addr:street": "Place Jean-Baptiste Per", "amenity": "kindergarten", "name": "Crèche Castor et Pollux"}}, {"type": "Feature", "geometry": {"type": "Point", "coordinates": [2.23298, 48.83756]}, "properties": {"osm_id": 1675825618, "osm_type": "node", "addr:housenumber": "3", "addr:street": "Rue de Koufra", "amenity": "kindergarten", "name": "Au Bonheur des Ours", "operator": "ABC Puériculture", "source": "survey", "website": "https://www.abcpuericulture.com/structure-5-abc-puericulture-au-bonheur-des-ours.html"}}, {"type": "Feature", "geometry": {"type": "Point", "coordinates": [2.2337783, 48.7855117]}, "properties": {"osm_id": 1676341248, "osm_type": "node", "amenity": "kindergarten"}}, {"type": "Feature", "geometry": {"type": "Point", "coordinates": [1.9474796, 48.7397711]}, "properties": {"osm_id": 1679673653, "osm_type": "node", "amenity": "kindergarten", "name:signed": "no"}}, {"type": "Feature", "geometry": {"type": "Point", "coordinates": [4.5838056, 45.5128263]}, "properties": {"osm_id": 1683258958, "osm_type": "node", "addr:street": "Rue Jean Claude Delay", "amenity": "kindergarten", "name": "Coline et Colas"}}, {"type": "Feature", "geometry": {"type": "Point", "coordinates": [0.326193, 46.5922918]}, "properties": {"osm_id": 1685210172, "osm_type": "node", "amenity": "kindergarten", "comment": "À contrôler peut-être que des bureaux de l'action sociale", "name": "Crèche Familiale Relais Assistantes Maternelles"}}, {"type": "Feature", "geometry": {"type": "Point", "coordinates": [2.4942013, 48.8890252]}, "properties": {"osm_id": 1692000810, "osm_type": "node", "addr:city": "Villemomble", "addr:country": "FR", "addr:housenumber": "89", "addr:postcode": "93077", "addr:street": "Rue de la Fosse aux Bergers", "amenity": "kindergarten", "fixme": "Emplacement approximatif", "max_age": "3", "min_age": "10 weeks", "name": "Crèche Familiale \"Les Diablotins\"", "source": "cadastre-dgi-fr source : Direction Générale des Impôts - Cadastre. Mise à jour : 2012"}}, {"type": "Feature", "geometry": {"type": "Point", "coordinates": [4.3983286, 43.8569543]}, "properties": {"osm_id": 1693284820, "osm_type": "node", "amenity": "kindergarten", "name": "Les Amelliers"}}, {"type": "Feature", "geometry": {"type": "Point", "coordinates": [4.3987201, 43.8551091]}, "properties": {"osm_id": 1693284823, "osm_type": "node", "amenity": "kindergarten"}}, {"type": "Feature", "geometry": {"type": "Point", "coordinates": [1.9444659, 43.3163973]}, "properties": {"osm_id": 1694626311, "osm_type": "node", "amenity": "kindergarten", "name": "Créche Louise Michel", "wheelchair": "yes"}}, {"type": "Feature", "geometry": {"type": "Point", "coordinates": [6.4843046, 43.5071567]}, "properties": {"osm_id": 1702837781, "osm_type": "node", "amenity": "kindergarten"}}, {"type": "Feature", "geometry": {"type": "Point", "coordinates": [2.2851413, 48.9319185]}, "properties": {"osm_id": 1704574514, "osm_type": "node", "amenity": "kindergarten", "education": "kindergarten", "name": "Crèche du Luth"}}, {"type": "Feature", "geometry": {"type": "Point", "coordinates": [3.596809, 44.3229782]}, "properties": {"osm_id": 1707532236, "osm_type": "node", "amenity": "kindergarten", "name": "Crèche"}}, {"type": "Feature", "geometry": {"type": "Point", "coordinates": [2.4612743, 48.7787774]}, "properties": {"osm_id": 1709889890, "osm_type": "node", "amenity": "kindergarten", "education": "kindergarten", "name": "Crèche"}}, {"type": "Feature", "geometry": {"type": "Point", "coordinates": [2.6044487, 49.2975309]}, "properties": {"osm_id": 1711802793, "osm_type": "node", "addr:housenumber": "26", "addr:street": "Avenue Jean Jaurès", "amenity": "kindergarten", "name": "Au Pays Des Rêves Micro Crêche", "opening_hours": "Mo-Fr 07:00-19:00; Sa,Su off", "phone": "+33 9 82 31 72 94", "source": "survey"}}, {"type": "Feature", "geometry": {"type": "Point", "coordinates": [3.895418, 43.5993531]}, "properties": {"osm_id": 1714516637, "osm_type": "node", "amenity": "kindergarten", "name": "Crêche Adelaïde Cambon", "operator": "Ville de Montpellier", "operator:type": "government", "operator:wikidata": "Q86688720", "source": "cadastre-dgi-fr source : Direction Générale des Impôts - Cadastre. Mise à jour : 2012", "wheelchair": "yes"}}, {"type": "Feature", "geometry": {"type": "Point", "coordinates": [1.9516998, 47.9079093]}, "properties": {"osm_id": 1716202759, "osm_type": "node", "amenity": "kindergarten", "name": "Les Petits Cailloux", "source": "cadastre-dgi-fr source : Direction Générale des Impôts - Cadastre. Mise à jour : 2012"}}, {"type": "Feature", "geometry": {"type": "Point", "coordinates": [-0.6186361, 45.1294736]}, "properties": {"osm_id": 1719652068, "osm_type": "node", "amenity": "kindergarten", "name": "Crèche de Cars"}}, {"type": "Feature", "geometry": {"type": "Point", "coordinates": [5.5162077, 43.2788681]}, "properties": {"osm_id": 1719832156, "osm_type": "node", "amenity": "kindergarten", "name": "Crèche municipale Le jardin des Arcades"}}, {"type": "Feature", "geometry": {"type": "Point", "coordinates": [2.252843, 48.916357]}, "properties": {"osm_id": 1721632636, "osm_type": "node", "amenity": "kindergarten", "name": "Micro-crèche demain2pieds", "ref:FR:SIRET": "80304832100035", "source": "survey"}}, {"type": "Feature", "geometry": {"type": "Point", "coordinates": [2.1726633, 48.7555355]}, "properties": {"osm_id": 1722769925, "osm_type": "node", "amenity": "kindergarten", "name": "La Maison Bleue", "website": "https://www.la-maison-bleue.fr/"}}, {"type": "Feature", "geometry": {"type": "Point", "coordinates": [-1.5963985, 47.2068157]}, "properties": {"osm_id": 1727029291, "osm_type": "node", "addr:housenumber": "2A", "addr:postcode": "44100", "amenity": "kindergarten", "name": "Centre sociologie culturel des Bourderies", "source": "Nantes Métropole 11/2011"}}, {"type": "Feature", "geometry": {"type": "Point", "coordinates": [2.2438783, 48.8953586]}, "properties": {"osm_id": 1729108301, "osm_type": "node", "addr:housenumber": "55-57", "addr:postcode": "92400", "addr:street": "Rue Ségoffin", "amenity": "kindergarten", "name": "Crèche Les Chérubins"}}, {"type": "Feature", "geometry": {"type": "Point", "coordinates": [-0.0404732, 44.5876007]}, "properties": {"osm_id": 1733476725, "osm_type": "node", "amenity": "kindergarten"}}, {"type": "Feature", "geometry": {"type": "Point", "coordinates": [4.78152, 45.7918227]}, "properties": {"osm_id": 1736373041, "osm_type": "node", "amenity": "kindergarten", "name": "RAM Pérolier"}}, {"type": "Feature", "geometry": {"type": "Point", "coordinates": [-3.4815797, 48.736067]}, "properties": {"osm_id": 1740275994, "osm_type": "node", "amenity": "kindergarten"}}, {"type": "Feature", "geometry": {"type": "Point", "coordinates": [-3.156247, 48.5628495]}, "properties": {"osm_id": 1740279467, "osm_type": "node", "amenity": "kindergarten"}}, {"type": "Feature", "geometry": {"type": "Point", "coordinates": [2.1004152, 48.8788006]}, "properties": {"osm_id": 1744386638, "osm_type": "node", "addr:housenumber": "22-26", "addr:postcode": "78160", "addr:street": "Avenue de l'Amiral Lemonnier", "amenity": "kindergarten", "description": "Pôle enfance des Sablons", "name": "Crèche La Farandole - Crèche Les Lutins"}}, {"type": "Feature", "geometry": {"type": "Point", "coordinates": [2.1039877, 48.8968557]}, "properties": {"osm_id": 1752221105, "osm_type": "node", "amenity": "kindergarten", "check_date": "2025-02-25", "name": "Maison petite enfance"}}, {"type": "Feature", "geometry": {"type": "Point", "coordinates": [2.1045353, 48.8967768]}, "properties": {"osm_id": 1752221106, "osm_type": "node", "amenity": "kindergarten", "check_date": "2025-02-25", "name": "Crèche de la Fontaine"}}, {"type": "Feature", "geometry": {"type": "Point", "coordinates": [2.1533106, 48.9097198]}, "properties": {"osm_id": 1755239356, "osm_type": "node", "amenity": "kindergarten", "name": "La Ribambelle"}}, {"type": "Feature", "geometry": {"type": "Point", "coordinates": [2.0948208, 48.8744675]}, "properties": {"osm_id": 1763253431, "osm_type": "node", "amenity": "kindergarten", "check_date": "2024-04-03", "name": "Crèche Le Ballon Rouge"}}, {"type": "Feature", "geometry": {"type": "Point", "coordinates": [3.0943434, 45.7805631]}, "properties": {"osm_id": 1764964538, "osm_type": "node", "amenity": "kindergarten", "contact:city": "Clermont-Ferrand", "contact:housenumber": "18 Bis", "contact:postcode": "63000", "contact:street": "Avenue d'Italie", "contact:website": "https://petitsloups.info/", "kindergarten:FR": "crèche_parentale", "name": "Crèche parentale des Petits Loups"}}, {"type": "Feature", "geometry": {"type": "Point", "coordinates": [3.0746625, 50.6308454]}, "properties": {"osm_id": 1770436864, "osm_type": "node", "addr:housenumber": "1", "addr:street": "Rue Georges Lefebvre", "amenity": "kindergarten", "check_date": "2023-09-17", "name": "Multi-Accueil la Fabulette"}}, {"type": "Feature", "geometry": {"type": "Point", "coordinates": [0.0500222, 43.6047316]}, "properties": {"osm_id": 1773110073, "osm_type": "node", "addr:city": "Plaisance", "addr:housenumber": "9", "addr:postcode": "32160", "addr:street": "Rue Basse", "amenity": "kindergarten", "old_name": "LAE", "phone": "+33 6 86491974"}}, {"type": "Feature", "geometry": {"type": "Point", "coordinates": [1.3585498, 44.024617]}, "properties": {"osm_id": 1776799965, "osm_type": "node", "amenity": "kindergarten"}}, {"type": "Feature", "geometry": {"type": "Point", "coordinates": [5.4528521, 43.5409256]}, "properties": {"osm_id": 1777047815, "osm_type": "node", "amenity": "kindergarten", "name": "Crèche L'île aux enfants"}}, {"type": "Feature", "geometry": {"type": "Point", "coordinates": [6.0113572, 45.6217447]}, "properties": {"osm_id": 1777124426, "osm_type": "node", "amenity": "kindergarten", "name": "Crèche"}}, {"type": "Feature", "geometry": {"type": "Point", "coordinates": [4.3125651, 46.0312749]}, "properties": {"osm_id": 1778603497, "osm_type": "node", "amenity": "kindergarten", "name": "Crèche"}}, {"type": "Feature", "geometry": {"type": "Point", "coordinates": [2.2901372, 48.9150198]}, "properties": {"osm_id": 1781570154, "osm_type": "node", "amenity": "kindergarten", "education": "kindergarten", "name": "Crèche Les Petits Matelots", "operator": "Ville d'Asnières-sur-Seine", "ref:FR:SIRET": "21920004500728", "source": "photo survey"}}, {"type": "Feature", "geometry": {"type": "Point", "coordinates": [-0.7477758, 47.0085453]}, "properties": {"osm_id": 1781607189, "osm_type": "node", "amenity": "kindergarten", "name": "123 Soleil"}}, {"type": "Feature", "geometry": {"type": "Point", "coordinates": [6.1669011, 48.7324328]}, "properties": {"osm_id": 1782556637, "osm_type": "node", "addr:housenumber": "19bis", "amenity": "kindergarten", "capacity": "18", "contact:phone": "+33 3 83 49 81 31", "fee": "yes", "isced:level": "0", "kindergarten:FR": "multiaccueil", "name": "L'Arc en ciel", "opening_hours": "Mo-Fr 07:30-18:30", "operator": "Bassin de Pompey", "ref:FR:SIRET": "24540060100093", "source": "survey", "website": "https://www.bassinpompey.fr/creche-bassin-pompey"}}, {"type": "Feature", "geometry": {"type": "Point", "coordinates": [-0.5385163, 47.3986624]}, "properties": {"osm_id": 1784722668, "osm_type": "node", "addr:housename": "maison de l'enfance", "addr:postcode": "49610", "addr:street": "Rue des Alouettes", "amenity": "kindergarten", "name": "Maison de l'enfance"}}, {"type": "Feature", "geometry": {"type": "Point", "coordinates": [5.4434292, 43.515287]}, "properties": {"osm_id": 1784964951, "osm_type": "node", "amenity": "kindergarten", "created_by": "iLOE 1.9", "name": "L'atelier"}}, {"type": "Feature", "geometry": {"type": "Point", "coordinates": [2.2815348, 48.8349319]}, "properties": {"osm_id": 1785131878, "osm_type": "node", "amenity": "kindergarten", "capacity": "60", "check_date": "2025-03-17", "contact:city": "Paris", "contact:email": "smabalardvictor@igesa.fr", "contact:housenumber": "26", "contact:phone": "+33 9 88 68 02 80", "contact:postcode": "75015", "contact:website": "https://www.igesa.fr/famille-enfance/detail-etablissement/etablissement/les-zaviateurs", "name": "Multi accueil « Les Z’aviateurs »", "opening_hours": "08:30-18:30", "operator": "IGESA", "source": "cadastre-dgi-fr source : Direction Générale des Impôts - Cadastre. Mise à jour : 2012"}}, {"type": "Feature", "geometry": {"type": "Point", "coordinates": [0.3052678, 46.5781668]}, "properties": {"osm_id": 1785193028, "osm_type": "node", "amenity": "kindergarten"}}, {"type": "Feature", "geometry": {"type": "Point", "coordinates": [3.0804824, 45.8317699]}, "properties": {"osm_id": 1785999524, "osm_type": "node", "amenity": "kindergarten"}}, {"type": "Feature", "geometry": {"type": "Point", "coordinates": [1.4601791, 43.7085622]}, "properties": {"osm_id": 1786231048, "osm_type": "node", "amenity": "kindergarten", "name": "Crèche Intercommunal de Pechbonnieu"}}, {"type": "Feature", "geometry": {"type": "Point", "coordinates": [4.0303343, 49.2689811]}, "properties": {"osm_id": 1786347688, "osm_type": "node", "addr:housenumber": "29", "amenity": "kindergarten", "capacity": "20", "childcare:FR": "kindergarten", "kindergarten:FR": "multiaccueil", "min_age": "3 months", "name": "Multiaccueil Trois Piliers", "opening_hours": "Mo,Tu,Th,Fr 08:00-18:00", "operator": "Association des Maisons de quartier de Reims", "operator:type": "private", "phone": "+33326405482"}}, {"type": "Feature", "geometry": {"type": "Point", "coordinates": [2.2877886, 50.2743123]}, "properties": {"osm_id": 1787064173, "osm_type": "node", "amenity": "kindergarten", "kindergarten:FR": "multiaccueil", "name": "Crèche La Farandole"}}, {"type": "Feature", "geometry": {"type": "Point", "coordinates": [-1.6312718, 48.2113172]}, "properties": {"osm_id": 1788748725, "osm_type": "node", "amenity": "kindergarten", "name": "Maison de l’enfance Alfred Moisan", "operator": "Commune de Chevaigné", "operator:type": "local_authority"}}, {"type": "Feature", "geometry": {"type": "Point", "coordinates": [6.6393897, 48.9234663]}, "properties": {"osm_id": 1790139702, "osm_type": "node", "amenity": "kindergarten"}}, {"type": "Feature", "geometry": {"type": "Point", "coordinates": [1.6404342, 48.6006409]}, "properties": {"osm_id": 1791382665, "osm_type": "node", "amenity": "kindergarten", "name": "Accueil périscolaire"}}, {"type": "Feature", "geometry": {"type": "Point", "coordinates": [4.9868134, 43.9296112]}, "properties": {"osm_id": 1792793816, "osm_type": "node", "amenity": "kindergarten", "check_date": "2024-09-21", "name": "Centre Aéré de Le Thor"}}, {"type": "Feature", "geometry": {"type": "Point", "coordinates": [5.8021468, 45.184891]}, "properties": {"osm_id": 1792880798, "osm_type": "node", "amenity": "kindergarten", "name": "Crèche Parentale Les Lithops"}}, {"type": "Feature", "geometry": {"type": "Point", "coordinates": [4.2226495, 43.7427151]}, "properties": {"osm_id": 1793048137, "osm_type": "node", "amenity": "kindergarten"}}, {"type": "Feature", "geometry": {"type": "Point", "coordinates": [2.4329266, 48.8554545]}, "properties": {"osm_id": 1793946967, "osm_type": "node", "amenity": "kindergarten", "name": "Crèche municipale Miriam Makeba", "source": "survey"}}, {"type": "Feature", "geometry": {"type": "Point", "coordinates": [6.3226083, 45.8811654]}, "properties": {"osm_id": 1794469728, "osm_type": "node", "addr:housenumber": "1", "addr:street": "Rue du Prè de Foire", "amenity": "kindergarten", "capacity": "40", "contact:email": "creche-thones@wanadoo.fr", "contact:phone": "+33 4 58 98 01 13", "education": "kindergarten", "fixme": "Déménagement de la structure le 24/08/2026 au 12 rue du Mont Charvin 74230 Thônes.  https://www.thonescoeurdesvallees.com/commerce-service/espace-petite-enfance-les-ptious/", "name": "Les P’tious", "opening_hours": "Mo-Fr 07:30-18:00", "operator": "CCAS - Mairie de Thônes"}}, {"type": "Feature", "geometry": {"type": "Point", "coordinates": [3.8655309, 43.6127763]}, "properties": {"osm_id": 1796022006, "osm_type": "node", "amenity": "kindergarten", "contact:city": "Montpellier", "contact:housenumber": "12", "contact:phone": "+33 9 81 05 21 20", "contact:postcode": "34000", "contact:street": "Rue Marcel de Serres", "name": "Les Ateliers d'Arthur", "wheelchair": "no"}}, {"type": "Feature", "geometry": {"type": "Point", "coordinates": [1.3238543, 43.5163296]}, "properties": {"osm_id": 1796361278, "osm_type": "node", "amenity": "kindergarten", "name": "Crèche les frouzibouts et RAM"}}, {"type": "Feature", "geometry": {"type": "Point", "coordinates": [2.3783499, 48.876233]}, "properties": {"osm_id": 1796786953, "osm_type": "node", "addr:city": "Paris", "addr:housenumber": "22", "addr:postcode": "75019", "addr:street": "Rue Lauzin", "amenity": "kindergarten", "kindergarten:FR": "crèche_collective", "name": "Crèche Lauzin", "operator": "Mairie de Paris", "operator:type": "government", "operator:wikidata": "Q3278478", "ref:FR:SIRET": "21750001609549"}}, {"type": "Feature", "geometry": {"type": "Point", "coordinates": [-0.5740138, 44.8483838]}, "properties": {"osm_id": 1797692420, "osm_type": "node", "addr:housenumber": "18", "addr:street": "Rue Vauban", "amenity": "kindergarten", "kindergarten:FR": "multiaccueil", "name": "MultiAccueil Brins d'éveil", "ref:FR:NAF": "88.91A", "ref:FR:SIREN": "514770064", "ref:FR:SIRET": "51477006400012", "source": "INSEE - 2025-03", "survey:date": "2023-10-24"}}, {"type": "Feature", "geometry": {"type": "Point", "coordinates": [-1.4265378, 46.6542108]}, "properties": {"osm_id": 1797908407, "osm_type": "node", "amenity": "kindergarten", "name": "Crèche des Jaulnières"}}, {"type": "Feature", "geometry": {"type": "Point", "coordinates": [4.8233863, 45.7781126]}, "properties": {"osm_id": 1798091739, "osm_type": "node", "amenity": "kindergarten", "check_date": "2025-06-09", "contact:city": "Lyon", "contact:housenumber": "33", "contact:postcode": "69004", "contact:street": "Rue Henri Gorjus", "name": "Crèche Popy", "ref:FR:SIRET": "77984731800044"}}, {"type": "Feature", "geometry": {"type": "Point", "coordinates": [-1.5682978, 47.2364342]}, "properties": {"osm_id": 1799392875, "osm_type": "node", "amenity": "kindergarten", "name": "People & Baby", "ref:FR:SIRET": "47918275000667"}}, {"type": "Feature", "geometry": {"type": "Point", "coordinates": [-1.4180631, 46.6755558]}, "properties": {"osm_id": 1800628472, "osm_type": "node", "amenity": "kindergarten", "name": "Crèche"}}, {"type": "Feature", "geometry": {"type": "Point", "coordinates": [2.2764474, 48.8831729]}, "properties": {"osm_id": 1805183127, "osm_type": "node", "amenity": "kindergarten", "name": "Crèche Sainte-Anne"}}, {"type": "Feature", "geometry": {"type": "Point", "coordinates": [5.4464565, 43.5306148]}, "properties": {"osm_id": 1809736501, "osm_type": "node", "amenity": "kindergarten", "name": "Baby Sympony"}}, {"type": "Feature", "geometry": {"type": "Point", "coordinates": [4.3475951, 44.2267]}, "properties": {"osm_id": 1809766789, "osm_type": "node", "amenity": "kindergarten", "name": "Crèche Halte-Garderie", "operator:type": "public", "preschool": "no"}}, {"type": "Feature", "geometry": {"type": "Point", "coordinates": [2.4730832, 48.8053634]}, "properties": {"osm_id": 1810614952, "osm_type": "node", "amenity": "kindergarten", "name": "Crèche Papillion"}}, {"type": "Feature", "geometry": {"type": "Point", "coordinates": [3.6875619, 50.1250405]}, "properties": {"osm_id": 1812137796, "osm_type": "node", "amenity": "kindergarten", "name": "Crèche"}}, {"type": "Feature", "geometry": {"type": "Point", "coordinates": [6.4175615, 45.7544669]}, "properties": {"osm_id": 1814018506, "osm_type": "node", "amenity": "kindergarten", "name": "Halte garderie"}}, {"type": "Feature", "geometry": {"type": "Point", "coordinates": [1.2995538, 43.520947]}, "properties": {"osm_id": 1819254743, "osm_type": "node", "amenity": "kindergarten", "name": "Centre de Loisir"}}, {"type": "Feature", "geometry": {"type": "Point", "coordinates": [-0.9655262, 46.922841]}, "properties": {"osm_id": 1821598044, "osm_type": "node", "amenity": "kindergarten", "kindergarten:FR": "halte_garderie", "name": "Garderie La Marelle"}}, {"type": "Feature", "geometry": {"type": "Point", "coordinates": [2.3351877, 48.8759973]}, "properties": {"osm_id": 1821733169, "osm_type": "node", "amenity": "kindergarten", "brand": "Les Petits Chaperons Rouges", "brand:wikidata": "Q130214582", "name": "Les Petits Chaperons Rouges", "source": "survey", "website": "https://www.lpcr.fr/"}}, {"type": "Feature", "geometry": {"type": "Point", "coordinates": [-0.3538067, 47.5778616]}, "properties": {"osm_id": 1822742500, "osm_type": "node", "amenity": "kindergarten", "name": "Crèche"}}, {"type": "Feature", "geometry": {"type": "Point", "coordinates": [5.7373242, 45.1614562]}, "properties": {"osm_id": 1822915470, "osm_type": "node", "amenity": "kindergarten", "name": "Les Trembles"}}, {"type": "Feature", "geometry": {"type": "Point", "coordinates": [7.7456266, 48.58897]}, "properties": {"osm_id": 1825398314, "osm_type": "node", "amenity": "kindergarten", "check_date": "2024-07-21", "name": "La Luciole", "phone": "+33 3 88 32 52 90", "ref:FR:SIRET": "33044765700017", "website": "https://www.la-luciole.org"}}, {"type": "Feature", "geometry": {"type": "Point", "coordinates": [2.2825489, 49.9013981]}, "properties": {"osm_id": 1825422352, "osm_type": "node", "amenity": "kindergarten", "kindergarten:FR": "crèche_collective", "name": "Crèche Château Milan", "operator": "Ville d'Amiens", "operator:type": "government", "operator:wikidata": "Q87071093", "ref:FR:SIRET": "21800019801289"}}, {"type": "Feature", "geometry": {"type": "Point", "coordinates": [2.910898, 49.7577811]}, "properties": {"osm_id": 1829502680, "osm_type": "node", "amenity": "kindergarten"}}, {"type": "Feature", "geometry": {"type": "Point", "coordinates": [2.4841892, 48.8017094]}, "properties": {"osm_id": 1832922235, "osm_type": "node", "amenity": "kindergarten", "name": "La Parentèle"}}, {"type": "Feature", "geometry": {"type": "Point", "coordinates": [6.0805109, 49.4816322]}, "properties": {"osm_id": 1834940906, "osm_type": "node", "amenity": "kindergarten"}}, {"type": "Feature", "geometry": {"type": "Point", "coordinates": [5.8659739, 49.492676]}, "properties": {"osm_id": 1835553743, "osm_type": "node", "amenity": "kindergarten", "name": "Maison de l'enfance"}}, {"type": "Feature", "geometry": {"type": "Point", "coordinates": [-0.6087124, 44.9471022]}, "properties": {"osm_id": 1841025823, "osm_type": "node", "addr:housenumber": "1", "addr:street": "Allée Jean Metayet", "amenity": "kindergarten", "name": "Espace multi accueil Le Petit Prince", "ref:FR:NAF": "88.91A", "ref:FR:SIREN": "948076773", "ref:FR:SIRET": "94807677300050", "source": "INSEE - 2025-02"}}, {"type": "Feature", "geometry": {"type": "Point", "coordinates": [2.4819648, 48.798276]}, "properties": {"osm_id": 1843036240, "osm_type": "node", "amenity": "kindergarten", "disused:amenity": "bank", "name": "People & Baby", "shop": "vacant"}}, {"type": "Feature", "geometry": {"type": "Point", "coordinates": [0.3131143, 46.5665462]}, "properties": {"osm_id": 1846885828, "osm_type": "node", "addr:postcode": "86000", "amenity": "kindergarten", "name": "Les p'tits mousses", "opening_hours": "Mo-Fr 07:30-12:30,14:00-18:30"}}, {"type": "Feature", "geometry": {"type": "Point", "coordinates": [0.3439642, 46.5654611]}, "properties": {"osm_id": 1850374923, "osm_type": "node", "amenity": "kindergarten", "name": "Crèche Les Frimousses", "source": "Observations sur places et GPS"}}, {"type": "Feature", "geometry": {"type": "Point", "coordinates": [5.4811827, 44.6932514]}, "properties": {"osm_id": 1852456221, "osm_type": "node", "amenity": "kindergarten", "name": "Multi-accueil À Petits Pas"}}, {"type": "Feature", "geometry": {"type": "Point", "coordinates": [7.3127694, 47.7435011]}, "properties": {"osm_id": 1855364452, "osm_type": "node", "amenity": "kindergarten"}}, {"type": "Feature", "geometry": {"type": "Point", "coordinates": [2.0962632, 48.8710287]}, "properties": {"osm_id": 1857376164, "osm_type": "node", "addr:city": "Marly-le-Roi", "addr:housenumber": "14", "addr:postcode": "78160", "addr:street": "Rue Carnot", "amenity": "kindergarten", "check_date": "2024-03-21", "kindergarten:FR": "multiaccueil", "name": "Crèche Fontenelle"}}, {"type": "Feature", "geometry": {"type": "Point", "coordinates": [2.160594, 43.5098229]}, "properties": {"osm_id": 1858750311, "osm_type": "node", "amenity": "kindergarten", "name": "Garderie"}},