{"type": "FeatureCollection", "features": [{"type": "Feature", "geometry": {"type": "Point", "coordinates": [2.0511246, 48.7857856]}, "properties": {"osm_id": 207529895, "osm_type": "node", "amenity": "university", "check_date": "2026-03-12", "name": "UVSQ - Faculté de droit", "operator": "Université Paris-Saclay"}}, {"type": "Feature", "geometry": {"type": "Point", "coordinates": [7.7728728, 48.5831481]}, "properties": {"osm_id": 243846680, "osm_type": "node", "amenity": "university", "check_date": "2026-03-10", "name": "École de Management", "short_name": "EM Strasbourg", "source": "cadastre-dgi-fr source : Direction Générale des Impôts - Cadastre;mise à jour : 2009", "wikidata": "Q1275285"}}, {"type": "Feature", "geometry": {"type": "Point", "coordinates": [5.0431241, 47.318849]}, "properties": {"osm_id": 255734819, "osm_type": "node", "amenity": "college", "name": "École supérieure de musique Bourgogne-Franche-Comté", "operator:type": "private", "ref:UAI": "0212132D", "short_name": "ESM", "source": "Etablissements d'enseignement supérieur - 09/2017"}}, {"type": "Feature", "geometry": {"type": "Point", "coordinates": [5.0495614, 47.3296196]}, "properties": {"osm_id": 263142580, "osm_type": "node", "addr:city": "Dijon", "addr:housenumber": "5", "addr:postcode": "21000", "addr:street": "Boulevard de la Marne", "amenity": "college", "fax": "+33 3 80 60 58 00", "name": "École nationale des greffes", "phone": "+33 3 80 60 56 00", "ref:UAI": "0211660R", "short_name": "ENG", "source": "Etablissements d'enseignement supérieur - 09/2017", "website": "https://www.eng.justice.fr/", "wikidata": "Q3578135", "wikipedia": "fr:École nationale des greffes"}}, {"type": "Feature", "geometry": {"type": "Point", "coordinates": [2.3327844, 48.9199485]}, "properties": {"osm_id": 267355578, "osm_type": "node", "alt_name": "École supérieure de mécanique", "amenity": "college", "check_date": "2025-09-23", "name": "Institut supérieur de mécanique de Paris", "old_name": "Centre d’Études Supérieures de Techniques Industrielles (CESTI)", "ref:UAI": "0930603A", "short_name": "Supméca", "source": "Etablissements d'enseignement supérieur - 09/2017"}}, {"type": "Feature", "geometry": {"type": "Point", "coordinates": [1.1460156, 49.0296999]}, "properties": {"osm_id": 282416683, "osm_type": "node", "amenity": "university", "name": "Université de Rouen Normandie, Campus Evreux"}}, {"type": "Feature", "geometry": {"type": "Point", "coordinates": [2.3145933, 48.8213864]}, "properties": {"osm_id": 295494073, "osm_type": "node", "alt_name": "École normale supérieure;Ulm;ENS Ulm;Normale sup';Normale sup' Ulm;ENS Campus Montrouge;ENS Campus de Montrouge;Campus Montrouge;Campus de Montrouge", "amenity": "college", "check_date": "2024-05-24", "name": "École normale supérieure – Campus de Montrouge", "short_name": "ENS", "website": "https://www.ens.fr/des-campus-au-coeur-de-paris/les-lieux-de-vie/montrouge"}}, {"type": "Feature", "geometry": {"type": "Point", "coordinates": [-1.5475125, 47.2487325]}, "properties": {"osm_id": 309370436, "osm_type": "node", "addr:city": "Nantes", "addr:housenumber": "1", "addr:postcode": "44300", "addr:street": "Rue de la Noë", "amenity": "college", "name": "École Nationale Supérieure Maritime", "name:br": "Skol Vroadel Uhel ar Mor", "old_name": "École Nationale de La Marine Marchande", "ref:UAI": "0440108D", "short_name": "ENSM Nantes", "source": "Etablissements d'enseignement supérieur - 09/2017", "website": "https://www.supmaritime.fr/"}}, {"type": "Feature", "geometry": {"type": "Point", "coordinates": [0.1633062, 48.0155891]}, "properties": {"osm_id": 312443522, "osm_type": "node", "addr:city": "Le Mans", "addr:postcode": "72000", "addr:street": "Boulevard Charles Nicolle", "amenity": "university", "name": "Sciences et techniques des activités physiques et sportives (STAPS)"}}, {"type": "Feature", "geometry": {"type": "Point", "coordinates": [6.8645227, 47.6395219]}, "properties": {"osm_id": 321848945, "osm_type": "node", "amenity": "university", "name": "Faculté de Droit Léon Delarbre"}}, {"type": "Feature", "geometry": {"type": "Point", "coordinates": [6.8644634, 47.6394437]}, "properties": {"osm_id": 321849254, "osm_type": "node", "amenity": "college", "name": "Université de Franche-Comté - Sciences Techniques et Gestion de l'Industrie - Site de Belfort", "ref:UAI": "0900385E", "short_name": "UFR STGI", "source": "data.gouv.fr:Office national d'information sur les enseignements et les professions - 11/2011"}}, {"type": "Feature", "geometry": {"type": "Point", "coordinates": [5.3777945, 43.4916757]}, "properties": {"osm_id": 351354008, "osm_type": "node", "amenity": "college", "name": "CVRH"}}, {"type": "Feature", "geometry": {"type": "Point", "coordinates": [5.3784178, 43.4912341]}, "properties": {"osm_id": 351354064, "osm_type": "node", "amenity": "college", "name": "École Nationale des Techniciens de l'Équipement", "ref:UAI": "0134029J", "short_name": "ENTE", "source": "Etablissements d'enseignement supérieur - 09/2017"}}, {"type": "Feature", "geometry": {"type": "Point", "coordinates": [5.9897577, 47.2519818]}, "properties": {"osm_id": 384936066, "osm_type": "node", "amenity": "college", "name": "UPFR des sports : Unité de promotion, formation et de recherche des sports", "ref:UAI": "0251436A", "short_name": "UPFR des sports"}}, {"type": "Feature", "geometry": {"type": "Point", "coordinates": [2.683427, 48.4062203]}, "properties": {"osm_id": 473133539, "osm_type": "node", "amenity": "university", "name": "Centre Européen d'Education Permanente", "short_name": "CEDEP"}}, {"type": "Feature", "geometry": {"type": "Point", "coordinates": [-1.5051805, 47.2749862]}, "properties": {"osm_id": 474701695, "osm_type": "node", "amenity": "college", "name": "Institut supérieur de l'électronique et du numérique Yncréa Ouest - ISEN Nantes", "name:br": "Ensavadur meur war an elektronik hag an teknologiezhioù niverel Yncréa Kornôg - EMEN Naoned", "operator:type": "private", "ref:UAI": "0442837V", "short_name": "ICAM Nantes", "source": "data.gouv.fr:Office national d'information sur les enseignements et les professions - 11/2011"}}, {"type": "Feature", "geometry": {"type": "Point", "coordinates": [6.4557983, 43.5397703]}, "properties": {"osm_id": 486561410, "osm_type": "node", "amenity": "university", "name": "Institut de formation public varois des professions de santé", "ref:UAI": "0831060B", "short_name": "IFPVPS", "source": "Etablissements d'enseignement supérieur - 09/2017"}}, {"type": "Feature", "geometry": {"type": "Point", "coordinates": [7.7455817, 48.5760609]}, "properties": {"osm_id": 493922841, "osm_type": "node", "amenity": "university", "check_date": "2024-08-11", "name": "Psychiatrie Infantile", "name:de": "Kinderpsychiatrie", "source": "cadastre-dgi-fr source : Direction Générale des Impôts - Cadastre ; mise à jour : 2009"}}, {"type": "Feature", "geometry": {"type": "Point", "coordinates": [7.7454959, 48.5757982]}, "properties": {"osm_id": 493922844, "osm_type": "node", "amenity": "university", "check_date": "2024-08-11", "name": "Département d'Anesthésiologie", "name:de": "Anästhesiologie", "source": "cadastre-dgi-fr source : Direction Générale des Impôts - Cadastre ; mise à jour : 2009"}}, {"type": "Feature", "geometry": {"type": "Point", "coordinates": [4.9180789, 45.7208131]}, "properties": {"osm_id": 499618290, "osm_type": "node", "amenity": "university", "name": "Équipe de Recherche ELICO"}}, {"type": "Feature", "geometry": {"type": "Point", "coordinates": [6.2308432, 49.0943614]}, "properties": {"osm_id": 538424614, "osm_type": "node", "addr:housenumber": "1", "addr:street": "Rue Augustin Fresnel", "amenity": "university", "description": "\"L’IAE Metz est depuis plus de 30 ans une École Universitaire de Management, membre du réseau IAE France qui fédère aujourd’hui 35 IAE, 47000 étudiants, 450000 diplômés sur tout le territoire national. L’IAE est une composante de l’Université de Lorraine.", "email": "iaemetz-contact@univ-lorraine.fr", "internet_access": "yes", "name": "IAE Metz School of Management", "operator": "Université de Lorraine", "operator:type": "university", "phone": "+33 3 72 74 88 40", "ref:UAI": "0573466H", "short_name": "IAE Metz", "source": "Etablissements d'enseignement supérieur - 09/2017", "website": "https://iaemetz.univ-lorraine.fr", "wheelchair": "yes"}}, {"type": "Feature", "geometry": {"type": "Point", "coordinates": [2.3790554, 48.98142]}, "properties": {"osm_id": 543359200, "osm_type": "node", "amenity": "college", "education": "college", "name": "Conservatoire de Musique Itzhak Rabin"}}, {"type": "Feature", "geometry": {"type": "Point", "coordinates": [2.374802, 48.7764304]}, "properties": {"osm_id": 561303566, "osm_type": "node", "addr:housenumber": "122", "amenity": "university", "contact:phone": "+33 1 41 80 73 73", "education": "university", "name": "IUT Créteil - Site Vitry", "ref:UAI": "0942072S", "school:FR": "IUT", "short_name": "IUT", "source": "Etablissements d'enseignement supérieur - 09/2017", "website": "https://iut.u-pec.fr/presentation/site-de-vitry/", "wheelchair": "yes"}}, {"type": "Feature", "geometry": {"type": "Point", "coordinates": [2.7751921, 48.854726]}, "properties": {"osm_id": 603023269, "osm_type": "node", "amenity": "university", "check_date": "2024-05-19", "name": "Institut francilien d'ingénierie des services", "ref:UAI": "0772717K", "short_name": "UFR IFIS", "source": "Etablissements d'enseignement supérieur - 09/2017"}}, {"type": "Feature", "geometry": {"type": "Point", "coordinates": [0.680694, 47.3671074]}, "properties": {"osm_id": 627500253, "osm_type": "node", "addr:city": "Tours", "addr:housenumber": "33", "addr:postcode": "37200", "addr:street": "Allée Ferdinand de Lesseps", "amenity": "university", "check_date": "2025-09-25", "internet_access": "wlan", "name": "Maison des Sciences sociales et des Humanités Val de Loire - CITERES", "short_name": "MSH Val de Loire", "website": "https://www.msh-vdl.fr", "wheelchair": "yes"}}, {"type": "Feature", "geometry": {"type": "Point", "coordinates": [2.3877184, 48.7096065]}, "properties": {"osm_id": 632214580, "osm_type": "node", "amenity": "college", "name": "Conservatoire de Musique, de Danse et de Théâtre"}}, {"type": "Feature", "geometry": {"type": "Point", "coordinates": [4.6338508, 43.6556212]}, "properties": {"osm_id": 636142337, "osm_type": "node", "amenity": "college", "check_date": "2024-09-07", "name": "Institut de formation en soins infirmiers et aides-soignants d'Arles", "operator": "Centre Hospitalier d'Arles", "ref:UAI": "0132930P", "short_name": "IFSI - IFAS", "source": "Etablissements d'enseignement supérieur - 09/2017"}}, {"type": "Feature", "geometry": {"type": "Point", "coordinates": [6.1705002, 48.6855481]}, "properties": {"osm_id": 647158862, "osm_type": "node", "amenity": "college", "name": "Université de la Culture Permanente", "source": "survey", "website": "https://www.ucp-nancy.org/"}}, {"type": "Feature", "geometry": {"type": "Point", "coordinates": [2.405732, 48.86611]}, "properties": {"osm_id": 647402062, "osm_type": "node", "addr:housenumber": "1", "addr:postcode": "75020", "addr:street": "Rue des Montibœufs", "amenity": "college", "check_date": "2025-10-16", "education": "college", "email": "contact-paris@opusformation.eu", "name": "Opus formation", "phone": "+33 1 43 64 68 45", "website": "https://opusformation.eu"}}, {"type": "Feature", "geometry": {"type": "Point", "coordinates": [2.3907072, 48.8089631]}, "properties": {"osm_id": 667275876, "osm_type": "node", "alt_name": "École professionnelle supérieure d'arts graphiques et d'architecture", "amenity": "college", "name": "EPSAA", "short_name": "EPSAA", "source": "data.gouv.fr:Office national d'information sur les enseignements et les professions - 11/2011", "website": "https://epsaa.fr/"}}, {"type": "Feature", "geometry": {"type": "Point", "coordinates": [2.6523616, 48.5376227]}, "properties": {"osm_id": 669751513, "osm_type": "node", "amenity": "college", "name": "Centre universitaire Cujas", "wikidata": "Q662976"}}, {"type": "Feature", "geometry": {"type": "Point", "coordinates": [-4.489362, 48.3982606]}, "properties": {"osm_id": 727485633, "osm_type": "node", "amenity": "college", "check_date": "2025-09-18", "name": "Cours Galien", "source": "BMO/SIG 2010"}}, {"type": "Feature", "geometry": {"type": "Point", "coordinates": [-4.4893758, 48.3982013]}, "properties": {"osm_id": 727485644, "osm_type": "node", "amenity": "college", "check_date": "2025-09-18", "name": "Elytis", "source": "BMO/SIG 2010"}}, {"type": "Feature", "geometry": {"type": "Point", "coordinates": [-4.5021278, 48.4010326]}, "properties": {"osm_id": 727485712, "osm_type": "node", "amenity": "university", "name": "Institut d'administration des entreprises de Bretagne Occidentale", "name:br": "Ensavadur evit mererezh embregerezhioù Breizh-Izel", "name:fr": "Institut d'administration des entreprises de Bretagne Occidentale", "short_name": "IAE de Bretagne Occidentale", "wikidata": "Q3151888"}}, {"type": "Feature", "geometry": {"type": "Point", "coordinates": [1.5039228, 43.5553946]}, "properties": {"osm_id": 732525519, "osm_type": "node", "amenity": "university", "check_date": "2024-06-20", "name": "INPT", "wikidata": "Q3152453"}}, {"type": "Feature", "geometry": {"type": "Point", "coordinates": [1.49811, 43.5578956]}, "properties": {"osm_id": 733934506, "osm_type": "node", "addr:city": "Toulouse", "addr:housenumber": "1", "addr:street": "Allée Jean Griffon", "amenity": "college", "name": "AFPA"}}, {"type": "Feature", "geometry": {"type": "Point", "coordinates": [2.364425, 48.8789675]}, "properties": {"osm_id": 735171902, "osm_type": "node", "alt_name": "CIEFA", "amenity": "college", "education": "college", "name": "Centre Inter Entreprise de Formation en Alternance"}}, {"type": "Feature", "geometry": {"type": "Point", "coordinates": [1.4370777, 44.4438531]}, "properties": {"osm_id": 774745604, "osm_type": "node", "amenity": "college", "name": "Institut de formation aux métiers de la santé - IFMS du Lot", "ref:UAI": "0460580F", "short_name": "IFMS", "source": "cadastre-dgi-fr source : Direction Générale des Impôts - Cadastre. Mise à jour : 2010"}}, {"type": "Feature", "geometry": {"type": "Point", "coordinates": [0.6302939, 44.2030078]}, "properties": {"osm_id": 798152301, "osm_type": "node", "addr:city": "Agen", "addr:housenumber": "156", "addr:postcode": "47000", "addr:street": "Avenue Jean Jaurès", "amenity": "university", "name": "Campus Numérique 47", "source": "Ministère de l'Éducation nationale, de l'Enseignement supérieur et de la Recherche", "website": "https://www.espe-aquitaine.fr/", "wheelchair": "no"}}, {"type": "Feature", "geometry": {"type": "Point", "coordinates": [2.924536, 42.6941199]}, "properties": {"osm_id": 812381977, "osm_type": "node", "addr:city": "Perpignan", "addr:housenumber": "1", "addr:postcode": "66000;66100", "addr:street": "Rue Charles Percier", "amenity": "university", "name": "Site Percier (Université de Perpignan)"}}, {"type": "Feature", "geometry": {"type": "Point", "coordinates": [2.3513855, 48.8598478]}, "properties": {"osm_id": 855292325, "osm_type": "node", "alt_name": "Institut de recherche et coordination acoustique musique", "amenity": "college", "check_date": "2024-03-17", "education": "college", "name": "IRCAM", "source": "survey", "website": "https://www.ircam.fr/", "wikidata": "Q579314", "wikipedia": "fr:Institut de recherche et coordination acoustique/musique"}}, {"type": "Feature", "geometry": {"type": "Point", "coordinates": [1.0811134, 49.4443862]}, "properties": {"osm_id": 917391387, "osm_type": "node", "amenity": "college", "check_date": "2024-08-07", "name": "Institut Supérieur de Formation Providence Miséricorde", "source": "cadastre-dgi-fr source : Direction Générale des Impôts - Cadastre. Mise à jour : 2010"}}, {"type": "Feature", "geometry": {"type": "Point", "coordinates": [4.8374861, 45.7384558]}, "properties": {"osm_id": 931908512, "osm_type": "node", "amenity": "college", "check_date": "2026-06-06", "email": "superieur@bellevue-lyon.org", "name": "Assomption Bellevue - Pôle Enseignement Supérieur", "phone": "+33 4 37 65 30 70", "short_name": "ENT Assomption Bellevue", "website": "https://www.pole-sup.bellevue-lyon.org/"}}, {"type": "Feature", "geometry": {"type": "Point", "coordinates": [2.3309735, 48.8609328]}, "properties": {"osm_id": 1018024972, "osm_type": "node", "addr:full": "Palais du Louvre, Porte Jaujard, Place du Carrousel, 75038 Paris cedex 01", "amenity": "university", "education": "university", "name": "École du Louvre", "note": "L'Ecole du Louvre est un établissement d'enseignement supérieur qui dispense des cours d'histoire de l'art, d'archéologie, d'épigraphie, d'histoire des civilisations, d’anthropologie et de muséologie.", "phone": "+33155351800", "website": "https://www.ecoledulouvre.fr/", "wheelchair": "yes", "wikidata": "Q273534", "wikipedia": "fr:École du Louvre"}}, {"type": "Feature", "geometry": {"type": "Point", "coordinates": [-0.5510846, 47.4788102]}, "properties": {"osm_id": 1038274604, "osm_type": "node", "addr:housenumber": "7", "addr:postcode": "49000", "addr:street": "Allée François Mitterrand", "amenity": "university", "check_date": "2026-01-12", "faculty": "tourism", "name": "Faculté de Tourisme, Culture et Hospitalité", "ref:UAI": "0492227E", "short_name": "ESTHUA", "source": "Etablissements d'enseignement supérieur - 09/2017"}}, {"type": "Feature", "geometry": {"type": "Point", "coordinates": [1.9389222, 43.3032358]}, "properties": {"osm_id": 1062366577, "osm_type": "node", "amenity": "college", "name": "CFA agricole de l'Aude, site de Castelnaudary", "source": "data.gouv.fr:Office national d'information sur les enseignements et les professions - 11/2011"}}, {"type": "Feature", "geometry": {"type": "Point", "coordinates": [7.0400415, 43.6215271]}, "properties": {"osm_id": 1073786355, "osm_type": "node", "amenity": "college", "name": "CESI École d'ingénieurs EXIA - campus de Nice Sophia Antipolis", "operator:type": "private", "ref:UAI": "0062088M", "short_name": "CESI EXIA", "source": "Etablissements d'enseignement supérieur - 09/2017"}}, {"type": "Feature", "geometry": {"type": "Point", "coordinates": [2.49683, 48.9396952]}, "properties": {"osm_id": 1091310162, "osm_type": "node", "amenity": "college", "name": "École d'Arts Claude Monet"}}, {"type": "Feature", "geometry": {"type": "Point", "coordinates": [2.4403252, 49.3847546]}, "properties": {"osm_id": 1128593983, "osm_type": "node", "addr:city": "Breuil-le-Sec", "addr:postcode": "60840", "addr:street": "Centre Hospitalier Isarien", "amenity": "university", "internet_access": "yes", "internet_access:fee": "customers", "name": "Institut de Formation Lucien Floury", "website": "https://www.ifsi-clermont60.fr/"}}, {"type": "Feature", "geometry": {"type": "Point", "coordinates": [2.3458299, 48.8451702]}, "properties": {"osm_id": 1134653564, "osm_type": "node", "amenity": "university", "check_date": "2024-06-28", "name": "Collège de France - Site Ulm", "source": "cadastre-dgi-fr source : Direction Générale des Impôts - Cadastre. Mise à jour : 2011"}}, {"type": "Feature", "geometry": {"type": "Point", "coordinates": [7.7477995, 48.5893242]}, "properties": {"osm_id": 1210841521, "osm_type": "node", "amenity": "college", "name": "École Supérieure de Management et de Gestion", "source": "survey"}}, {"type": "Feature", "geometry": {"type": "Point", "coordinates": [-0.6277552, 48.7961385]}, "properties": {"osm_id": 1213789605, "osm_type": "node", "amenity": "college", "historic": "castle"}}, {"type": "Feature", "geometry": {"type": "Point", "coordinates": [7.7555278, 48.5933984]}, "properties": {"osm_id": 1215377119, "osm_type": "node", "amenity": "college", "name": "IFCE", "source": "survey", "website": "https://www.ifce-formation.com/#"}}, {"type": "Feature", "geometry": {"type": "Point", "coordinates": [2.366266, 48.8257036]}, "properties": {"osm_id": 1215516785, "osm_type": "node", "amenity": "college", "check_date": "2024-08-15", "education": "college", "layer": "2", "level": "2", "name": "PBS Paris School of Business"}}, {"type": "Feature", "geometry": {"type": "Point", "coordinates": [7.7430444, 48.590297]}, "properties": {"osm_id": 1246670050, "osm_type": "node", "amenity": "college", "name": "École Grandjean", "source": "survey"}}, {"type": "Feature", "geometry": {"type": "Point", "coordinates": [6.2391226, 44.0967893]}, "properties": {"osm_id": 1278274608, "osm_type": "node", "addr:city": "Digne-les-Bains Cedex 9", "addr:housenumber": "19", "addr:postcode": "04995", "addr:street": "Boulevard Saint-Jean Chrysostome", "amenity": "university", "contact:email": "iut-digne-scol@univ-amu.fr", "contact:phone": "+33 4 13 55 12 55", "contact:website": "https://iut.univ-amu.fr/fr/sites-geographiques/digne", "name": "IUT d'Aix-Marseille - site de Digne-les-Bains", "operator": "Aix-Marseille Université", "operator:type": "public", "ref:UAI": "0040522W", "short_name": "IUT", "source": "cadastre-dgi-fr source : Direction Générale des Impôts - Cadastre. Mise à jour : 2010", "university:FR": "IUT", "wheelchair": "yes", "wikidata": "Q3152666", "wikipedia": "fr:Institut universitaire de technologie d'Aix-Marseille"}}, {"type": "Feature", "geometry": {"type": "Point", "coordinates": [1.909441, 47.8991848]}, "properties": {"osm_id": 1297137939, "osm_type": "node", "addr:city": "Orléans", "addr:housenumber": "36", "addr:postcode": "45000", "addr:street": "Rue de la Charpenterie", "amenity": "college", "description": "Les Compagnons du Tour de France", "name": "Fédération Compagnonique Régionale d'Orléans", "operator:type": "private", "ref:FR:SIRET": "31521327200034", "ref:UAI": "0451779P", "short_name": "ISC Paris", "source": "Etablissements d'enseignement supérieur - 09/2017"}}, {"type": "Feature", "geometry": {"type": "Point", "coordinates": [2.329406, 48.8322658]}, "properties": {"osm_id": 1298276769, "osm_type": "node", "addr:housenumber": "8", "addr:postcode": "75014", "addr:street": "Square Henri Delormel", "alt_name": "L'Institut Supérieur des Arts Appliqués", "amenity": "college", "name": "École d'animation, VFX et jeu vidéo", "operator:type": "private", "ref:UAI": "0754559Y", "short_name": "LISAA", "source": "Etablissements d'enseignement supérieur - 09/2017", "website": "https://www.lisaa.com/", "wheelchair": "yes"}}, {"type": "Feature", "geometry": {"type": "Point", "coordinates": [0.3413134, 46.5789444]}, "properties": {"osm_id": 1327204524, "osm_type": "node", "addr:housenumber": "26", "addr:street": "Rue Jean Alexandre", "amenity": "university", "email": "beaux.arts@mairie-poitiers.fr", "fax": "+33 5 49 88 24 46", "name": "École Des Beaux-Arts", "operator:type": "public", "phone": "+33 5 49 88 96 53", "ref:FR:NAF": "85.42Z", "ref:FR:SIREN": "200069854", "ref:FR:SIRET": "20006985400251", "source": "INSEE - 2025-03", "website": "http://www.eba-poitiers.fr/"}}, {"type": "Feature", "geometry": {"type": "Point", "coordinates": [0.3416992, 46.5787598]}, "properties": {"osm_id": 1327204528, "osm_type": "node", "amenity": "college", "name": "École européenne supérieure de l'image Angoulême Poitiers", "name:en": "European School of Visual Arts", "operator:type": "public", "phone": "+33 5 49 88 96 53", "short_name": "EESI", "source": "Ministère de l'Education nationale, de la Jeunesse et de la Vie associative", "website": "http://www.eesi.eu/"}}, {"type": "Feature", "geometry": {"type": "Point", "coordinates": [-0.5500078, 47.4786679]}, "properties": {"osm_id": 1339485090, "osm_type": "node", "amenity": "university", "faculty": "law;economics;management", "name": "UFR de droit, économie et gestion", "operator": "Université d'Angers", "ref:FR:NAF": "85.42Z", "ref:FR:SIRET": "19490970100279", "ref:UAI": "0491610J", "source": "INSEE - 2026-05"}}, {"type": "Feature", "geometry": {"type": "Point", "coordinates": [4.9163911, 45.7222138]}, "properties": {"osm_id": 1350325559, "osm_type": "node", "amenity": "university", "name": "LIRIS", "source": "cadastre-dgi-fr source : Direction Générale des Impôts - Cadastre. Mise à jour : 2011", "website": "https://liris.cnrs.fr/presentation/pour-acceder-luniversite-louis-lumiere-lyon-2"}}, {"type": "Feature", "geometry": {"type": "Point", "coordinates": [2.3807914, 48.8487838]}, "properties": {"osm_id": 1403611103, "osm_type": "node", "amenity": "college", "education": "college", "name": "École Françoise Conté", "wikipedia": "fr:École supérieure d'art Françoise Conte"}}, {"type": "Feature", "geometry": {"type": "Point", "coordinates": [2.3372367, 48.875531]}, "properties": {"osm_id": 1445872330, "osm_type": "node", "amenity": "college", "education": "college", "name": "Institut Pratique de Journalisme", "operator:type": "private", "ref:UAI": "0753651L", "short_name": "IPJ", "source": "survey;éducation nationale (via osmose)", "wikidata": "Q3152488"}}, {"type": "Feature", "geometry": {"type": "Point", "coordinates": [4.801022, 44.14388]}, "properties": {"osm_id": 1453983700, "osm_type": "node", "amenity": "college", "name": "ACAF - MSA", "postal_code": "84100"}}, {"type": "Feature", "geometry": {"type": "Point", "coordinates": [2.3376621, 48.8686345]}, "properties": {"osm_id": 1455803155, "osm_type": "node", "amenity": "college", "contact:city": "Paris", "contact:housenumber": "5", "contact:phone": "+33 1 42 86 57 06", "contact:postcode": "75002", "contact:street": "Rue Saint-Augustin", "contact:website": "http://www.iesamultimedia.com", "name": "IESA Multimédia", "opening_hours": "Mo-Fr 08:00-20:00", "wheelchair": "no"}}, {"type": "Feature", "geometry": {"type": "Point", "coordinates": [0.6974198, 47.3940189]}, "properties": {"osm_id": 1472588951, "osm_type": "node", "amenity": "college", "education": "college", "name": "Conservatoire à Rayonnement Régional Francis Poulenc", "ref:UAI": "0371795A", "short_name": "CRR", "source": "data.gouv.fr:Office national d'information sur les enseignements et les professions - 11/2011"}}, {"type": "Feature", "geometry": {"type": "Point", "coordinates": [2.3344716, 48.8647892]}, "properties": {"osm_id": 1488537279, "osm_type": "node", "amenity": "college", "contact:city": "Paris", "contact:housenumber": "5", "contact:phone": "+33 1 42 86 57 01", "contact:postcode": "75001", "contact:street": "Avenue de l'Opéra", "contact:website": "http://www.iesa.info", "education": "college"}}, {"type": "Feature", "geometry": {"type": "Point", "coordinates": [0.3432469, 46.5809179]}, "properties": {"osm_id": 1575982592, "osm_type": "node", "alt_name": "ESCEM", "amenity": "college", "contact:website": "http://www.escem.fr", "name": "École Supérieur de Commerce et de Management", "ref:UAI": "0860701V", "short_name": "CRFCB", "source": "Observations locales et GPS", "wikidata": "Q3046089", "wikipedia": "fr:ESCEM Ecole de Management"}}, {"type": "Feature", "geometry": {"type": "Point", "coordinates": [3.0747421, 50.3675026]}, "properties": {"osm_id": 1584907251, "osm_type": "node", "amenity": "college", "name": "Conservatoire à rayonnement régional Victor Gallois", "ref:UAI": "0593650X", "short_name": "CRR", "source": "Etablissements d'enseignement supérieur - 09/2017", "wikipedia": "fr:Conservatoire à rayonnement régional de Douai"}}, {"type": "Feature", "geometry": {"type": "Point", "coordinates": [-0.2420138, 44.9167618]}, "properties": {"osm_id": 1596571184, "osm_type": "node", "amenity": "college", "name": "École Privée Commerce & Comptabilité"}}, {"type": "Feature", "geometry": {"type": "Point", "coordinates": [4.8622826, 45.7474229]}, "properties": {"osm_id": 1614261813, "osm_type": "node", "amenity": "university", "check_date": "2024-06-27", "name": "Les studios Lumières"}}, {"type": "Feature", "geometry": {"type": "Point", "coordinates": [0.698783, 44.4042174]}, "properties": {"osm_id": 1674881236, "osm_type": "node", "addr:city": "Villeneuve-sur-Lot", "addr:housenumber": "1", "addr:postcode": "47300", "addr:street": "Rue Jeanne d'Arc", "amenity": "university", "isced:level": "6", "name": "Campus de Villeneuve-sur-Lot", "operator": "Communauté d'agglomération du Grand Villeneuvois", "operator:type": "public", "website": "https://www.grand-villeneuvois.fr/campus-villeneuve-sur-lot-276.html"}}, {"type": "Feature", "geometry": {"type": "Point", "coordinates": [-4.4893493, 48.4238602]}, "properties": {"osm_id": 1700086303, "osm_type": "node", "addr:housenumber": "72", "amenity": "university", "education": "university"}}, {"type": "Feature", "geometry": {"type": "Point", "coordinates": [4.3812643, 45.4412495]}, "properties": {"osm_id": 1734276646, "osm_type": "node", "addr:housenumber": "1", "addr:street": "Rue Buisson", "amenity": "college", "check_date": "2024-03-09", "name": "École Nationale Supérieure d’Architecture de Saint-Étienne", "ref:UAI": "0421614B", "short_name": "ENSASE", "source": "Etablissements d'enseignement supérieur - 09/2017", "website": "https://www.st-etienne.archi.fr/"}}, {"type": "Feature", "geometry": {"type": "Point", "coordinates": [-0.6742092, 44.8286593]}, "properties": {"osm_id": 1759485661, "osm_type": "node", "amenity": "college", "check_date": "2025-07-24", "name": "Altéa", "operator:type": "private", "ref:UAI": "0333233K", "source": "Etablissements d'enseignement supérieur - 09/2017"}}, {"type": "Feature", "geometry": {"type": "Point", "coordinates": [6.1477263, 49.3725193]}, "properties": {"osm_id": 1775578376, "osm_type": "node", "amenity": "college", "name": "Institut de formation en soins infirmiers du CHR Metz-Thionville", "ref:UAI": "0572696W", "short_name": "IFSI", "source": "data.gouv.fr:Office national d'information sur les enseignements et les professions - 11/2011"}}, {"type": "Feature", "geometry": {"type": "Point", "coordinates": [6.166152, 49.3713591]}, "properties": {"osm_id": 1775578441, "osm_type": "node", "amenity": "college", "name": "CFA des industries du nucléaire", "source": "data.gouv.fr:Office national d'information sur les enseignements et les professions - 11/2011"}}, {"type": "Feature", "geometry": {"type": "Point", "coordinates": [6.167347, 49.3621664]}, "properties": {"osm_id": 1775578878, "osm_type": "node", "amenity": "college", "name": "Centre d'Études des Sciences de l'Entreprise", "short_name": "CESE", "source": "Ministère de l'Education nationale, de la Jeunesse et de la Vie associative"}}, {"type": "Feature", "geometry": {"type": "Point", "coordinates": [6.1716569, 49.3506232]}, "properties": {"osm_id": 1775583658, "osm_type": "node", "amenity": "college", "name": "CFAI Moselle-CEFASIM", "operator:type": "private", "short_name": "CFAI", "source": "data.gouv.fr:Office national d'information sur les enseignements et les professions - 11/2011", "website": "https://www.formation-industries-lorraine.com"}}, {"type": "Feature", "geometry": {"type": "Point", "coordinates": [6.1698154, 49.3488634]}, "properties": {"osm_id": 1775591296, "osm_type": "node", "amenity": "college", "name": "École Supérieure du Soudage et de ses Applications", "operator:type": "private", "ref:UAI": "0573593W", "short_name": "ESSA", "source": "Ministère de l'Education nationale, de la Jeunesse et de la Vie associative"}}, {"type": "Feature", "geometry": {"type": "Point", "coordinates": [0.6840424, 47.3656157]}, "properties": {"osm_id": 1776987014, "osm_type": "node", "amenity": "college", "check_date": "2025-06-13", "name": "Université de Tours Institut d'administration des entreprises", "operator:type": "public", "ref:UAI": "0371576M", "short_name": "IAE", "source": "Ministère de l'Education nationale, de la Jeunesse et de la Vie associative"}}, {"type": "Feature", "geometry": {"type": "Point", "coordinates": [3.2930819, 48.2013086]}, "properties": {"osm_id": 1777036985, "osm_type": "node", "amenity": "college", "name": "École nationale de police de Sens", "operator:type": "public", "ref:UAI": "0891177W", "short_name": "ENP", "source": "Ministère de l'Education nationale, de la Jeunesse et de la Vie associative"}}, {"type": "Feature", "geometry": {"type": "Point", "coordinates": [2.289509, 48.911087]}, "properties": {"osm_id": 1780113007, "osm_type": "node", "amenity": "college", "education": "college", "name": "CFA des comédiens", "operator:type": "private", "source": "Ministère de l'Education nationale, de la Jeunesse et de la Vie associative"}}, {"type": "Feature", "geometry": {"type": "Point", "coordinates": [1.0691606, 46.851353]}, "properties": {"osm_id": 1782433934, "osm_type": "node", "amenity": "college", "name": "Centre Permanent d'Initiatives pour l'Environnement", "source": "cadastre-dgi-fr source : Direction Générale des Impôts - Cadastre. Mise à jour : 2012"}}, {"type": "Feature", "geometry": {"type": "Point", "coordinates": [2.4554519, 48.819638]}, "properties": {"osm_id": 1784412971, "osm_type": "node", "amenity": "college", "name": "École nationale de police de Paris", "operator:type": "public", "short_name": "ENP", "source": "Ministère de l'Education nationale, de la Jeunesse et de la Vie associative"}}, {"type": "Feature", "geometry": {"type": "Point", "coordinates": [-0.5657077, 44.8553388]}, "properties": {"osm_id": 1786354435, "osm_type": "node", "addr:housenumber": "101", "addr:postcode": "33300", "addr:street": "Quai des Chartrons", "amenity": "college", "name": "École Supérieure de Commerce et d'Économie Numérique", "operator:type": "private", "ref:UAI": "0333271B", "short_name": "ESCEN", "source": "www.escen.fr"}}, {"type": "Feature", "geometry": {"type": "Point", "coordinates": [2.3431977, 48.918925]}, "properties": {"osm_id": 1787167068, "osm_type": "node", "amenity": "college", "name": "Centre Européen d'Enseignement Supérieur en Ostéopathie", "operator:type": "private", "ref:UAI": "0932327Z", "short_name": "CEESO Paris", "source": "Etablissements d'enseignement supérieur - 09/2017"}}, {"type": "Feature", "geometry": {"type": "Point", "coordinates": [0.7366811, 47.397251]}, "properties": {"osm_id": 1799193417, "osm_type": "node", "amenity": "college", "name": "CFA BTP Aforproba d'Indre-et-Loire", "operator:type": "private", "source": "Ministère de l'Education nationale, de la Jeunesse et de la Vie associative"}}, {"type": "Feature", "geometry": {"type": "Point", "coordinates": [3.8667121, 43.6100003]}, "properties": {"osm_id": 1805040720, "osm_type": "node", "addr:housenumber": "11", "addr:street": "Rue Saint-Louis", "amenity": "university", "name": "Institut Musicothérapie", "website": "http://musicotherapie.upv.univ-montp3.fr/", "wheelchair": "yes"}}, {"type": "Feature", "geometry": {"type": "Point", "coordinates": [-1.5453135, 47.2030865]}, "properties": {"osm_id": 1816042092, "osm_type": "node", "amenity": "college", "name": "CAP VERS", "operator:type": "private", "source": "Ministère de l'Education nationale, de la Jeunesse et de la Vie associative"}}, {"type": "Feature", "geometry": {"type": "Point", "coordinates": [0.3462274, 46.58404]}, "properties": {"osm_id": 1829008491, "osm_type": "node", "amenity": "college", "name": "Institut de préparation aux examens et concours", "operator:type": "private", "short_name": "IPECO", "source": "Ministère de l'Education nationale, de la Jeunesse et de la Vie associative"}}, {"type": "Feature", "geometry": {"type": "Point", "coordinates": [0.4901806, 44.8108854]}, "properties": {"osm_id": 1831898191, "osm_type": "node", "amenity": "college", "name": "L.E.P.A. de La Brie"}}, {"type": "Feature", "geometry": {"type": "Point", "coordinates": [4.8358256, 45.7302579]}, "properties": {"osm_id": 1836397828, "osm_type": "node", "amenity": "college", "check_date": "2024-05-26", "contact:email": "responsable.pedagogique@erplyon.fr", "contact:fax": "+33 4 78 69 93 62", "contact:phone": "+33 4 78 72 63 56", "contact:website": "http://www.erplyon.fr/", "name": "École de reconversion professionnelle Georges Guynemer", "operator:type": "public", "ref:UAI": "0693500E", "source": "Ministère de l'Education nationale, de la Jeunesse et de la Vie associative", "start_date": "1915-10-01"}}, {"type": "Feature", "geometry": {"type": "Point", "coordinates": [6.9667166, 43.5536368]}, "properties": {"osm_id": 1844060865, "osm_type": "node", "amenity": "college", "name": "Université de Nice - Sophia Antipolis IUT de Nice Côte d'Azur - Site de Cannes - Département Tech de commercialisation", "operator:type": "public", "source": "Ministère de l'Education nationale, de la Jeunesse et de la Vie associative"}}, {"type": "Feature", "geometry": {"type": "Point", "coordinates": [6.9667912, 43.5533767]}, "properties": {"osm_id": 1844071271, "osm_type": "node", "amenity": "university", "name": "Faculté des métiers", "operator:type": "public", "source": "Ministère de l'Education nationale, de la Jeunesse et de la Vie associative"}}, {"type": "Feature", "geometry": {"type": "Point", "coordinates": [2.3727815, 43.2149398]}, "properties": {"osm_id": 1859960315, "osm_type": "node", "amenity": "college", "name": "CFA de la CCI", "source": "Ministère de l'Education nationale, de la Jeunesse et de la Vie associative"}}, {"type": "Feature", "geometry": {"type": "Point", "coordinates": [2.3726128, 43.2149806]}, "properties": {"osm_id": 1859960317, "osm_type": "node", "amenity": "college", "name": "Négoventis de Carcassonne", "source": "Ministère de l'Education nationale, de la Jeunesse et de la Vie associative"}}, {"type": "Feature", "geometry": {"type": "Point", "coordinates": [0.1277372, 49.4964929]}, "properties": {"osm_id": 1867194275, "osm_type": "node", "amenity": "university", "check_date": "2024-09-02", "education": "university", "name": "Université du Havre : UFR Sciences"}}, {"type": "Feature", "geometry": {"type": "Point", "coordinates": [0.3376327, 46.6117002]}, "properties": {"osm_id": 1869860317, "osm_type": "node", "amenity": "college", "check_date": "2025-06-24", "education": "college", "name": "IDAIC école des métiers du commerce et du management", "operator:type": "private", "ref:UAI": "0861437V", "short_name": "IDAIC", "source": "Ministère de l'Education nationale, de la Jeunesse et de la Vie associative"}}, {"type": "Feature", "geometry": {"type": "Point", "coordinates": [5.9917493, 47.2291259]}, "properties": {"osm_id": 1870446679, "osm_type": "node", "addr:city": "Besançon", "addr:housenumber": "83", "addr:postcode": "25000", "addr:street": "Rue de Dole", "amenity": "college", "name": "Frate-formation-conseil", "ref:FR:SIRET": "78162137000159", "website": "https://frateformation.net/"}}, {"type": "Feature", "geometry": {"type": "Point", "coordinates": [2.3312393, 48.8544608]}, "properties": {"osm_id": 1871179933, "osm_type": "node", "amenity": "college", "name": "IPAG Paris", "operator:type": "private", "ref:FR:SIRET": "78428080200017", "ref:UAI": "0752792C", "website": "https://www.ipag.edu"}}, {"type": "Feature", "geometry": {"type": "Point", "coordinates": [7.3093505, 47.731017]}, "properties": {"osm_id": 1886729833, "osm_type": "node", "amenity": "university", "name": "Centre Universitaire de Formation des Enseignants et Formateurs", "source": "cadastre-dgi-fr source : Direction Générale des Impôts - Cadastre. Mise à jour : 2012"}}, {"type": "Feature", "geometry": {"type": "Point", "coordinates": [2.3320305, 48.8974557]}, "properties": {"osm_id": 1896223516, "osm_type": "node", "addr:housenumber": "133", "addr:postcode": "75018", "addr:street": "Boulevard Ney", "amenity": "college", "college:FR": "IFSI", "education": "college", "name": "IFSI de l'Hôpital Bichat AP HP", "ref:UAI": "0753026G", "short_name": "IFSI", "source": "Etablissements d'enseignement supérieur - 09/2017"}}, {"type": "Feature", "geometry": {"type": "Point", "coordinates": [7.4490366, 43.8798497]}, "properties": {"osm_id": 1908173731, "osm_type": "node", "amenity": "university", "name": "Collège Jean Médecin", "website": "https://www.agora06.fr/my.policy"}}, {"type": "Feature", "geometry": {"type": "Point", "coordinates": [2.343149, 43.1888796]}, "properties": {"osm_id": 1909672538, "osm_type": "node", "amenity": "college", "name": "IUT de Perpignan antenne de Carcassonne", "ref:UAI": "0110982H", "source": "Etablissements d'enseignement supérieur - 09/2017"}}, {"type": "Feature", "geometry": {"type": "Point", "coordinates": [2.3616568, 48.9467857]}, "properties": {"osm_id": 1922057651, "osm_type": "node", "amenity": "university", "wheelchair": "yes"}}, {"type": "Feature", "geometry": {"type": "Point", "coordinates": [-1.5750152, 47.2061731]}, "properties": {"osm_id": 1924074318, "osm_type": "node", "amenity": "university", "name": "École Atlantique de Commerce", "name:br": "Skol Atlantel ar C'henwerzh", "source:name:br": "proper translation", "url": "http://www.ecoleatlantique.com/"}}, {"type": "Feature", "geometry": {"type": "Point", "coordinates": [2.0712288, 48.8956735]}, "properties": {"osm_id": 1927028572, "osm_type": "node", "addr:city": "Saint-Germain-en-Laye", "addr:country": "FR", "addr:housenumber": "51", "addr:postcode": "78100", "addr:street": "Boulevard de la Paix", "alt_name": "École Supérieure des Métiers des Agences d'Emploi", "amenity": "college", "name": "ESMAE", "source": "cadastre-dgi-fr source : Direction Générale des Impôts - Cadastre. Mise à jour : 2012"}}, {"type": "Feature", "geometry": {"type": "Point", "coordinates": [-3.3654721, 47.7354738]}, "properties": {"osm_id": 1953623908, "osm_type": "node", "amenity": "college", "name": "École européenne supérieure d'art de Bretagne - site de Lorient", "name:br": "Skol Europat Uhel Arzoù Breizh - Lec'hienn an Oriant", "name:fr": "École européenne supérieure d'art de Bretagne - site de Lorient", "operator:type": "public", "ref:UAI": "0560865L", "short_name": "EESAB", "source": "Ministère de l'Education nationale, de la Jeunesse et de la Vie associative", "source:name:br": "proper translation"}}, {"type": "Feature", "geometry": {"type": "Point", "coordinates": [2.4323289, 48.626749]}, "properties": {"osm_id": 1958567627, "osm_type": "node", "addr:housenumber": "1", "addr:street": "Place de la Résistance", "amenity": "college", "operator:type": "public", "short_name": "ENSIIE", "source": "cadastre-dgi-fr source : Direction Générale des Impôts - Cadastre. Mise à jour : 2010", "website": "https://www.ensiie.fr/", "wikidata": "Q3578204", "wikipedia": "fr:École nationale supérieure d'informatique pour l'industrie et l'entreprise"}}, {"type": "Feature", "geometry": {"type": "Point", "coordinates": [5.4601376, 43.5142741]}, "properties": {"osm_id": 1960812241, "osm_type": "node", "amenity": "college", "name": "ADREP Formation"}}, {"type": "Feature", "geometry": {"type": "Point", "coordinates": [1.016244, 49.4434812]}, "properties": {"osm_id": 1966524924, "osm_type": "node", "amenity": "college", "name": "Institut du Développement Social", "operator:type": "private", "ref:UAI": "0762380Z", "short_name": "IDS", "source": "data.gouv.fr:Office national d'information sur les enseignements et les professions - 11/2011"}}, {"type": "Feature", "geometry": {"type": "Point", "coordinates": [1.4662052, 43.5855741]}, "properties": {"osm_id": 1969474904, "osm_type": "node", "amenity": "college", "name": "Francas midi-pyrénées", "operator:type": "private", "short_name": "FRANCAS", "source": "Ministère de l'Education nationale, de la Jeunesse et de la Vie associative"}}, {"type": "Feature", "geometry": {"type": "Point", "coordinates": [0.1328114, 49.4865501]}, "properties": {"osm_id": 1984405485, "osm_type": "node", "amenity": "college", "name": "Institut de Formation d'Educateurs de Normandie", "operator:type": "private", "ref:UAI": "0762733H", "short_name": "IFEN", "source": "Etablissements d'enseignement supérieur - 09/2017"}}, {"type": "Feature", "geometry": {"type": "Point", "coordinates": [2.272433, 48.8551541]}, "properties": {"osm_id": 1986819783, "osm_type": "node", "addr:city": "Paris", "addr:housenumber": "64", "addr:postcode": "75016", "addr:street": "Rue du Ranelagh", "amenity": "college", "name": "École de Cuisine Alain Ducasse", "name:etymology:wikidata": "Q187901", "opening_hours": "Tu-Sa 09:00-18:00", "phone": "+33 1 44 90 91 00", "website": "http://paris-ecoleducasse-studio.com"}}, {"type": "Feature", "geometry": {"type": "Point", "coordinates": [5.093429, 47.310327]}, "properties": {"osm_id": 1990739773, "osm_type": "node", "amenity": "college", "name": "Sylvia Terrade - Ecole d'esthétique et de coiffure", "operator:type": "private", "source": "data.gouv.fr:Ministère de l'Éducation nationale, de la Jeunesse et de la Vie associative - 05/2012"}}, {"type": "Feature", "geometry": {"type": "Point", "coordinates": [2.3805001, 48.8479468]}, "properties": {"osm_id": 2003328902, "osm_type": "node", "addr:city": "Paris", "addr:housenumber": "21", "addr:postcode": "75012", "addr:street": "Rue de Cîteaux", "amenity": "college", "check_date": "2025-08-08", "disused": "yes", "education": "college", "name": "École Supérieure d'Études Cinématographiques", "operator:type": "private", "ref:UAI": "0754597P", "short_name": "ESEC", "source": "Etablissements d'enseignement supérieur - 09/2017", "website": "https://www.esec.edu/", "wikidata": "Q3578424", "wikipedia": "fr:École supérieure d'études cinématographiques"}}, {"type": "Feature", "geometry": {"type": "Point", "coordinates": [5.7294418, 45.1473086]}, "properties": {"osm_id": 2010237025, "osm_type": "node", "amenity": "college", "education": "college", "name": "Institut de formation de manipulateurs d'électroradiologie médicale", "operator:type": "public", "ref:UAI": "0382669V", "short_name": "IFMEM", "source": "Etablissements d'enseignement supérieur - 09/2017"}}, {"type": "Feature", "geometry": {"type": "Point", "coordinates": [5.7263557, 45.1488685]}, "properties": {"osm_id": 2010237026, "osm_type": "node", "amenity": "college", "name": "Institut de recherche et d'action commerciale", "operator:type": "private", "short_name": "IDRAC", "source": "Ministère de l'Education nationale, de la Jeunesse et de la Vie associative"}}, {"type": "Feature", "geometry": {"type": "Point", "coordinates": [3.111322, 45.7627045]}, "properties": {"osm_id": 2017208515, "osm_type": "node", "amenity": "college", "name": "AgroParisTech", "old_name": "ENGREF", "operator:type": "public", "source": "Ministère de l'Education nationale, de la Jeunesse et de la Vie associative"}}, {"type": "Feature", "geometry": {"type": "Point", "coordinates": [3.1170496, 45.7620369]}, "properties": {"osm_id": 2017208516, "osm_type": "node", "amenity": "college", "name": "SIGMA Clermont - Pôle Chimie", "operator:type": "public", "short_name": "ENSCCF", "source": "Ministère de l'Education nationale, de la Jeunesse et de la Vie associative", "wikidata": "Q3578217"}}, {"type": "Feature", "geometry": {"type": "Point", "coordinates": [3.1085918, 45.7618641]}, "properties": {"osm_id": 2017208517, "osm_type": "node", "amenity": "university", "name": "IUT de Clermont-Ferrand", "operator:type": "public", "school:FR": "IUT", "source": "Ministère de l'Education nationale, de la Jeunesse et de la Vie associative"}}, {"type": "Feature", "geometry": {"type": "Point", "coordinates": [3.1110281, 45.7592416]}, "properties": {"osm_id": 2017208518, "osm_type": "node", "addr:housenumber": "1", "addr:street": "Rue de la Chebarde", "amenity": "college", "contact:facebook": "ISIMA.Auvergne", "contact:twitter": "isima5", "description": "Institut Supérieur d'Informatique de Modélisation et de leurs Applications", "internet_access": "wlan", "name": "Institut Supérieur d'Informatique, de Modélisation et de leurs Applications", "opening_hours": "Mo-Fr 07:30-18:30", "operator:type": "public", "phone": "+33 4 73 40 50 00", "ref:UAI": "0631883E", "short_name": "ISIMA", "source": "Ministère de l'Education nationale, de la Jeunesse et de la Vie associative", "start_date": "1993", "website": "https://www.isima.fr/", "wheelchair": "limited", "wikidata": "Q3152528", "wikipedia": "fr:Institut supérieur d'informatique, de modélisation et de leurs applications"}}, {"type": "Feature", "geometry": {"type": "Point", "coordinates": [3.1091773, 45.7607559]}, "properties": {"osm_id": 2017208519, "osm_type": "node", "addr:city": "Aubière", "addr:housenumber": "2", "addr:postcode": "63170", "addr:street": "Avenue Blaise Pascal", "amenity": "college", "check_date": "2024-04-25", "name": "Polytech' Clermont-Ferrand", "operator:type": "public", "ref:UAI": "0631383L", "source": "Ministère de l'Education nationale, de la Jeunesse et de la Vie associative", "website": "http://polytech.univ-bpclermont.fr/accueil.html", "wikidata": "Q3395833"}}, {"type": "Feature", "geometry": {"type": "Point", "coordinates": [3.1128789, 45.7610927]}, "properties": {"osm_id": 2017208520, "osm_type": "node", "amenity": "college", "check_date": "2025-02-15", "name": "Université Clermont Auvergne - UFR de sciences et technologies", "operator:type": "public", "source": "Ministère de l'Education nationale, de la Jeunesse et de la Vie associative"}}, {"type": "Feature", "geometry": {"type": "Point", "coordinates": [2.3207191, 48.8438948]}, "properties": {"osm_id": 2039633261, "osm_type": "node", "amenity": "university", "name": "AgroParisTech", "old_name": "Instiut National Agronomique Paris-Grignon", "website": "https://www.agroparistech.fr/"}}, {"type": "Feature", "geometry": {"type": "Point", "coordinates": [5.9389323, 43.1208325]}, "properties": {"osm_id": 2052464386, "osm_type": "node", "addr:city": "Toulon", "addr:postcode": "83000", "addr:street": "Place Georges Pompidou", "amenity": "college", "email": "david.brun@yncrea.fr", "name": "ISEN Toulon", "phone": "+33 4 94 03 89 59", "website": "https://www.isen-mediterranee.fr/fr/content/l-ecole_cpa8_aa11.htm"}}, {"type": "Feature", "geometry": {"type": "Point", "coordinates": [2.4406544, 49.3845154]}, "properties": {"osm_id": 2090725105, "osm_type": "node", "amenity": "university", "name": "Institut de Formation Lucien Floury", "survey:date": "2020-11-21"}}, {"type": "Feature", "geometry": {"type": "Point", "coordinates": [-0.4157891, 46.3353333]}, "properties": {"osm_id": 2107136222, "osm_type": "node", "amenity": "college", "name": "Campus des métiers Henri Denoue Niort", "source": "Ministère de l'Education nationale, de la Jeunesse et de la Vie associative"}}, {"type": "Feature", "geometry": {"type": "Point", "coordinates": [-2.7690777, 47.6596933]}, "properties": {"osm_id": 2109406666, "osm_type": "node", "alt_name": "ESPE de Vannes", "amenity": "college", "name": "Institut national supérieur du professorat et de l'éducation de Bretagne - site de Vannes", "name:br": "Ensavadur broadel uhel ar c'helennerezh ha deskadurezh Breizh - lec'hienn Gwened", "name:fr": "Institut national supérieur du professorat et de l'éducation de Bretagne - site de Vannes", "old_name": "Institut Universitaire de Formation des Maîtres", "operator:wikidata": "Q3578562", "ref:UAI": "0561659Z", "short_name": "INSPÉ", "source": "Etablissements d'enseignement supérieur - 09/2017"}}, {"type": "Feature", "geometry": {"type": "Point", "coordinates": [2.3895902, 48.8857903]}, "properties": {"osm_id": 2126271725, "osm_type": "node", "amenity": "college", "check_date": "2026-04-11", "name": "CEPROC - École Nationale Supérieure de la Charcuterie"}}, {"type": "Feature", "geometry": {"type": "Point", "coordinates": [1.1022196, 49.4386736]}, "properties": {"osm_id": 2126785213, "osm_type": "node", "addr:housenumber": "18", "amenity": "university", "name": "Form'avenir", "operator:type": "private", "phone": "+33 2 35 70 05 05", "ref:UAI": "0762917H", "source": "data.gouv.fr:Ministère de l'Éducation nationale, de la Jeunesse et de la Vie associative - 05/2012", "website": "https://www.formavenir.com/", "wheelchair": "yes"}}, {"type": "Feature", "geometry": {"type": "Point", "coordinates": [1.0881906, 49.4455255]}, "properties": {"osm_id": 2126785247, "osm_type": "node", "addr:housenumber": "52", "addr:street": "Rue Jean Lecanuet", "amenity": "college", "name": "École Internationale d'Esthétique Silvya Terrade", "operator:type": "private", "ref:FR:SIRET": "50367276800184", "ref:UAI": "0761772N", "school:FR": "lycée", "source": "data.gouv.fr:Ministère de l'Éducation nationale, de la Jeunesse et de la Vie associative - 05/2012;data.gouv.fr:Office national d'information sur les enseignements et les professions - 11/2011", "website": "www.groupe-terrade.com"}}, {"type": "Feature", "geometry": {"type": "Point", "coordinates": [1.4423047, 43.607277]}, "properties": {"osm_id": 2130192076, "osm_type": "node", "amenity": "college", "check_date": "2024-09-18", "contact:website": "https://www.ensav.fr", "name": "École nationale supérieure de l'audiovisuel", "ref:UAI": "0312512M", "short_name": "ENSAV", "source": "Etablissements d'enseignement supérieur - 09/2017", "website": "https://www.ensav.fr", "wikidata": "Q273487", "wikipedia": "fr:École supérieure d'audiovisuel"}}, {"type": "Feature", "geometry": {"type": "Point", "coordinates": [-0.571013, 44.8316899]}, "properties": {"osm_id": 2142642891, "osm_type": "node", "addr:city": "Bordeaux", "addr:postcode": "33000", "addr:street": "Rue Broca", "amenity": "university", "name": "Broca 2", "wheelchair": "no", "wheelchair:description": "Toilettes non accessibles aux personnes en fauteuil roulant", "wikidata": "Q13344"}}, {"type": "Feature", "geometry": {"type": "Point", "coordinates": [2.371336, 48.8457468]}, "properties": {"osm_id": 2144646146, "osm_type": "node", "amenity": "college", "check_date": "2026-03-01", "name": "em lyon business school"}}, {"type": "Feature", "geometry": {"type": "Point", "coordinates": [2.397756, 48.854933]}, "properties": {"osm_id": 2149820831, "osm_type": "node", "addr:city": "Paris", "addr:housenumber": "75", "addr:postcode": "75020", "addr:street": "Rue Alexandre Dumas", "amenity": "university", "community": "SDB", "community:fr": "Salésiens", "denomination": "catholic", "education": "university", "name": "Don Bosco International Media Academy", "operator": "Don Bosco Intuition Entertainers Media", "operator:type": "private", "religion": "christian", "website": "https://dbima.eu/"}}, {"type": "Feature", "geometry": {"type": "Point", "coordinates": [5.5759509, 45.3812004]}, "properties": {"osm_id": 2173137912, "osm_type": "node", "amenity": "college", "contact:email": "info@creps-rhone-alpes.fr", "contact:fax": "+33 4 76 05 99 41", "contact:phone": "+33 4 76 35 67 84", "name": "Antenne Service Formation de Voiron du Creps Sud-Est site Rhône-Alpes", "operator:type": "public", "short_name": "Creps", "survey:date": "2013"}}, {"type": "Feature", "geometry": {"type": "Point", "coordinates": [6.1625388, 47.19699]}, "properties": {"osm_id": 2204716086, "osm_type": "node", "amenity": "college", "check_date": "2025-08-19", "name": "ENIL Mamirolle", "operator:type": "public", "source": "Ministère de l'Education nationale, de la Jeunesse et de la Vie associative"}}, {"type": "Feature", "geometry": {"type": "Point", "coordinates": [4.875521, 45.7325016]}, "properties": {"osm_id": 2211087435, "osm_type": "node", "amenity": "college", "college": "private", "contact:facebook": "https://www.facebook.com/cfai.iri.lyon/", "contact:instagram": "https://www.instagram.com/iri_cfailyon/", "contact:linkedin": "http://www.linkedin.com/company/institut-des-ressources-industrielles", "contact:youtube": "https://www.youtube.com/channel/UCNATbuJlM9w3fiE0vJvv-BQ", "fax": "+33 4 78 77 05 25", "name": "Institut des Ressources Industrielles", "old_name": "AFPI", "operator:type": "private", "phone": "+33 4 78 77 05 00", "website": "https://www.iri-lyon.com/"}}, {"type": "Feature", "geometry": {"type": "Point", "coordinates": [5.0581477, 45.3317758]}, "properties": {"osm_id": 2216033976, "osm_type": "node", "amenity": "college", "email": "contact@afpi-cfai38.com", "fax": "+33 4 74 79 07 91", "name": "CFAI du Dauphiné", "operator:type": "private", "phone": "+33 4 74 79 07 90", "source": "data.gouv.fr:Office national d'information sur les enseignements et les professions - 11/2011"}}, {"type": "Feature", "geometry": {"type": "Point", "coordinates": [1.5039689, 43.5483007]}, "properties": {"osm_id": 2281813421, "osm_type": "node", "addr:city": "Labège", "addr:housenumber": "373", "addr:postcode": "31670", "addr:street": "Avenue de l'Occitanie", "alt_name": "École Supérieure de Commmunication et de Publicité", "amenity": "college", "education": "college", "email": "toulouse@iscom.fr", "internet_access": "yes", "name": "ISCOM Toulouse", "operator": "Eduservices", "operator:type": "private", "phone": "+33 5 61 39 10 99", "website": "https://www.iscom.fr/fr/iscom-toulouse", "wikidata": "Q136354513"}}, {"type": "Feature", "geometry": {"type": "Point", "coordinates": [4.3866757, 45.4530632]}, "properties": {"osm_id": 2297938925, "osm_type": "node", "amenity": "university", "name": "Pôle optique et vision"}}, {"type": "Feature", "geometry": {"type": "Point", "coordinates": [2.2202375, 48.8960252]}, "properties": {"osm_id": 2304085795, "osm_type": "node", "addr:city": "Nanterre", "addr:housenumber": "47", "addr:postcode": "92000", "addr:street": "Boulevard de Pesaro", "amenity": "college", "name": "Pôle Léonard de Vinci - Campus de l’Arche", "operator": "Pôle Léonard de Vinci", "operator:type": "private", "website": "https://www.devinci.fr/"}}, {"type": "Feature", "geometry": {"type": "Point", "coordinates": [4.8096228, 44.1371448]}, "properties": {"osm_id": 2306374413, "osm_type": "node", "amenity": "college", "name": "Greta Nord", "source": "survey 2013"}}, {"type": "Feature", "geometry": {"type": "Point", "coordinates": [1.1111089, 49.4765858]}, "properties": {"osm_id": 2319501597, "osm_type": "node", "addr:city": "Bois-Guillaume", "amenity": "college", "name": "Institut Régional de Formation Sanitaire et Sociale - Croix-Rouge", "operator:type": "private", "ref:UAI": "0762637D", "short_name": "IRFSS", "source": "data.gouv.fr:Office national d'information sur les enseignements et les professions - 11/2011"}}, {"type": "Feature", "geometry": {"type": "Point", "coordinates": [1.8786372, 48.7706205]}, "properties": {"osm_id": 2319568900, "osm_type": "node", "amenity": "college", "name": "École pratique de tourisme AFT IFTIM", "operator:type": "private", "short_name": "EPT", "source": "data.gouv.fr:Office national d'information sur les enseignements et les professions - 11/2011"}}, {"type": "Feature", "geometry": {"type": "Point", "coordinates": [1.8779765, 48.7708751]}, "properties": {"osm_id": 2319571113, "osm_type": "node", "addr:housenumber": "43", "addr:street": "Rue du Général de Gaulle", "amenity": "college", "name": "CFA des métiers du transport et de la logistique", "operator:type": "private", "short_name": "CFATL", "source": "data.gouv.fr:Office national d'information sur les enseignements et les professions - 11/2011"}}, {"type": "Feature", "geometry": {"type": "Point", "coordinates": [5.3418478, 43.3602739]}, "properties": {"osm_id": 2324486892, "osm_type": "node", "addr:city": "Marseille", "addr:housenumber": "368", "amenity": "college", "description": "Centre de formation", "education": "college", "name": "Institut supérieur du transport et de la logistique Internationale", "name:oc": "Institut Superior dau Transpòrt e de la Logistica Internacionala", "operator:type": "private", "personnel:count": "EF11-50", "ref:UAI": "0133501K", "short_name": "ISTELI", "source": "data.gouv.fr:Office national d'information sur les enseignements et les professions - 11/2011;Etablissements d'enseignement supérieur - 09/2017", "source:name:oc": "ieo-bdtopoc", "website": "https://www.aft-dev.com"}}, {"type": "Feature", "geometry": {"type": "Point", "coordinates": [-1.5490329, 47.1944885]}, "properties": {"osm_id": 2326197499, "osm_type": "node", "amenity": "college", "name": "École de la Croix-Rouge française IFSI 44", "name:br": "Skol Kroaz-Ruz Frañs ESPK 44", "operator": "Croix-Rouge française", "operator:type": "private", "operator:wikidata": "Q3003244", "ref:FR:FINESS": "440043511", "source": "data.gouv.fr:Office national d'information sur les enseignements et les professions - 11/2011", "type:FR:FINESS": "300"}}, {"type": "Feature", "geometry": {"type": "Point", "coordinates": [-4.1104209, 47.9956922]}, "properties": {"osm_id": 2327187892, "osm_type": "node", "addr:city": "Quimper", "addr:housenumber": "8", "addr:postcode": "29000", "addr:street": "Esplanade François Mitterrand", "amenity": "college", "name": "EESAB - École Européenne Supérieure d'Art de Bretagne", "name:br": "Skol europat uhel Arzoù Breizh", "name:fr": "EESAB - École Européenne Supérieure d'Art de Bretagne", "operator:wikidata": "Q3577992", "phone": "+33 2 98556157", "ref:UAI": "0292325V", "short_name": "EESAB", "source": "Etablissements d'enseignement supérieur - 09/2017", "source:name:br": "ofis publik ar brezhoneg", "website": "http://www.esa-quimper.fr"}}, {"type": "Feature", "geometry": {"type": "Point", "coordinates": [2.3147013, 48.7855465]}, "properties": {"osm_id": 2329180706, "osm_type": "node", "amenity": "college", "name": "EPF école d'ingénieurs généralistes", "operator:type": "private", "ref:UAI": "0920674H", "short_name": "EPF", "source": "data.gouv.fr:Office national d'information sur les enseignements et les professions - 11/2011", "wikidata": "Q3046044", "wikipedia": "fr:EPF - École d'ingénieurs"}}, {"type": "Feature", "geometry": {"type": "Point", "coordinates": [-1.556177, 47.2187438]}, "properties": {"osm_id": 2329208083, "osm_type": "node", "amenity": "college", "brand": "ISEFAC Bachelor", "brand:website": "https://www.isefac-bachelor.fr", "check_date": "2024-09-14", "contact:email": "nantes@isefac-bachelor.fr", "contact:facebook": "https://www.facebook.com/Isefac.Bachelor.Nantes", "contact:phone": "+33 2 40 33 30 83", "contact:website": "https://www.isefac-bachelor.fr/campus/nantes", "description": "Institut supérieur européen de formation par l'action", "name": "ISEFAC Bachelor", "operator": "Groupe Ionis", "operator:type": "private", "ref:UAI": "0442757H", "source": "survey", "wheelchair": "no"}}, {"type": "Feature", "geometry": {"type": "Point", "coordinates": [-0.5575254, 44.8452525]}, "properties": {"osm_id": 2329484633, "osm_type": "node", "addr:city": "Bordeaux", "addr:housenumber": "35", "addr:postcode": "33100", "addr:street": "Avenue Abadie", "amenity": "college", "internet_access": "wlan", "name": "IAE Bordeaux", "operator": "Université de Bordeaux", "operator:type": "public", "source": "data.gouv.fr:Office national d'information sur les enseignements et les professions - 11/2011", "website": "https://www.iae-bordeaux.fr/"}}, {"type": "Feature", "geometry": {"type": "Point", "coordinates": [-0.5577651, 44.8447739]}, "properties": {"osm_id": 2329484634, "osm_type": "node", "amenity": "university", "check_date": "2024-11-30", "name": "IUT", "short_name": "IAE", "source": "data.gouv.fr:Office national d'information sur les enseignements et les professions - 11/2011"}}, {"type": "Feature", "geometry": {"type": "Point", "coordinates": [-0.5575342, 44.8449778]}, "properties": {"osm_id": 2329484635, "osm_type": "node", "addr:city": "Bordeaux", "addr:housenumber": "35", "addr:postcode": "33072", "addr:street": "Avenue Abadie", "amenity": "university", "architect": "Anne Lacaton, Jean-Philippe Vassal", "internet_access": "yes", "name": "Université de Bordeaux - pôle universitaire des sciences de gestion", "operator": "Université de Bordeaux", "operator:type": "public", "owner:wikidata": "Q13344", "ref:FR:NAF": "85.42Z", "ref:FR:SIREN": "130018351", "ref:FR:SIRET": "13001835100176", "ref:vatin": "FR23130018351", "source": "data.gouv.fr:Office national d'information sur les enseignements et les professions - 11/2011", "start_date": "2014-01-01", "website": "https://www.u-bordeaux.fr/", "wikidata": "Q3412221", "wikipedia": "fr:Pôle universitaire des sciences de gestion de Bordeaux"}}, {"type": "Feature", "geometry": {"type": "Point", "coordinates": [2.7766837, 50.2820426]}, "properties": {"osm_id": 2331800241, "osm_type": "node", "addr:city": "Arras", "addr:housenumber": "23", "addr:postcode": "62000", "addr:street": "Rue du Dépôt", "amenity": "college", "description": "Établissement d'enseignement supérieur privée spécialisée dans les métiers de l'informatique, de la cybersécurité et du développement logiciel.", "internet_access": "yes", "internet_access:fee": "customers", "name": "EPSI - L'école d'ingénierie informatique", "opening_hours": "Mo-Sa 08:00-18:00", "operator": "Groupe Compétences et Développement", "operator:type": "private", "phone": "+33 3 56 77 00 53", "ref:FR:SIRET": "393 504 816 00231", "ref:UAI": "0624549H", "short_name": "EPSI", "source": "data.gouv.fr:Office national d'information sur les enseignements et les professions - 11/2011", "website": "https://www.epsi.fr/", "wheelchair": "no"}}, {"type": "Feature", "geometry": {"type": "Point", "coordinates": [-1.0788299, 49.1010829]}, "properties": {"osm_id": 2343244038, "osm_type": "node", "amenity": "university", "name": "esix agro A"}}, {"type": "Feature", "geometry": {"type": "Point", "coordinates": [-1.0781218, 49.101831]}, "properties": {"osm_id": 2343244040, "osm_type": "node", "amenity": "university", "name": "École Nationale d'Industrie Laitière"}}, {"type": "Feature", "geometry": {"type": "Point", "coordinates": [5.7213189, 45.1907263]}, "properties": {"osm_id": 2344376500, "osm_type": "node", "amenity": "college", "name": "Université inter-âges du Dauphiné", "short_name": "UIAD", "source": "survey"}}, {"type": "Feature", "geometry": {"type": "Point", "coordinates": [5.7211018, 45.1910287]}, "properties": {"osm_id": 2344376502, "osm_type": "node", "amenity": "college", "name": "Wesford", "source": "survey"}}, {"type": "Feature", "geometry": {"type": "Point", "coordinates": [7.7457105, 48.5756208]}, "properties": {"osm_id": 2349974653, "osm_type": "node", "amenity": "university", "check_date": "2024-08-11", "contact:country": "FR", "contact:email": "epidemio@unistra.fr", "contact:phone": "+33 3 68 85 31 95", "contact:website": "http://epidemio.unistra.fr/", "name": "Laboratoire d'Épidémiologie et de Santé Publique"}}, {"type": "Feature", "geometry": {"type": "Point", "coordinates": [2.3687532, 48.8868218]}, "properties": {"osm_id": 2350539212, "osm_type": "node", "addr:city": "Paris", "addr:housenumber": "27", "addr:postcode": "75019", "addr:street": "Rue du Maroc", "amenity": "college", "name": "École de la 2ᵉ chance de Paris", "operator": "École de la Deuxième Chance", "operator:type": "private", "operator:wikidata": "Q3577882", "website": "https://e2c-paris.fr/"}}, {"type": "Feature", "geometry": {"type": "Point", "coordinates": [5.7232072, 45.1923077]}, "properties": {"osm_id": 2360290329, "osm_type": "node", "addr:city": "Grenoble", "addr:housenumber": "2", "addr:postcode": "38000", "addr:street": "Square de Belmont", "amenity": "college", "name": "Université inter-âges du Dauphiné", "ref:FR:SIRET": "31285672700036", "short_name": "UIAD", "source": "survey"}}, {"type": "Feature", "geometry": {"type": "Point", "coordinates": [7.7446762, 48.5770554]}, "properties": {"osm_id": 2367714253, "osm_type": "node", "amenity": "university", "check_date": "2024-09-05", "name": "Faculté de Chirurgie Dentaire", "name:de": "Fakultät für Zahnchirurgie"}}, {"type": "Feature", "geometry": {"type": "Point", "coordinates": [1.4480523, 43.6091791]}, "properties": {"osm_id": 2371705585, "osm_type": "node", "addr:city": "Toulouse", "addr:housenumber": "19", "addr:postcode": "31000", "addr:street": "Rue de Bayard", "amenity": "college", "check_date": "2025-05-02", "name": "Institut Supérieur d'Optique", "operator:type": "private", "phone": "+33534455150", "ref:UAI": "0312563T", "short_name": "ISO", "source": "data.gouv.fr:Office national d'information sur les enseignements et les professions - 11/2011", "website": "https://www.iso.fr/"}}, {"type": "Feature", "geometry": {"type": "Point", "coordinates": [2.2332909, 48.9492854]}, "properties": {"osm_id": 2381214868, "osm_type": "node", "addr:city": "Argenteuil", "addr:housename": "IUT", "addr:housenumber": "95/97", "addr:postcode": "95100", "addr:street": "Rue Valère Collas", "amenity": "university", "name": "IUT de Cergy-Pontoise (site Argenteuil)", "phone": "+33 1 39 98 34 00", "ref:UAI": "0951946Z", "source": "Onisep - Idéo-Structures d'enseignement supérieur - 07/2025"}}, {"type": "Feature", "geometry": {"type": "Point", "coordinates": [2.37762, 48.9749152]}, "properties": {"osm_id": 2381244829, "osm_type": "node", "addr:city": "Sarcelles", "addr:housename": "Université de Cergy-Pontoise - IUT", "addr:housenumber": "34", "addr:postcode": "95200", "addr:street": "Boulevard Henri Bergson", "amenity": "university", "name": "Université de Cergy-Pontoise site de Sarcelles", "phone": "+33 1 34 38 26 00", "ref:UAI": "0951985S", "source": "Université de Cergy-Pontoise", "website": "http://www.iut.u-cergy.fr/"}}, {"type": "Feature", "geometry": {"type": "Point", "coordinates": [2.3072821, 48.7350851]}, "properties": {"osm_id": 2381301533, "osm_type": "node", "addr:city": "Antony", "addr:housename": "Université de Cergy-Pontoise", "addr:postcode": "92160", "addr:street": "Avenue Léon Jouhaux", "amenity": "college", "check_date": "2026-04-11", "contact:housenumber": "26", "name": "Institut national supérieur du professorat et de l'éducation de Versailles (site Antony)", "ref:UAI": "0921705D", "short_name": "INSPÉ (ex ESPÉ)", "source": "Etablissements d'enseignement supérieur - 09/2017"}}, {"type": "Feature", "geometry": {"type": "Point", "coordinates": [5.3803925, 43.300786]}, "properties": {"osm_id": 2383516131, "osm_type": "node", "amenity": "college", "contact:housenumber": "31", "contact:street": "boulevard d'Athènes", "name": "École nationale supérieure du paysage site de Marseille", "name:oc": "Escòla Nacionala Superiora dau Paisatge", "ref:UAI": "0133968T", "short_name": "ENSP", "source": "Etablissements d'enseignement supérieur - 09/2017", "source:name:oc": "ieo-bdtopoc", "website": "https://www.ecole-paysage.fr/site/ecole_fr/acces_marseille.htm"}}, {"type": "Feature", "geometry": {"type": "Point", "coordinates": [4.0770119, 48.272011]}, "properties": {"osm_id": 2386196354, "osm_type": "node", "amenity": "college", "name": "ADPS Santé", "note": "Campus Marie Curie Groupe ESC Troyes", "operator:type": "private", "short_name": "ADPS", "source": "data.gouv.fr:Office national d'information sur les enseignements et les professions - 11/2011"}}, {"type": "Feature", "geometry": {"type": "Point", "coordinates": [3.0474331, 50.6352746]}, "properties": {"osm_id": 2389887183, "osm_type": "node", "addr:city": "Lille", "addr:street": "Rue de Solferino", "amenity": "college", "name": "Centre régional de formation des professionnels de l'enfance", "operator:type": "private", "ref:UAI": "0593206P", "short_name": "CRFPE", "source": "Etablissements d'enseignement supérieur - 09/2017", "wheelchair": "yes"}}, {"type": "Feature", "geometry": {"type": "Point", "coordinates": [4.0847955, 48.3021166]}, "properties": {"osm_id": 2391719219, "osm_type": "node", "addr:housenumber": "10", "addr:street": "Rue Saint-Martin-Ès-Aires", "amenity": "university", "check_date": "2025-10-16", "email": "contact@iump.fr", "name": "Institut Universitaire des Métiers et du Patrimoine", "phone": "+33 3 25 80 74 09", "source": "cadastre-dgi-fr source : Direction Générale des Impôts - Cadastre. Mise à jour : 2013", "website": "https://btpcfa-grandest.fr/iump/"}}, {"type": "Feature", "geometry": {"type": "Point", "coordinates": [4.0853274, 48.3023381]}, "properties": {"osm_id": 2391719253, "osm_type": "node", "addr:housenumber": "13", "addr:street": "Boulevard Henri Barbusse", "amenity": "college", "email": "design@yschools.fr", "name": "École Supérieure de Design", "note": "Campus Saint-Martin Y Schools", "operator:type": "private", "phone": "+33 3 25 80 00 28", "ref:UAI": "0100744E", "source": "Onisep - Idéo-Structures d'enseignement supérieur - 07/2025", "website": "https://ecolededesign.fr/"}}, {"type": "Feature", "geometry": {"type": "Point", "coordinates": [4.8362621, 45.7280057]}, "properties": {"osm_id": 2392516856, "osm_type": "node", "amenity": "university", "check_date": "2024-03-23", "name": "Institut supérieur d'agriculture et d'agroalimentaire Rhône-Alpes", "operator:type": "private", "short_name": "ISARA Lyon", "source": "data.gouv.fr:Office national d'information sur les enseignements et les professions - 11/2011"}}, {"type": "Feature", "geometry": {"type": "Point", "coordinates": [6.1762326, 48.6936842]}, "properties": {"osm_id": 2393674253, "osm_type": "node", "amenity": "university", "contact:housenumber": "15", "contact:phone": "+33 3 54504580", "contact:street": "Place Carnot", "contact:website": "http://ceu.univ-lorraine.fr/", "name": "Centre Européen Universitaire", "operator": "Université de Lorraine", "operator:type": "public", "short_name": "CEU", "wheelchair": "no"}}, {"type": "Feature", "geometry": {"type": "Point", "coordinates": [6.1754461, 48.6934791]}, "properties": {"osm_id": 2393674254, "osm_type": "node", "amenity": "university", "contact:housenumber": "4", "contact:phone": "+33 3 54504343", "contact:street": "Rue de la Ravinelle", "name": "Institut de Préparation à l'Administration Générale", "operator": "Université de Lorraine", "operator:type": "public", "short_name": "IPAG", "website": "https://ipag.univ-lorraine.fr/"}}, {"type": "Feature", "geometry": {"type": "Point", "coordinates": [6.2306804, 49.0944896]}, "properties": {"osm_id": 2396600680, "osm_type": "node", "amenity": "university", "name": "Institut Supérieur Franco-allemand de Techniques, d'Économies et de Sciences", "operator": "Université de Lorraine", "short_name": "ISFATES", "website": "https://www.dfhi-isfates.eu/de/"}}, {"type": "Feature", "geometry": {"type": "Point", "coordinates": [-1.6307187, 49.6428022]}, "properties": {"osm_id": 2401543712, "osm_type": "node", "amenity": "university", "name": "Société nationale des sciences naturelles et mathématiques de Cherbourg", "source": "www.societesciencescherbourg.org/"}}, {"type": "Feature", "geometry": {"type": "Point", "coordinates": [2.9928506, 50.6503915]}, "properties": {"osm_id": 2403667313, "osm_type": "node", "amenity": "college", "name": "CFA public agricole du Nord - Antenne de Lomme", "operator:type": "public", "ref:UAI": "0596316V", "source": "data.gouv.fr:Office national d'information sur les enseignements et les professions - 11/2011"}}, {"type": "Feature", "geometry": {"type": "Point", "coordinates": [5.3905614, 43.3000502]}, "properties": {"osm_id": 2407036265, "osm_type": "node", "amenity": "college", "name": "Institut supérieur de rééducation psychomotrice", "name:oc": "Institut Superior de Reeducacion Psicomotriça", "operator:type": "private", "short_name": "ISRP", "source": "data.gouv.fr:Office national d'information sur les enseignements et les professions - 11/2011", "source:name:oc": "ieo-bdtopoc", "website": "https://marseille.isrp.fr/"}}, {"type": "Feature", "geometry": {"type": "Point", "coordinates": [0.6733355, 47.3938742]}, "properties": {"osm_id": 2420233934, "osm_type": "node", "addr:street": "Boulevard Preuilly", "alt_name": "Association de Formation Professionnelle Polytechnique de Touraine", "amenity": "college", "check_date": "2024-05-31", "name": "AFPP", "source": "Survey"}}, {"type": "Feature", "geometry": {"type": "Point", "coordinates": [3.1222263, 46.9851341]}, "properties": {"osm_id": 2429421443, "osm_type": "node", "amenity": "college", "name": "CFA de l'industrie de la Nièvre (CFAI)", "operator:type": "private", "source": "data.gouv.fr:Office national d'information sur les enseignements et les professions - 11/2011"}}, {"type": "Feature", "geometry": {"type": "Point", "coordinates": [3.1670078, 46.9941247]}, "properties": {"osm_id": 2429421458, "osm_type": "node", "amenity": "college", "name": "Conservatoire à rayonnement départemental de Nevers", "short_name": "CRD", "source": "data.gouv.fr:Office national d'information sur les enseignements et les professions - 11/2011"}}, {"type": "Feature", "geometry": {"type": "Point", "coordinates": [7.0730586, 49.1156072]}, "properties": {"osm_id": 2435326337, "osm_type": "node", "addr:city": "Sarreguemines", "addr:postcode": "57200", "addr:street": "Place Jeanne d'Arc", "alt_name": "INSPÉ de Lorraine - Antenne de Sarreguemines", "amenity": "university", "name": "Institut National Supérieur du Professorat et de l’Éducation", "official_name": "Institut National Supérieur du Professorat et de l’Éducation - Académie de Nancy-Metz", "old_name": "ESPÉ - IUFM", "operator": "Université de Lorraine", "operator:type": "public", "ref:UAI": "0573689A", "short_name": "INSPÉ", "source": "Ministère de l'Éducation nationale", "source:date": "05 2020", "website": "http://inspe.univ-lorraine.fr/"}}, {"type": "Feature", "geometry": {"type": "Point", "coordinates": [-0.3219336, 45.6905944]}, "properties": {"osm_id": 2435551478, "osm_type": "node", "amenity": "college", "name": "Institut consulaire de formation Cognac CFA CCI 16 Cognac", "short_name": "ICF-CFA CCI 16", "source": "data.gouv.fr:Office national d'information sur les enseignements et les professions - 11/2011"}}, {"type": "Feature", "geometry": {"type": "Point", "coordinates": [1.6944394, 46.8123187]}, "properties": {"osm_id": 2441595599, "osm_type": "node", "amenity": "college", "description": "Organisme de formation - Centre de formation d'apprentis de la CCI de l'Indre", "name": "CCI Campus Centre", "operator": "CCI Indre", "ref:UAI": "0360777Z", "short_name": "CFSA", "source": "data.gouv.fr:Office national d'information sur les enseignements et les professions - 11/2011", "website": "https://www.campus-centre.fr/"}}, {"type": "Feature", "geometry": {"type": "Point", "coordinates": [1.6959633, 46.814446]}, "properties": {"osm_id": 2441595605, "osm_type": "node", "amenity": "college", "name": "École municipale des beaux-arts de Châteauroux - Collège Marcel Duchamp", "ref:UAI": "0360804D", "short_name": "EBACM", "source": "data.gouv.fr:Office national d'information sur les enseignements et les professions - 11/2011"}}, {"type": "Feature", "geometry": {"type": "Point", "coordinates": [4.3878329, 45.4521584]}, "properties": {"osm_id": 2454275455, "osm_type": "node", "amenity": "college", "check_date": "2024-04-14", "name": "Télécom Saint-Étienne", "ref:UAI": "0422026Z", "source": "Etablissements d'enseignement supérieur - 09/2017", "website": "https://www.telecom-st-etienne.fr/", "wikidata": "Q3517283"}}, {"type": "Feature", "geometry": {"type": "Point", "coordinates": [-1.4275088, 46.6758842]}, "properties": {"osm_id": 2460763204, "osm_type": "node", "amenity": "college", "contact:city": "La Roche-sur-Yon", "contact:housenumber": "28", "contact:postcode": "85000", "contact:street": "boulevard d'Angleterre", "name": "École de gestion et de commerce de Vendée", "operator:type": "private", "ref:UAI": "0851465F", "short_name": "EGC VENDEE", "source": "Etablissements d'enseignement supérieur - 09/2017"}}, {"type": "Feature", "geometry": {"type": "Point", "coordinates": [5.3922609, 43.2448971]}, "properties": {"osm_id": 2468892674, "osm_type": "node", "amenity": "college", "name": "CFA de l'hôtellerie et de l'alimentation", "name:oc": "CFA de l'Ostalariá e de l'Alimentacion", "source": "data.gouv.fr:Office national d'information sur les enseignements et les professions - 11/2011", "source:name:oc": "ieo-bdtopoc", "website": "https://www.lyc-hotelier.ac-aix-marseille.fr/"}}, {"type": "Feature", "geometry": {"type": "Point", "coordinates": [2.0029025, 46.948854]}, "properties": {"osm_id": 2469918786, "osm_type": "node", "amenity": "university", "contact:fax": "+33254030015", "contact:phone": "+33254035903", "name": "Institut Universitaire de Technologie l'Indre", "operator": "Université d'Orléans", "ref:UAI": "0360775X", "school:FR": "IUT", "short_name": "IUT d'Issoudun", "source": "data.gouv.fr:Office national d'information sur les enseignements et les professions - 11/2011"}}, {"type": "Feature", "geometry": {"type": "Point", "coordinates": [6.1987295, 48.6869927]}, "properties": {"osm_id": 2470472676, "osm_type": "node", "amenity": "college", "name": "Institut de Formation en Ergothérapie", "operator:type": "private", "short_name": "IFE", "source": "survey", "toilets:wheelchair": "yes", "wheelchair": "yes"}}, {"type": "Feature", "geometry": {"type": "Point", "coordinates": [2.4160856, 47.0821624]}, "properties": {"osm_id": 2471053373, "osm_type": "node", "alt_name": "INSA Centre Val de Loire - Campus de Bourges", "amenity": "college", "name": "Institut National des Sciences Appliquées Centre Val de Loire", "old_name": "ENSI Bourges - Ecole nationale supérieure d'ingénieurs de Bourges", "ref:UAI": "0180910S", "short_name": "INSA CVL", "source": "data.gouv.fr:Office national d'information sur les enseignements et les professions - 11/2011", "wikidata": "Q3578205", "wikipedia": "fr:École nationale supérieure d'ingénieurs de Bourges"}}, {"type": "Feature", "geometry": {"type": "Point", "coordinates": [5.3751182, 43.3025111]}, "properties": {"osm_id": 2473207302, "osm_type": "node", "addr:city": "Marseille", "addr:country": "FR", "addr:housenumber": "1", "addr:postcode": "13001", "addr:street": "Place Jules Guesde", "addr:street:oc": "Plaça Juli Guesde", "amenity": "college", "email": "marseille@epitech.eu", "name": "Epitech Marseille", "name:oc": "Epitech Marselha", "operator:type": "private", "phone": "+33 4 84 89 13 54", "ref:UAI": "0133999B", "short_name": "EPITECH", "source": "data.gouv.fr:Office national d'information sur les enseignements et les professions - 11/2011", "source:name:oc": "ieo-bdtopoc", "website": "https://www.epitech.eu/ecole-informatique-marseille/"}}, {"type": "Feature", "geometry": {"type": "Point", "coordinates": [7.0524721, 43.6235327]}, "properties": {"osm_id": 2473460958, "osm_type": "node", "addr:city": "Valbonne", "addr:housename": "Centre Pastoral Paul VI", "addr:postcode": "06560", "addr:street": "Avenue Georges Pompidou", "amenity": "college", "name": "Institut supérieur de théologie Nice Sophia Antipolis", "operator:type": "private", "source": "data.gouv.fr:Office national d'information sur les enseignements et les professions - 11/2011"}}, {"type": "Feature", "geometry": {"type": "Point", "coordinates": [4.8383885, 44.2900145]}, "properties": {"osm_id": 2473598076, "osm_type": "node", "amenity": "college", "name": "Université du vin", "operator:type": "private", "ref:UAI": "0261300X", "short_name": "UDV", "source": "data.gouv.fr:Office national d'information sur les enseignements et les professions - 11/2011"}}, {"type": "Feature", "geometry": {"type": "Point", "coordinates": [-0.5565219, 44.8399265]}, "properties": {"osm_id": 2479279010, "osm_type": "node", "addr:city": "Bordeaux", "addr:housenumber": "59", "addr:postcode": "33100", "addr:street": "Rue de la Benauge", "amenity": "university", "contact:email": "contact.bordeaux@ecoles-conde.com", "contact:phone": "+33 5 57 54 02 00", "contact:website": "https://ecoles-conde.com/centre/bordeaux/", "name": "École de Condé", "name:etymology:wikidata": "Q895184", "operator:type": "private", "ref:FR:NAF": "85.42Z", "ref:FR:SIREN": "423349125", "ref:FR:SIRET": "42334912500124", "ref:UAI": "0332918T", "source": "Communauté Urbaine de Bordeaux - 09/2013;local knowledge", "survey:date": "2024-01-02"}}, {"type": "Feature", "geometry": {"type": "Point", "coordinates": [-0.5612542, 44.8407952]}, "properties": {"osm_id": 2483663921, "osm_type": "node", "addr:city": "Bordeaux", "addr:housenumber": "4", "addr:postcode": "33100", "addr:street": "Quai des Queyries", "amenity": "college", "description": "L’ISCOM Bordeaux est situé au cœur de la ville. Les formations sont disponibles en initiale et en alternance, sur des parcours de 2, 3 ou 5 ans, et délivrent des titres certifiés RNCP, préparant ainsi les étudiants à une insertion professionnelle rapide.", "education": "college", "name": "ISCOM Bordeaux", "source": "Communauté Urbaine de Bordeaux - 09/2013", "website": "https://www.iscom.fr/fr/iscom-bordeaux"}}, {"type": "Feature", "geometry": {"type": "Point", "coordinates": [2.3776865, 48.8624938]}, "properties": {"osm_id": 2486639161, "osm_type": "node", "addr:city": "Paris", "addr:housenumber": "25", "addr:postcode": "75011", "addr:street": "Rue Saint-Ambroise", "amenity": "college", "name": "École supérieure de gestion et commerce international", "operator:type": "private", "ref:UAI": "0754725D", "short_name": "ESGCI", "source": "Etablissements d'enseignement supérieur - 09/2017"}}, {"type": "Feature", "geometry": {"type": "Point", "coordinates": [6.1351854, 48.6779653]}, "properties": {"osm_id": 2487101575, "osm_type": "node", "amenity": "college", "contact:email": "ifsi@cpn-laxou.com", "contact:fax": "+33 3 83 92 53 01", "contact:housenumber": "1", "contact:phone": "+33 3 83 92 51 51", "contact:street": "Rue du Docteur Archambault", "contact:website": "http://www.cpn-laxou.com/-IFSI-.html", "name": "Institut de formation en soins infirmiers du centre psychothérapique de Nancy", "ref:UAI": "0542018A", "short_name": "IFSI", "source": "data.gouv.fr:Office national d'information sur les enseignements et les professions - 11/2011;survey;local knowledge"}}, {"type": "Feature", "geometry": {"type": "Point", "coordinates": [-0.5662241, 44.8541206]}, "properties": {"osm_id": 2501425338, "osm_type": "node", "addr:housenumber": "89", "amenity": "college", "internet_access": "yes", "internet_access:fee": "customers", "name": "CESACOM", "source": "Communauté Urbaine de Bordeaux - 09/2013", "website": "www.cesacom.fr", "wheelchair": "yes"}}, {"type": "Feature", "geometry": {"type": "Point", "coordinates": [-0.574952, 44.8535032]}, "properties": {"osm_id": 2501563526, "osm_type": "node", "addr:housenumber": "85", "addr:street": "Rue du Jardin Public", "amenity": "college", "email": "bordeaux.bm@isg.fr", "name": "ISG Bordeaux", "phone": "+33 5 57 87 72 25", "short_name": "ISG", "website": "https://www.isg.fr/"}}, {"type": "Feature", "geometry": {"type": "Point", "coordinates": [3.8323873, 43.6385183]}, "properties": {"osm_id": 2504151332, "osm_type": "node", "amenity": "college", "fixme": "ref UAI pour les formations de 2nd degré", "name": "ESICAD", "ref:UAI": "0341820U", "source": "cadastre-dgi-fr source : Direction Générale des Impôts - Cadastre. Mise à jour : 2013"}}, {"type": "Feature", "geometry": {"type": "Point", "coordinates": [3.8322665, 43.6385377]}, "properties": {"osm_id": 2504151334, "osm_type": "node", "amenity": "college", "name": "ISCOM", "source": "cadastre-dgi-fr source : Direction Générale des Impôts - Cadastre. Mise à jour : 2013"}}, {"type": "Feature", "geometry": {"type": "Point", "coordinates": [3.832427, 43.6384454]}, "properties": {"osm_id": 2504151335, "osm_type": "node", "amenity": "college", "name": "Mercure Academy", "source": "cadastre-dgi-fr source : Direction Générale des Impôts - Cadastre. Mise à jour : 2013"}}, {"type": "Feature", "geometry": {"type": "Point", "coordinates": [-1.0257344, 43.3276762]}, "properties": {"osm_id": 2510913499, "osm_type": "node", "amenity": "college", "name": "Institut Jean Errecart", "website": "https://www.lycee-errecart.com/"}}, {"type": "Feature", "geometry": {"type": "Point", "coordinates": [1.2556065, 45.829267]}, "properties": {"osm_id": 2512173565, "osm_type": "node", "amenity": "college", "name": "Beauté coiffure formation"}}, {"type": "Feature", "geometry": {"type": "Point", "coordinates": [4.8093903, 43.9468423]}, "properties": {"osm_id": 2512545453, "osm_type": "node", "amenity": "college", "check_date": "2025-11-12", "description": "Centre de ressource sur le patrimoine et le bâti ancien", "name": "École d'Avignon", "source": "survey", "was:description": "fr:Centre de formation à la réhabilitation du patrimoine architectural"}}, {"type": "Feature", "geometry": {"type": "Point", "coordinates": [6.1540475, 48.6833754]}, "properties": {"osm_id": 2513344535, "osm_type": "node", "amenity": "college", "name": "UFA du Lycée Polyvalent des Métiers du Bâtiment et de l’Énergie Emmanuel Héré du CFA du BTP de Pont-à-Mousson", "operator:type": "public", "source": "Ministère de l'Education nationale, de la Jeunesse et de la Vie associative"}}, {"type": "Feature", "geometry": {"type": "Point", "coordinates": [3.9120427, 43.620281]}, "properties": {"osm_id": 2514377342, "osm_type": "node", "addr:housename": "SUPINFO", "addr:housenumber": "396", "addr:postcode": "34000", "addr:street": "Rue du Mas de Verchant", "amenity": "university", "name": "SUPINFO"}}, {"type": "Feature", "geometry": {"type": "Point", "coordinates": [5.9866564, 47.24727]}, "properties": {"osm_id": 2517396481, "osm_type": "node", "amenity": "college", "name": "UFR Sciences Juridiques, Économiques, Politiques et de Gestion", "ref:UAI": "0251290S", "short_name": "UFR SJEPG", "source": "Etablissements d'enseignement supérieur - 09/2017", "wheelchair": "limited"}}, {"type": "Feature", "geometry": {"type": "Point", "coordinates": [-1.6684829, 48.1213745]}, "properties": {"osm_id": 2532841298, "osm_type": "node", "addr:city": "Rennes", "addr:housenumber": "104", "addr:postcode": "35700", "addr:street": "Boulevard de la Duchesse Anne", "alt_name": "Sciences Po Rennes", "amenity": "college", "name": "Institut d'études politiques - Sciences Po Rennes", "name:br": "Ensavadur ar studioù politikel - Skiantoù politikel Roazhon", "name:fr": "Institut d'études politiques - Sciences Po Rennes", "phone": "+33 2 99 84 39 39", "ref:FR:NAF": "85.42Z", "ref:FR:SIRET": "19352317200016", "ref:UAI": "0352317D", "short_name": "IEP", "source": "Etablissements d'enseignement supérieur - 09/2017", "source:name:br": "proper translation", "website": "https://www.sciencespo-rennes.fr/", "wheelchair": "limited", "wikidata": "Q3151965", "wikipedia": "fr:Institut d'études politiques de Rennes"}}, {"type": "Feature", "geometry": {"type": "Point", "coordinates": [2.3724858, 48.8858891]}, "properties": {"osm_id": 2535854176, "osm_type": "node", "addr:city": "Paris", "addr:housenumber": "31", "addr:postcode": "75019", "addr:street": "Quai de la Seine", "amenity": "college", "name": "Sup career", "source": "survey 2013", "website": "https://www.supcareer.com/"}}, {"type": "Feature", "geometry": {"type": "Point", "coordinates": [5.0625365, 47.3153499]}, "properties": {"osm_id": 2539265194, "osm_type": "node", "amenity": "college", "name": "Cercle des Conférences Médicales"}}, {"type": "Feature", "geometry": {"type": "Point", "coordinates": [5.059473, 47.3103827]}, "properties": {"osm_id": 2539265196, "osm_type": "node", "addr:city": "Dijon", "addr:housenumber": "73", "addr:postcode": "21000", "addr:street": "Boulevard Mansart", "amenity": "college", "check_date": "2025-05-06", "name": "Cours Galien", "opening_hours": "Mo-Fr 08:30-12:00, 13:30-18:00", "phone": "+33 3 45 58 01 30", "website": "https://cours-galien.fr/centre/dijon/"}}, {"type": "Feature", "geometry": {"type": "Point", "coordinates": [2.40715, 48.8903087]}, "properties": {"osm_id": 2541199842, "osm_type": "node", "addr:city": "Pantin", "addr:housenumber": "22", "addr:postcode": "93500", "addr:street": "Rue des Grilles", "amenity": "college", "education": "college", "name": "Maison des compagnons du devoir et du tour de France", "operator:type": "private", "phone": "+33 1 48 87 38 69", "source": "survey", "website": "https://www.compagnons-du-devoir.com/"}}, {"type": "Feature", "geometry": {"type": "Point", "coordinates": [2.3049221, 48.9379373]}, "properties": {"osm_id": 2554821279, "osm_type": "node", "addr:city": "Gennevilliers", "addr:country": "FR", "addr:housename": "Maison de l'Apprentissage", "addr:housenumber": "40", "addr:postcode": "92230", "addr:street": "Avenue Marcel Paul", "amenity": "college", "name": "Maison de l’Apprentissage"}}, {"type": "Feature", "geometry": {"type": "Point", "coordinates": [2.2807711, 48.8482742]}, "properties": {"osm_id": 2558804431, "osm_type": "node", "addr:city": "Paris", "addr:housenumber": "13", "addr:postcode": "75015", "addr:street": "Quai André Citroën", "amenity": "university", "name": "Le Cordon Bleu Paris", "opening_hours": "Mo-Fr 7:00-17:00; Sa 12:00-17:00", "phone": "+33185651500", "source": "cadastre-dgi-fr source : Direction Générale des Impôts - Cadastre. Mise à jour : 2013", "website": "https://cordonbleu.edu"}}, {"type": "Feature", "geometry": {"type": "Point", "coordinates": [4.853035, 46.7768197]}, "properties": {"osm_id": 2595079480, "osm_type": "node", "amenity": "college", "name": "École de gestion et de commerce de Bourgogne - campus de Chalon sur Saône", "operator:type": "private", "ref:UAI": "0711648F", "short_name": "EGC Chalon", "source": "data.gouv.fr:Office national d'information sur les enseignements et les professions - 11/2011"}}, {"type": "Feature", "geometry": {"type": "Point", "coordinates": [7.6573049, 48.9210532]}, "properties": {"osm_id": 2597115840, "osm_type": "node", "amenity": "college", "name": "CFAI Alsace centre de Reichshoffen", "operator:type": "private", "short_name": "CFAI", "source": "data.gouv.fr:Office national d'information sur les enseignements et les professions - 11/2011"}}, {"type": "Feature", "geometry": {"type": "Point", "coordinates": [5.0562135, 47.3218993]}, "properties": {"osm_id": 2605390767, "osm_type": "node", "amenity": "college", "name": "Cours Galien", "operator:type": "private", "source": "data.gouv.fr:Office national d'information sur les enseignements et les professions - 11/2011"}}, {"type": "Feature", "geometry": {"type": "Point", "coordinates": [5.074746, 47.3195963]}, "properties": {"osm_id": 2605394535, "osm_type": "node", "addr:city": "Dijon", "addr:housenumber": "6 B", "addr:postcode": "21000", "addr:street": "Rue de Cromois", "amenity": "college", "email": "accueil@ifmk-dijon.fr", "name": "Institut de formation en masso-kinésithérapie", "operator:type": "private", "phone": "+33 3 80 65 84 00", "ref:UAI": "0211509B", "short_name": "IFMK", "source": "data.gouv.fr:Office national d'information sur les enseignements et les professions - 11/2011", "website": "https://www.ifmk-dijon.fr/"}}, {"type": "Feature", "geometry": {"type": "Point", "coordinates": [4.8474382, 45.7453277]}, "properties": {"osm_id": 2606763455, "osm_type": "node", "amenity": "college", "check_date": "2024-08-11", "name": "École de Condé", "operator:type": "private", "phone": "+33 4 78 42 92 39", "ref:UAI": "0693451B", "source": "Etablissements d'enseignement supérieur - 09/2017", "website": "https://ecoles-conde.com/"}}, {"type": "Feature", "geometry": {"type": "Point", "coordinates": [4.414272, 45.433756]}, "properties": {"osm_id": 2608011521, "osm_type": "node", "amenity": "college", "name": "École nationale d'ingénieurs de Saint-Etienne", "ref:UAI": "0420093Y", "short_name": "ENISE", "source": "data.gouv.fr:Office national d'information sur les enseignements et les professions - 11/2011"}}, {"type": "Feature", "geometry": {"type": "Point", "coordinates": [6.1877974, 48.6772143]}, "properties": {"osm_id": 2611247911, "osm_type": "node", "amenity": "college", "name": "Institut Lorrain de Formation en Masso-Kinésithérapie", "operator:type": "private", "ref:UAI": "0541857A", "short_name": "IFMK", "source": "survey;Office national d'information sur les enseignements et les professions", "website": "https://www.kine-nancy.eu/"}}, {"type": "Feature", "geometry": {"type": "Point", "coordinates": [-1.4273906, 46.6760468]}, "properties": {"osm_id": 2613889167, "osm_type": "node", "amenity": "college", "contact:city": "La Roche-sur-Yon", "contact:housenumber": "28", "contact:postcode": "85000", "contact:street": "Boulevard d'Angleterre", "name": "Institut Catholique d'Arts et Métiers", "operator:type": "private", "ref:UAI": "0851594W", "short_name": "ICAM Vendée", "source": "Etablissements d'enseignement supérieur - 09/2017"}}, {"type": "Feature", "geometry": {"type": "Point", "coordinates": [-0.5004677, 43.8894904]}, "properties": {"osm_id": 2617214006, "osm_type": "node", "amenity": "college", "name": "Euréka", "source": "cadastre-dgi-fr source : Direction Générale des Impôts - Cadastre. Mise à jour : 2014"}}, {"type": "Feature", "geometry": {"type": "Point", "coordinates": [5.4011136, 43.3342203]}, "properties": {"osm_id": 2618712679, "osm_type": "node", "amenity": "college", "college:FR": "IFSI", "name": "IFSI Saint-Jacques Service Social de Provence", "name:oc": "IFSI de Sant Jaume Servici Sociau de Provença", "operator:type": "private", "ref:UAI": "0132820V", "short_name": "IFSI-IFAS", "source": "data.gouv.fr:Office national d'information sur les enseignements et les professions - 11/2011", "source:name:oc": "ieo-bdtopoc"}}, {"type": "Feature", "geometry": {"type": "Point", "coordinates": [-0.4623019, 43.9093795]}, "properties": {"osm_id": 2624601978, "osm_type": "node", "amenity": "college", "name": "Technisoud", "wheelchair": "limited"}}, {"type": "Feature", "geometry": {"type": "Point", "coordinates": [3.5144913, 50.3537555]}, "properties": {"osm_id": 2626330596, "osm_type": "node", "amenity": "college", "name": "Université de Valenciennes Centre d'éducation permanente et de promotion économique et sociale", "short_name": "CEPPES", "source": "data.gouv.fr:Office national d'information sur les enseignements et les professions - 11/2011"}}, {"type": "Feature", "geometry": {"type": "Point", "coordinates": [2.866645, 45.1103087]}, "properties": {"osm_id": 2627812637, "osm_type": "node", "amenity": "college", "name": "École de Musique"}}, {"type": "Feature", "geometry": {"type": "Point", "coordinates": [5.0381499, 47.3148907]}, "properties": {"osm_id": 2628992082, "osm_type": "node", "amenity": "college", "check_date": "2024-05-06", "name": "Institut supérieur Saint-Joseph", "operator:type": "private", "ref:UAI": "0212195X", "short_name": "Sup'St Jo", "source": "data.gouv.fr:Office national d'information sur les enseignements et les professions - 11/2011"}}, {"type": "Feature", "geometry": {"type": "Point", "coordinates": [3.9506862, 49.032047]}, "properties": {"osm_id": 2630565774, "osm_type": "node", "amenity": "college", "fixme": "vérifier position", "name": "Centre de Formation des Commerciaux en Librairie", "operator:type": "private", "short_name": "CFCL", "source": "data.gouv.fr:Office national d'information sur les enseignements et les professions - 11/2011"}}, {"type": "Feature", "geometry": {"type": "Point", "coordinates": [5.0448725, 47.3584661]}, "properties": {"osm_id": 2632290412, "osm_type": "node", "amenity": "college", "name": "CFAI 21-71", "short_name": "CFAI", "source": "data.gouv.fr:Office national d'information sur les enseignements et les professions - 11/2011"}}, {"type": "Feature", "geometry": {"type": "Point", "coordinates": [5.0539556, 47.3350245]}, "properties": {"osm_id": 2634104638, "osm_type": "node", "addr:city": "Dijon", "addr:housenumber": "69", "addr:postcode": "21000", "addr:street": "Avenue Aristide Briand", "amenity": "college", "check_date": "2025-06-21", "email": "secretariat@cucdb.fr", "name": "Centre universitaire catholique de Bourgogne", "operator:type": "private", "phone": "+33 3 80 73 45 90", "ref:UAI": "0212022J", "short_name": "CUCDB", "source": "data.gouv.fr:Office national d'information sur les enseignements et les professions - 11/2011", "website": "https://cucdb.fr/"}}, {"type": "Feature", "geometry": {"type": "Point", "coordinates": [5.0520985, 47.3300212]}, "properties": {"osm_id": 2634104642, "osm_type": "node", "addr:city": "Dijon", "addr:housenumber": "2B", "addr:postcode": "21000", "addr:street": "Avenue de Marbotte", "amenity": "college", "email": "dijon@infn-notaires.fr", "name": "Institut national des formations notariales", "operator:type": "private", "phone": "+33 3 80 67 15 71", "ref:UAI": "0210096R", "short_name": "INFN", "source": "Etablissements d'enseignement supérieur - 09/2017", "website": "https://www.infn.fr/sites-enseignement/dijon/"}}, {"type": "Feature", "geometry": {"type": "Point", "coordinates": [4.8246025, 45.7519424]},