{"type": "FeatureCollection", "features": [{"type": "Feature", "geometry": {"type": "Point", "coordinates": [2.3588681, 48.8569724]}, "properties": {"osm_id": 218145208, "osm_type": "node", "amenity": "place_of_worship", "contact:city": "Paris", "contact:postcode": "75004", "name": "Synagogue Beit Yossef", "religion": "jewish"}}, {"type": "Feature", "geometry": {"type": "Point", "coordinates": [2.35923, 48.8570939]}, "properties": {"osm_id": 218147750, "osm_type": "node", "addr:city": "Paris", "addr:postcode": "75004", "amenity": "place_of_worship", "building:part": "synagogue", "check_date": "2024-05-11", "name": "Synagogue", "religion": "jewish"}}, {"type": "Feature", "geometry": {"type": "Point", "coordinates": [3.2362964, 43.8025516]}, "properties": {"osm_id": 276517118, "osm_type": "node", "amenity": "place_of_worship", "name": "Stupa", "religion": "buddhist"}}, {"type": "Feature", "geometry": {"type": "Point", "coordinates": [2.3080852, 49.8948745]}, "properties": {"osm_id": 294711655, "osm_type": "node", "amenity": "place_of_worship", "name": "Synagogue", "religion": "jewish"}}, {"type": "Feature", "geometry": {"type": "Point", "coordinates": [2.4233038, 48.8801655]}, "properties": {"osm_id": 476298686, "osm_type": "node", "amenity": "place_of_worship", "name": "Association Culturelle Israélite des Lilas", "religion": "jewish"}}, {"type": "Feature", "geometry": {"type": "Point", "coordinates": [2.4966225, 48.6954247]}, "properties": {"osm_id": 517331936, "osm_type": "node", "amenity": "place_of_worship", "name": "Yechiva Loubavitch", "religion": "jewish", "wheelchair": "limited", "wikidata": "Q136303775"}}, {"type": "Feature", "geometry": {"type": "Point", "coordinates": [2.3669508, 48.8246283]}, "properties": {"osm_id": 533756945, "osm_type": "node", "amenity": "place_of_worship", "denomination": "mahayana", "name": "Amicale des Teo Chew en France", "religion": "buddhist"}}, {"type": "Feature", "geometry": {"type": "Point", "coordinates": [2.397089, 48.7932311]}, "properties": {"osm_id": 564070207, "osm_type": "node", "amenity": "place_of_worship", "name": "Synagogue", "religion": "jewish"}}, {"type": "Feature", "geometry": {"type": "Point", "coordinates": [3.8785566, 43.6175488]}, "properties": {"osm_id": 579783609, "osm_type": "node", "amenity": "place_of_worship", "contact:city": "Montpellier", "contact:housenumber": "45", "contact:postcode": "34090", "contact:street": "Rue Proudhon", "name": "Synagogue Mazal Tov", "religion": "jewish", "source": "observation", "wheelchair": "no"}}, {"type": "Feature", "geometry": {"type": "Point", "coordinates": [2.5011416, 48.8450052]}, "properties": {"osm_id": 675090119, "osm_type": "node", "alt_name": "Centre communautaire Hekhal-David", "amenity": "place_of_worship", "name": "Centre Communautaire - Synagogue Talmud", "religion": "jewish"}}, {"type": "Feature", "geometry": {"type": "Point", "coordinates": [3.2291231, 43.8110522]}, "properties": {"osm_id": 676520190, "osm_type": "node", "amenity": "place_of_worship", "name": "Stupa", "religion": "buddhist", "source": "BDOrtho IGN"}}, {"type": "Feature", "geometry": {"type": "Point", "coordinates": [4.8514582, 45.7607078]}, "properties": {"osm_id": 778026161, "osm_type": "node", "addr:city": "Lyon", "addr:housenumber": "119", "addr:postcode": "69003", "addr:street": "Rue Servient", "amenity": "place_of_worship", "denomination": "orthodox", "name": "Beth Habad Lyon 3", "religion": "jewish"}}, {"type": "Feature", "geometry": {"type": "Point", "coordinates": [2.2888363, 48.8693669]}, "properties": {"osm_id": 936923345, "osm_type": "node", "addr:postcode": "75116", "amenity": "place_of_worship", "denomination": "reform", "name": "Union Libérale Israélite de France", "phone": "+33 1 47 04 37 27", "religion": "jewish", "source": "cadastre-dgi-fr source : Direction Générale des Impôts - Cadastre. Mise à jour : 2010", "website": "http://www.ulif.org", "wikidata": "Q139421", "wikipedia": "fr:Union libérale israélite de France"}}, {"type": "Feature", "geometry": {"type": "Point", "coordinates": [2.3607218, 48.8859141]}, "properties": {"osm_id": 1044971013, "osm_type": "node", "alt_name": "Temple Ganesh", "amenity": "place_of_worship", "check_date": "2024-01-06", "name": "Temple Sri Manicka Vinayakar", "religion": "hindu"}}, {"type": "Feature", "geometry": {"type": "Point", "coordinates": [2.2109396, 48.7125483]}, "properties": {"osm_id": 1417714581, "osm_type": "node", "amenity": "place_of_worship"}}, {"type": "Feature", "geometry": {"type": "Point", "coordinates": [2.3377701, 48.8768851]}, "properties": {"osm_id": 1445872336, "osm_type": "node", "amenity": "place_of_worship", "check_date": "2024-09-01", "name": "Synagogue Saint-Lazare", "religion": "jewish", "source": "survey"}}, {"type": "Feature", "geometry": {"type": "Point", "coordinates": [2.3753246, 48.8801647]}, "properties": {"osm_id": 1531003882, "osm_type": "node", "amenity": "place_of_worship", "religion": "jewish"}}, {"type": "Feature", "geometry": {"type": "Point", "coordinates": [2.4879121, 48.8205102]}, "properties": {"osm_id": 1646777791, "osm_type": "node", "addr:housenumber": "20", "amenity": "place_of_worship", "name": "Association Culturelle Bouddhique Quan Am", "name:fr": "Association Culturelle Bouddhique Quan Am", "religion": "buddhist", "source": "survey 2012-02"}}, {"type": "Feature", "geometry": {"type": "Point", "coordinates": [2.2953117, 48.8410752]}, "properties": {"osm_id": 1791366330, "osm_type": "node", "addr:country": "JP", "addr:housenumber": "39", "amenity": "place_of_worship", "religion": "buddhist", "source": "cadastre-dgi-fr source : Direction Générale des Impôts - Cadastre. Mise à jour : 2012"}}, {"type": "Feature", "geometry": {"type": "Point", "coordinates": [2.2929464, 48.8521565]}, "properties": {"osm_id": 1861790175, "osm_type": "node", "amenity": "place_of_worship", "denomination": "masorti", "name": "Adath Shalom", "religion": "jewish", "wikidata": "Q68807321"}}, {"type": "Feature", "geometry": {"type": "Point", "coordinates": [5.3940167, 43.2769084]}, "properties": {"osm_id": 2012646284, "osm_type": "node", "addr:housenumber": "191", "amenity": "place_of_worship", "name": "Or Raphaël", "religion": "jewish", "source": "cadastre-dgi-fr source : Direction Générale des Impôts - Cadastre. Mise à jour : 2012"}}, {"type": "Feature", "geometry": {"type": "Point", "coordinates": [-0.5997438, 44.8400845]}, "properties": {"osm_id": 2130463581, "osm_type": "node", "amenity": "place_of_worship", "name": "Dhagpo Bordeaux", "opening_hours": "Mo-Su 18:00-19:30", "religion": "buddhist", "website": "https://www.dhagpo-bordeaux.org/"}}, {"type": "Feature", "geometry": {"type": "Point", "coordinates": [2.312283, 48.8199556]}, "properties": {"osm_id": 2135044914, "osm_type": "node", "amenity": "place_of_worship", "contact:housenumber": "90", "contact:street": "Rue Gabriel Péri", "fax": "+33 1 46 56 20 49", "name": "Synagogue de Montrouge", "phone": "+33 1 46 56 25 26", "religion": "jewish", "wheelchair": "yes"}}, {"type": "Feature", "geometry": {"type": "Point", "coordinates": [7.2187366, 48.4773962]}, "properties": {"osm_id": 2136296510, "osm_type": "node", "amenity": "place_of_worship", "heritage": "3", "heritage:operator": "mhs", "mhs:inscription_date": "1999", "name": "Synagogue de Schirmeck", "ref:mhs": "PA67000033", "religion": "jewish", "source": "data.gouv.fr:Ministère de la Culture - 08/2011", "wikidata": "Q21980398", "wikipedia": "fr:Synagogue de Schirmeck"}}, {"type": "Feature", "geometry": {"type": "Point", "coordinates": [5.9249737, 43.1281536]}, "properties": {"osm_id": 2274341156, "osm_type": "node", "amenity": "place_of_worship", "check_date": "2024-10-11", "name": "Synagogue", "religion": "jewish"}}, {"type": "Feature", "geometry": {"type": "Point", "coordinates": [1.4004236, 47.0833228]}, "properties": {"osm_id": 2469925332, "osm_type": "node", "alt_name": "La Nouvelle Mayapura", "amenity": "place_of_worship", "denomination": "hare_krishna", "name": "Château d'Oublaise", "religion": "hindu", "source": "cadastre-dgi-fr source : Direction Générale des Impôts - Cadastre. Mise à jour : 2013"}}, {"type": "Feature", "geometry": {"type": "Point", "coordinates": [2.4043447, 48.8385936]}, "properties": {"osm_id": 2569040812, "osm_type": "node", "amenity": "place_of_worship", "check_date": "2024-07-02", "name": "Synagogue Beth-El Nevé chalom", "religion": "jewish"}}, {"type": "Feature", "geometry": {"type": "Point", "coordinates": [2.3977625, 48.8419332]}, "properties": {"osm_id": 2569041829, "osm_type": "node", "amenity": "place_of_worship", "check_date": "2023-04-02", "name": "Synagogue. Oratoire de la fondation Rothschild", "religion": "jewish"}}, {"type": "Feature", "geometry": {"type": "Point", "coordinates": [2.3791618, 48.8555664]}, "properties": {"osm_id": 2569044421, "osm_type": "node", "amenity": "place_of_worship", "name": "Synagogue Etz Haim-Beit Hamidrach", "religion": "jewish", "wikidata": "Q3507972"}}, {"type": "Feature", "geometry": {"type": "Point", "coordinates": [2.3862003, 48.8524106]}, "properties": {"osm_id": 2587860708, "osm_type": "node", "amenity": "place_of_worship", "religion": "buddhist"}}, {"type": "Feature", "geometry": {"type": "Point", "coordinates": [2.3642314, 48.824545]}, "properties": {"osm_id": 2601996597, "osm_type": "node", "addr:housenumber": "41", "addr:postcode": "75013", "addr:street": "Rue du Disque", "amenity": "place_of_worship", "check_date": "2026-01-30", "name": "Autel de Culte du Bouddha", "religion": "buddhist", "source": "cadastre-dgi-fr source : Direction Générale des Impôts - Cadastre. Mise à jour : 2013"}}, {"type": "Feature", "geometry": {"type": "Point", "coordinates": [-0.9673264, 47.4737234]}, "properties": {"osm_id": 2678890257, "osm_type": "node", "amenity": "place_of_worship", "name": "Monument Noël Pinot"}}, {"type": "Feature", "geometry": {"type": "Point", "coordinates": [2.290339, 48.883916]}, "properties": {"osm_id": 2757888818, "osm_type": "node", "amenity": "place_of_worship", "name": "Centre Rambam", "religion": "jewish"}}, {"type": "Feature", "geometry": {"type": "Point", "coordinates": [2.290136, 48.883299]}, "properties": {"osm_id": 2757895557, "osm_type": "node", "amenity": "place_of_worship", "name": "Beth Hamidrach Lamed", "religion": "jewish"}}, {"type": "Feature", "geometry": {"type": "Point", "coordinates": [2.2583659, 48.8867222]}, "properties": {"osm_id": 2757916665, "osm_type": "node", "amenity": "place_of_worship", "name": "Centre Alef", "religion": "jewish"}}, {"type": "Feature", "geometry": {"type": "Point", "coordinates": [-1.0290603, 47.4660359]}, "properties": {"osm_id": 2758638255, "osm_type": "node", "amenity": "place_of_worship", "name": "La Grotte"}}, {"type": "Feature", "geometry": {"type": "Point", "coordinates": [2.2945014, 48.8872145]}, "properties": {"osm_id": 2765801576, "osm_type": "node", "amenity": "place_of_worship", "check_date": "2025-06-17", "name": "Beth Habad", "religion": "jewish"}}, {"type": "Feature", "geometry": {"type": "Point", "coordinates": [2.3710584, 48.9770462]}, "properties": {"osm_id": 2924764701, "osm_type": "node", "amenity": "place_of_worship", "name": "La Ghriba", "religion": "jewish"}}, {"type": "Feature", "geometry": {"type": "Point", "coordinates": [1.0357859, 45.0175552]}, "properties": {"osm_id": 3154554422, "osm_type": "node", "amenity": "place_of_worship", "name": "Nehnang Samten Choling", "religion": "buddhist", "wikidata": "Q18713610"}}, {"type": "Feature", "geometry": {"type": "Point", "coordinates": [6.6504768, 49.0942185]}, "properties": {"osm_id": 3200765660, "osm_type": "node", "amenity": "place_of_worship"}}, {"type": "Feature", "geometry": {"type": "Point", "coordinates": [2.3153683, 48.7945278]}, "properties": {"osm_id": 3609191861, "osm_type": "node", "amenity": "place_of_worship", "check_date": "2026-03-25", "name": "Association Bouddhique Dhammaraingsei", "religion": "buddhist", "source": "survey"}}, {"type": "Feature", "geometry": {"type": "Point", "coordinates": [6.186519, 44.0754127]}, "properties": {"osm_id": 3696533785, "osm_type": "node", "addr:city": "Digne les Bains", "addr:postcode": "04000", "addr:street": "Avenue Gutenberg", "amenity": "place_of_worship", "denomination": "jehovahs_witness", "name": "Témoins de Jéhovah", "religion": "scientologist"}}, {"type": "Feature", "geometry": {"type": "Point", "coordinates": [6.4104055, 49.4471861]}, "properties": {"osm_id": 3719818756, "osm_type": "node", "air_conditioning": "no", "amenity": "place_of_worship", "check_date": "2026-01-11", "ele": "318.00", "historic": "yes", "internet_access": "no", "opening_hours": "24/7", "wheelchair": "yes"}}, {"type": "Feature", "geometry": {"type": "Point", "coordinates": [-4.4762894, 48.3917053]}, "properties": {"osm_id": 3781777257, "osm_type": "node", "amenity": "place_of_worship", "name": "Association culturelle israélite de Brest", "name:br": "Kevredigezh sevenadurel israelat Brest", "name:fr": "Association culturelle israélite de Brest", "religion": "jewish", "short_name": "ACIB", "website": "https://www.facebook.com/acib29/"}}, {"type": "Feature", "geometry": {"type": "Point", "coordinates": [1.0638156, 45.0121845]}, "properties": {"osm_id": 4115065966, "osm_type": "node", "amenity": "place_of_worship", "religion": "buddhist"}}, {"type": "Feature", "geometry": {"type": "Point", "coordinates": [6.2121718, 49.4560396]}, "properties": {"osm_id": 4161350667, "osm_type": "node", "amenity": "place_of_worship", "historic": "yes"}}, {"type": "Feature", "geometry": {"type": "Point", "coordinates": [2.3665311, 48.8553705]}, "properties": {"osm_id": 4281854742, "osm_type": "node", "addr:city": "Paris", "addr:housenumber": "14", "addr:postcode": "75004", "addr:street": "Place des Vosges", "amenity": "place_of_worship", "name": "Synagogue Charles Liché", "religion": "jewish", "wikidata": "Q3507985", "wikipedia": "fr:Synagogue Charles Liché"}}, {"type": "Feature", "geometry": {"type": "Point", "coordinates": [0.1220116, 44.6748225]}, "properties": {"osm_id": 4327933806, "osm_type": "node", "addr:city": "Dieulivol", "addr:housenumber": "13", "addr:postcode": "33580", "addr:street": "Martineau", "amenity": "place_of_worship", "name": "Village des Pruniers - Hameau Nouveau", "name:en": "Plum Village - New Hamlet", "name:fr": "Village des Pruniers - Hameau Nouveau", "phone": "+33 5 56 61 66 88", "religion": "buddhist", "website": "https://plumvillage.org/"}}, {"type": "Feature", "geometry": {"type": "Point", "coordinates": [2.9371524, 45.9595882]}, "properties": {"osm_id": 4419112076, "osm_type": "node", "amenity": "place_of_worship", "name": "Les Charrats"}}, {"type": "Feature", "geometry": {"type": "Point", "coordinates": [5.0007662, 45.7721468]}, "properties": {"osm_id": 4431925650, "osm_type": "node", "amenity": "place_of_worship", "building:part": "synagogue", "name": "Synagogue de Meyzieu", "religion": "jewish"}}, {"type": "Feature", "geometry": {"type": "Point", "coordinates": [2.3046238, 48.8762278]}, "properties": {"osm_id": 4434372889, "osm_type": "node", "amenity": "place_of_worship", "contact:city": "Paris", "contact:housenumber": "218", "contact:postcode": "75008", "contact:street": "Rue du Faubourg Saint-Honoré", "name": "Synagogue Élie Dray", "religion": "jewish"}}, {"type": "Feature", "geometry": {"type": "Point", "coordinates": [1.0625541, 45.8562765]}, "properties": {"osm_id": 4469633608, "osm_type": "node", "addr:city": "Saint-Yrieix-sous-Aixe", "addr:hamlet": "Le Mas Mavent", "addr:postcode": "87700", "amenity": "place_of_worship", "name": "Dechen Chöling", "phone": "+33 5 55 03 55 52", "religion": "buddhist", "website": "https://www.dechencholing.org/", "wikidata": "Q3020997"}}, {"type": "Feature", "geometry": {"type": "Point", "coordinates": [2.2735308, 48.8665053]}, "properties": {"osm_id": 4536055834, "osm_type": "node", "alt_name": "Synagogue de la rue de Montevideo", "amenity": "place_of_worship", "building": "synagogue", "denomination": "orthodox", "name": "Synagogue Ohel Abraham", "religion": "jewish", "wikidata": "Q3508108"}}, {"type": "Feature", "geometry": {"type": "Point", "coordinates": [2.5808166, 42.5407071]}, "properties": {"osm_id": 4592395292, "osm_type": "node", "amenity": "place_of_worship", "name": "Rangjung Yeshé Gomdé France", "name:en": "Rangjung Yeshe Gomde", "religion": "buddhist"}}, {"type": "Feature", "geometry": {"type": "Point", "coordinates": [-1.553978, 43.4858447]}, "properties": {"osm_id": 4789924525, "osm_type": "node", "addr:city": "Biarritz", "addr:housenumber": "11", "addr:postcode": "64200", "addr:street": "Rue Pellot", "amenity": "place_of_worship", "name": "Synagogue", "name:fr": "Synagogue", "religion": "jewish", "wikidata": "Q3508031"}}, {"type": "Feature", "geometry": {"type": "Point", "coordinates": [6.0721527, 49.4136167]}, "properties": {"osm_id": 4933129046, "osm_type": "node", "amenity": "place_of_worship", "historic": "yes", "name": "Alte Kirch"}}, {"type": "Feature", "geometry": {"type": "Point", "coordinates": [2.5004422, 48.8587903]}, "properties": {"osm_id": 4975813923, "osm_type": "node", "amenity": "place_of_worship", "name": "Synagogue", "name:fr": "Synagogue", "religion": "jewish"}}, {"type": "Feature", "geometry": {"type": "Point", "coordinates": [4.5426224, 44.1961975]}, "properties": {"osm_id": 5095229425, "osm_type": "node", "amenity": "place_of_worship", "fixme": "vérifier s'il existe sur le site", "name": "Maria", "name:fr": "Maria"}}, {"type": "Feature", "geometry": {"type": "Point", "coordinates": [5.0385966, 43.8370685]}, "properties": {"osm_id": 5111377214, "osm_type": "node", "amenity": "place_of_worship", "religion": "jewish"}}, {"type": "Feature", "geometry": {"type": "Point", "coordinates": [2.564726, 49.0038186]}, "properties": {"osm_id": 5122747616, "osm_type": "node", "amenity": "place_of_worship", "religion": "multifaith"}}, {"type": "Feature", "geometry": {"type": "Point", "coordinates": [7.4895054, 48.5306993]}, "properties": {"osm_id": 5178957622, "osm_type": "node", "amenity": "place_of_worship", "building:part": "mosque", "check_date": "2025-09-11"}}, {"type": "Feature", "geometry": {"type": "Point", "coordinates": [2.3492787, 48.8335774]}, "properties": {"osm_id": 5220077106, "osm_type": "node", "addr:housenumber": "29", "addr:postcode": "75013", "addr:street": "Rue des Cordelières", "amenity": "place_of_worship", "email": "paris@rimay.net", "name": "Shanga Rimay Paris", "phone": "+33 1 42 71 44 86", "religion": "buddhist", "website": "http://www.paris.rimay.net/"}}, {"type": "Feature", "geometry": {"type": "Point", "coordinates": [2.3451928, 48.8797701]}, "properties": {"osm_id": 5222403022, "osm_type": "node", "amenity": "place_of_worship", "name": "Centre Bouddhiste", "religion": "buddhist"}}, {"type": "Feature", "geometry": {"type": "Point", "coordinates": [7.5593811, 47.8190701]}, "properties": {"osm_id": 5225093719, "osm_type": "node", "addr:city": "Neuenburg am Rhein", "addr:housenumber": "6", "addr:postcode": "79395", "addr:street": "Im Mühleköpfle", "amenity": "place_of_worship", "name": "Open Sangha Meditationsgruppe Neuenburg", "religion": "buddhist", "website": "https://buddha-dharma.org/de"}}, {"type": "Feature", "geometry": {"type": "Point", "coordinates": [5.6152505, 43.2262943]}, "properties": {"osm_id": 5301510121, "osm_type": "node", "amenity": "place_of_worship", "name": "sangle molle"}}, {"type": "Feature", "geometry": {"type": "Point", "coordinates": [6.0551242, 49.1175961]}, "properties": {"osm_id": 5487953029, "osm_type": "node", "amenity": "place_of_worship", "name": "Tombe Commandant Bertrand"}}, {"type": "Feature", "geometry": {"type": "Point", "coordinates": [2.3485982, 48.8740532]}, "properties": {"osm_id": 5689953455, "osm_type": "node", "amenity": "place_of_worship", "check_date": "2024-12-16", "contact:city": "Paris", "contact:housenumber": "56", "contact:phone": "+33 1 42 46 65 02", "contact:postcode": "75010", "contact:street": "Rue des Petites Écuries", "contact:website": "http://lafraternelle.ouvaton.org", "denomination": "jewish", "name": "La Fraternelle - Union Nationale des Amis de Tlemcen", "religion": "jewish"}}, {"type": "Feature", "geometry": {"type": "Point", "coordinates": [2.3552846, 48.8495578]}, "properties": {"osm_id": 5764283388, "osm_type": "node", "amenity": "place_of_worship", "denomination": "russian_orthodox", "name": "Allez en enfer", "religion": "unitarian_universalist", "service_times": "19h-1h"}}, {"type": "Feature", "geometry": {"type": "Point", "coordinates": [4.4487636, 48.8678468]}, "properties": {"osm_id": 5905960690, "osm_type": "node", "amenity": "place_of_worship", "name": "Psilocybe Cubensis"}}, {"type": "Feature", "geometry": {"type": "Point", "coordinates": [-0.6211896, 47.5409205]}, "properties": {"osm_id": 5960000828, "osm_type": "node", "amenity": "place_of_worship", "religion": "shinto"}}, {"type": "Feature", "geometry": {"type": "Point", "coordinates": [2.9139049, 43.9788769]}, "properties": {"osm_id": 5964697524, "osm_type": "node", "amenity": "place_of_worship", "name": "Dogs Rip"}}, {"type": "Feature", "geometry": {"type": "Point", "coordinates": [1.1828515, 46.1413404]}, "properties": {"osm_id": 6126134127, "osm_type": "node", "amenity": "place_of_worship", "name": "Tung Lam Linh Son", "ref:FR:NAF": "94.91Z", "ref:FR:SIREN": "513584854", "ref:FR:SIRET": "51358485400014", "religion": "buddhist", "source": "INSEE - 2025-02"}}, {"type": "Feature", "geometry": {"type": "Point", "coordinates": [2.8944443, 42.6987136]}, "properties": {"osm_id": 6374554116, "osm_type": "node", "amenity": "place_of_worship", "contact:city": "Perpignan", "contact:postcode": "66000", "contact:street": "Rue de la Cloche d'Or", "name": "Espace Haméïri", "religion": "jewish"}}, {"type": "Feature", "geometry": {"type": "Point", "coordinates": [-1.6956838, 48.113351]}, "properties": {"osm_id": 6487965014, "osm_type": "node", "amenity": "place_of_worship", "check_date": "2025-11-15", "contact:phone": "+33 2 99 50 15 54", "name": "Centre Bouddhiste Kadampa Drolma", "religion": "buddhist", "website": "https://meditation-rennes.org/"}}, {"type": "Feature", "geometry": {"type": "Point", "coordinates": [2.5851828, 49.001236]}, "properties": {"osm_id": 6538844581, "osm_type": "node", "amenity": "place_of_worship", "level": "1"}}, {"type": "Feature", "geometry": {"type": "Point", "coordinates": [6.503383, 44.5813103]}, "properties": {"osm_id": 6578582654, "osm_type": "node", "amenity": "place_of_worship", "name": "La cloche", "religion": "shamanic"}}, {"type": "Feature", "geometry": {"type": "Point", "coordinates": [1.0672758, 45.0005956]}, "properties": {"osm_id": 6773705946, "osm_type": "node", "amenity": "place_of_worship", "name": "Urgyen Samye Chöling", "religion": "buddhist"}}, {"type": "Feature", "geometry": {"type": "Point", "coordinates": [3.6453678, 50.4684984]}, "properties": {"osm_id": 6966045235, "osm_type": "node", "amenity": "place_of_worship"}}, {"type": "Feature", "geometry": {"type": "Point", "coordinates": [3.0064919, 43.982622]}, "properties": {"osm_id": 7007988972, "osm_type": "node", "amenity": "place_of_worship", "fixme": "wayside_shrine ?"}}, {"type": "Feature", "geometry": {"type": "Point", "coordinates": [-0.3603757, 49.185268]}, "properties": {"osm_id": 7181524286, "osm_type": "node", "amenity": "place_of_worship", "contact:housenumber": "46", "contact:street": "Avenue de la Libération", "phone": "+33 2 31 43 60 54", "religion": "jewish"}}, {"type": "Feature", "geometry": {"type": "Point", "coordinates": [3.5556009, 49.0045029]}, "properties": {"osm_id": 7603244601, "osm_type": "node", "amenity": "place_of_worship"}}, {"type": "Feature", "geometry": {"type": "Point", "coordinates": [2.9806799, 43.6148792]}, "properties": {"osm_id": 7609350522, "osm_type": "node", "addr:city": "Rosis", "addr:housenumber": "Temple zen du Caroux", "addr:postcode": "34610", "addr:street": "Route de Douch", "amenity": "place_of_worship", "denomination": "temple_zen_du_caroux", "name": "Yujo Nyusanji", "religion": "buddhist", "service_times": "07:00  19:00", "website": "https://zen-deshimaru.com/"}}, {"type": "Feature", "geometry": {"type": "Point", "coordinates": [3.4419225, 48.611779]}, "properties": {"osm_id": 7683215912, "osm_type": "node", "amenity": "place_of_worship"}}, {"type": "Feature", "geometry": {"type": "Point", "coordinates": [7.1502204, 47.8586942]}, "properties": {"osm_id": 7722010239, "osm_type": "node", "amenity": "place_of_worship", "inscription": "Des quatre vents viens o esprit souffle sur ces cadavres et qu'ils revivent - Ezechiel -", "layer": "-2"}}, {"type": "Feature", "geometry": {"type": "Point", "coordinates": [7.1501152, 47.8589411]}, "properties": {"osm_id": 7722017764, "osm_type": "node", "amenity": "place_of_worship", "inscription": "Je suis la resurrection et la vie celui qui vit et croit en moi quand il serait mort vivra - Jean -", "layer": "-2"}}, {"type": "Feature", "geometry": {"type": "Point", "coordinates": [7.1503907, 47.8588607]}, "properties": {"osm_id": 7722017765, "osm_type": "node", "amenity": "place_of_worship", "inscription": "Jesus notre roi   Recois notre vie   Reine des martyrs   Console les affliges   Debout pres de la croix comme Marie avec Jesus   O femmes qui pleurez offrez a Dieu vos cœurs", "layer": "-2"}}, {"type": "Feature", "geometry": {"type": "Point", "coordinates": [2.6469755, 43.1864037]}, "properties": {"osm_id": 7770340749, "osm_type": "node", "amenity": "place_of_worship", "name": "Tombe de Robin"}}, {"type": "Feature", "geometry": {"type": "Point", "coordinates": [2.416181, 48.926164]}, "properties": {"osm_id": 8086456293, "osm_type": "node", "addr:housenumber": "159", "amenity": "place_of_worship", "denomination": "shaivism", "name": "Temple Sivan", "name:en": "Sivan Temple", "name:ta": "சிவன் கோவில்", "opening_hours": "Tu-Su 09:30-13:30, 16:30-20:00", "religion": "hindu", "service_times": "Tu-Su 10:00,12:00,18:30", "wheelchair": "no"}}, {"type": "Feature", "geometry": {"type": "Point", "coordinates": [1.2522375, 45.8417831]}, "properties": {"osm_id": 8118654500, "osm_type": "node", "amenity": "place_of_worship", "denomination": "tibetan", "name": "Dhagpo Limoges", "religion": "buddhist", "website": "https://limoges.dhagpo.org/"}}, {"type": "Feature", "geometry": {"type": "Point", "coordinates": [3.2423343, 48.8796914]}, "properties": {"osm_id": 8124053217, "osm_type": "node", "amenity": "place_of_worship", "name": "Chez les Truffes Divines"}}, {"type": "Feature", "geometry": {"type": "Point", "coordinates": [5.6945436, 45.1888467]}, "properties": {"osm_id": 8151682982, "osm_type": "node", "amenity": "place_of_worship", "name": "Centre Betania", "panoramax": "5d014ea1-ec13-4354-aad3-59eba5fd3265"}}, {"type": "Feature", "geometry": {"type": "Point", "coordinates": [6.7171955, 47.9974246]}, "properties": {"osm_id": 8255324117, "osm_type": "node", "amenity": "place_of_worship"}}, {"type": "Feature", "geometry": {"type": "Point", "coordinates": [2.361972, 48.8577837]}, "properties": {"osm_id": 8274486117, "osm_type": "node", "amenity": "place_of_worship", "name": "Chapelle de l'Humanité", "opening_hours": "Tu-Su 15:00-18:00", "religion": "positivist", "wikidata": "Q2746140"}}, {"type": "Feature", "geometry": {"type": "Point", "coordinates": [2.6450909, 48.4494394]}, "properties": {"osm_id": 8491816018, "osm_type": "node", "amenity": "place_of_worship", "name": "Mini grotte"}}, {"type": "Feature", "geometry": {"type": "Point", "coordinates": [4.839169, 44.3671471]}, "properties": {"osm_id": 8494554569, "osm_type": "node", "amenity": "place_of_worship"}}, {"type": "Feature", "geometry": {"type": "Point", "coordinates": [3.7552962, 47.4818491]}, "properties": {"osm_id": 8841179641, "osm_type": "node", "addr:city": "Asquins", "addr:housenumber": "6", "addr:postcode": "89450", "amenity": "place_of_worship", "name": "Dojo Zen de l'Avallonnais", "religion": "buddhist"}}, {"type": "Feature", "geometry": {"type": "Point", "coordinates": [2.3343003, 48.8410792]}, "properties": {"osm_id": 8883088291, "osm_type": "node", "amenity": "place_of_worship", "operator:type": "private"}}, {"type": "Feature", "geometry": {"type": "Point", "coordinates": [6.2616046, 49.4725579]}, "properties": {"osm_id": 8939244875, "osm_type": "node", "amenity": "place_of_worship"}}, {"type": "Feature", "geometry": {"type": "Point", "coordinates": [1.3913214, 50.032031]}, "properties": {"osm_id": 8999673417, "osm_type": "node", "amenity": "place_of_worship", "man_made": "cross"}}, {"type": "Feature", "geometry": {"type": "Point", "coordinates": [2.360397, 48.8891745]}, "properties": {"osm_id": 9122074564, "osm_type": "node", "amenity": "place_of_worship", "name": "Sri Ayyappan Temple Paris", "religion": "hindu"}}, {"type": "Feature", "geometry": {"type": "Point", "coordinates": [6.3805413, 48.3862065]}, "properties": {"osm_id": 9207234305, "osm_type": "node", "amenity": "place_of_worship", "name": "Vierge"}}, {"type": "Feature", "geometry": {"type": "Point", "coordinates": [2.3653251, 48.8789454]}, "properties": {"osm_id": 9439627154, "osm_type": "node", "amenity": "place_of_worship", "contact:city": "Paris", "contact:country": "FR", "contact:housenumber": "5", "contact:phone": "+33 1 40 05 02 22", "contact:postcode": "75010", "contact:street": "Passage Delessert", "contact:website": "https://www.centre-kalachakra.com", "name": "Centre Kalachakra", "opening_hours": "Tu-Sa 15:00-19:30", "religion": "buddhist"}}, {"type": "Feature", "geometry": {"type": "Point", "coordinates": [-1.7183319, 46.9274219]}, "properties": {"osm_id": 9553141879, "osm_type": "node", "amenity": "place_of_worship", "name": "Des Laigle - Les vies dansent", "religion": "none"}}, {"type": "Feature", "geometry": {"type": "Point", "coordinates": [2.2958467, 48.7700142]}, "properties": {"osm_id": 9592678022, "osm_type": "node", "amenity": "place_of_worship", "religion": "shinto"}}, {"type": "Feature", "geometry": {"type": "Point", "coordinates": [6.5812579, 49.339876]}, "properties": {"osm_id": 9696919777, "osm_type": "node", "amenity": "place_of_worship", "wheelchair": "no"}}, {"type": "Feature", "geometry": {"type": "Point", "coordinates": [6.5758939, 49.3773621]}, "properties": {"osm_id": 9707733802, "osm_type": "node", "amenity": "place_of_worship"}}, {"type": "Feature", "geometry": {"type": "Point", "coordinates": [4.7366738, 45.7409405]}, "properties": {"osm_id": 9811948979, "osm_type": "node", "amenity": "place_of_worship", "check_date": "2026-01-18", "name": "Les Grandes Terres Karma Maha Meru Ling", "religion": "buddhist"}}, {"type": "Feature", "geometry": {"type": "Point", "coordinates": [1.1921898, 46.4803479]}, "properties": {"osm_id": 9972685617, "osm_type": "node", "amenity": "place_of_worship"}}, {"type": "Feature", "geometry": {"type": "Point", "coordinates": [1.1913239, 46.4794297]}, "properties": {"osm_id": 9972717917, "osm_type": "node", "amenity": "place_of_worship"}}, {"type": "Feature", "geometry": {"type": "Point", "coordinates": [3.2294192, 43.8104173]}, "properties": {"osm_id": 10098337543, "osm_type": "node", "amenity": "place_of_worship", "name": "Stupa", "religion": "buddhist", "source": "BDOrtho IGN"}}, {"type": "Feature", "geometry": {"type": "Point", "coordinates": [2.6905163, 48.8835228]}, "properties": {"osm_id": 10107456231, "osm_type": "node", "amenity": "place_of_worship"}}, {"type": "Feature", "geometry": {"type": "Point", "coordinates": [2.01517, 50.6821078]}, "properties": {"osm_id": 10159090933, "osm_type": "node", "amenity": "place_of_worship", "check_date": "2022-11-05"}}, {"type": "Feature", "geometry": {"type": "Point", "coordinates": [-0.0611812, 47.3687805]}, "properties": {"osm_id": 10242588316, "osm_type": "node", "amenity": "place_of_worship", "denomination": "tibetan", "name": "Shenten Dargye Ling", "religion": "buddhist", "website": "https://www.shenten.org/"}}, {"type": "Feature", "geometry": {"type": "Point", "coordinates": [4.6438763, 46.461626]}, "properties": {"osm_id": 10709196453, "osm_type": "node", "amenity": "place_of_worship", "name": "Denkmal", "religion": "none"}}, {"type": "Feature", "geometry": {"type": "Point", "coordinates": [2.296817, 48.8465521]}, "properties": {"osm_id": 10844133672, "osm_type": "node", "amenity": "place_of_worship", "contact:email": "france@happy-science.org", "name": "Happy Science", "opening_hours": "Tu-Su 10:30-17:30", "phone": "+33 9 50 40 11 10", "religion": "happy_science", "website": "https://www.happyscience-fr.org"}}, {"type": "Feature", "geometry": {"type": "Point", "coordinates": [7.806692, 48.7236129]}, "properties": {"osm_id": 11019544795, "osm_type": "node", "addr:postcode": "67720", "addr:street": "Du lavoir", "amenity": "place_of_worship", "check_date:opening_hours": "2024-08-06", "description": "Centre bouddhiste Nyingmapa en Alsace.", "email": "Gonpo.yeshe67@gmail.com", "name": "Yeshé Össel Ling", "opening_hours": "Mo-Su 09:00-18:00", "phone": "+33 6 13 69 89 44", "religion": "buddhist", "shop": "religion", "website": "http://yol67.blogspot.fr/?m=0"}}, {"type": "Feature", "geometry": {"type": "Point", "coordinates": [-1.1375552, 46.1408684]}, "properties": {"osm_id": 11040978163, "osm_type": "node", "amenity": "place_of_worship", "name": "Espace du phare", "wheelchair": "yes"}}, {"type": "Feature", "geometry": {"type": "Point", "coordinates": [2.3110973, 48.8790568]}, "properties": {"osm_id": 11102867810, "osm_type": "node", "amenity": "place_of_worship", "religion": "shinto"}}, {"type": "Feature", "geometry": {"type": "Point", "coordinates": [-2.195666, 47.5652447]}, "properties": {"osm_id": 11124444805, "osm_type": "node", "amenity": "place_of_worship"}}, {"type": "Feature", "geometry": {"type": "Point", "coordinates": [0.6316208, 44.2097051]}, "properties": {"osm_id": 11186112137, "osm_type": "node", "amenity": "place_of_worship", "name": "Église de Pompeyrie"}}, {"type": "Feature", "geometry": {"type": "Point", "coordinates": [1.0299092, 45.0238615]}, "properties": {"osm_id": 11233730384, "osm_type": "node", "amenity": "place_of_worship", "name": "Dhagpo Dedrol Ling", "religion": "buddhist"}}, {"type": "Feature", "geometry": {"type": "Point", "coordinates": [7.3243214, 48.5535587]}, "properties": {"osm_id": 11234083305, "osm_type": "node", "amenity": "place_of_worship"}}, {"type": "Feature", "geometry": {"type": "Point", "coordinates": [1.0794574, 45.0248348]}, "properties": {"osm_id": 11295857248, "osm_type": "node", "amenity": "place_of_worship", "religion": "buddhist"}}, {"type": "Feature", "geometry": {"type": "Point", "coordinates": [3.8741317, 43.6002374]}, "properties": {"osm_id": 11360708448, "osm_type": "node", "addr:housenumber": "9", "addr:street": "Rue des Blanquiers", "amenity": "place_of_worship", "name": "Synagogue Beth Menahem Mendel Lubavitch", "religion": "jewish"}}, {"type": "Feature", "geometry": {"type": "Point", "coordinates": [3.8763486, 43.6046765]}, "properties": {"osm_id": 11360708454, "osm_type": "node", "addr:housenumber": "7", "addr:street": "Rue Général Lafon", "amenity": "place_of_worship", "name": "Grande synagogue Ben Zakaï", "phone": "+33 4 67 92 92 07", "religion": "jewish", "url": "https://jguideeurope.org/fr/site/synagogue-ben-zakai-de-montpellier/"}}, {"type": "Feature", "geometry": {"type": "Point", "coordinates": [2.4991824, 48.710564]}, "properties": {"osm_id": 11368692436, "osm_type": "node", "amenity": "place_of_worship", "contact:email": "habadvaldyerres@gmail.com", "contact:phone": "+33 6 87 51 66 27", "denomination": "nondenominational", "name": "Beth habad val d'yerres", "ref:FR:SIRET": "53838909900010", "religion": "jewish"}}, {"type": "Feature", "geometry": {"type": "Point", "coordinates": [1.0402752, 45.0529815]}, "properties": {"osm_id": 11381373090, "osm_type": "node", "amenity": "place_of_worship", "religion": "buddhist"}}, {"type": "Feature", "geometry": {"type": "Point", "coordinates": [5.4833074, 43.403319]}, "properties": {"osm_id": 11399923155, "osm_type": "node", "amenity": "place_of_worship"}}, {"type": "Feature", "geometry": {"type": "Point", "coordinates": [2.4485998, 48.7397596]}, "properties": {"osm_id": 11657179493, "osm_type": "node", "amenity": "place_of_worship", "building": "temple", "religion": "hindu"}}, {"type": "Feature", "geometry": {"type": "Point", "coordinates": [5.5651059, 43.2940254]}, "properties": {"osm_id": 11682129485, "osm_type": "node", "amenity": "place_of_worship", "name": "Beth habad", "religion": "jewish"}}, {"type": "Feature", "geometry": {"type": "Point", "coordinates": [6.120336, 45.9071633]}, "properties": {"osm_id": 11903312296, "osm_type": "node", "addr:city": "Annecy", "addr:postcode": "74000", "amenity": "place_of_worship", "denomination": "orthodox", "name:signed": "no", "religion": "jewish", "website": "http://synagogueannecy.com/"}}, {"type": "Feature", "geometry": {"type": "Point", "coordinates": [-0.9284317, 47.0936376]}, "properties": {"osm_id": 11920616269, "osm_type": "node", "amenity": "place_of_worship", "contact:instagram": "trai_ratanakraingsey", "denomination": "theravada", "name": "Wat Trai-Ratanakraingsey", "religion": "buddhist", "survey:date": "2024-05-20"}}, {"type": "Feature", "geometry": {"type": "Point", "coordinates": [5.3999587, 49.1265926]}, "properties": {"osm_id": 12076678825, "osm_type": "node", "amenity": "place_of_worship"}}, {"type": "Feature", "geometry": {"type": "Point", "coordinates": [7.153763, 48.127753]}, "properties": {"osm_id": 12097347269, "osm_type": "node", "amenity": "place_of_worship", "man_made": "stupa", "name": "Stupa de la compation", "religion": "buddhist"}}, {"type": "Feature", "geometry": {"type": "Point", "coordinates": [5.3713592, 43.3030893]}, "properties": {"osm_id": 12156930603, "osm_type": "node", "amenity": "place_of_worship"}}, {"type": "Feature", "geometry": {"type": "Point", "coordinates": [4.0230945, 46.6204296]}, "properties": {"osm_id": 12188874407, "osm_type": "node", "amenity": "place_of_worship", "name": "Église St Thibault", "name:fr": "Église St Thibaud"}}, {"type": "Feature", "geometry": {"type": "Point", "coordinates": [2.3839991, 48.8547266]}, "properties": {"osm_id": 12189660891, "osm_type": "node", "addr:city": "Paris", "addr:housenumber": "4", "addr:postcode": "75011", "addr:street": "Cité du Couvent", "amenity": "place_of_worship", "name": "Grande Loge Féminine de France", "website": "https://www.glff.org/"}}, {"type": "Feature", "geometry": {"type": "Point", "coordinates": [3.0052145, 43.1856736]}, "properties": {"osm_id": 12231366435, "osm_type": "node", "amenity": "place_of_worship", "religion": "jewish", "website": "https://acin11.fr/"}}, {"type": "Feature", "geometry": {"type": "Point", "coordinates": [2.1429305, 43.9294091]}, "properties": {"osm_id": 12252426397, "osm_type": "node", "addr:city": "Albi", "addr:postcode": "81000", "addr:street": "Palais de la Berbie, Pl. Sainte-Cécile", "amenity": "place_of_worship", "name": "Musée Toulouse Lautrec"}}, {"type": "Feature", "geometry": {"type": "Point", "coordinates": [5.7190838, 45.1861468]}, "properties": {"osm_id": 12323085885, "osm_type": "node", "amenity": "place_of_worship", "name": "Synagogue CIG Bar Yohaï", "religion": "jewish"}}, {"type": "Feature", "geometry": {"type": "Point", "coordinates": [1.0495801, 45.0172791]}, "properties": {"osm_id": 12343790206, "osm_type": "node", "amenity": "place_of_worship", "name": "L'une Soleil"}}, {"type": "Feature", "geometry": {"type": "Point", "coordinates": [2.4193689, 48.8477608]}, "properties": {"osm_id": 12344838552, "osm_type": "node", "amenity": "place_of_worship", "name": "Centre Culturel Hatikva", "religion": "jewish"}}, {"type": "Feature", "geometry": {"type": "Point", "coordinates": [4.3377079, 46.874621]}, "properties": {"osm_id": 12368252311, "osm_type": "node", "amenity": "place_of_worship", "email": "associationzensoto@free.fr", "name": "Temple Zen Myô‑Unji", "phone": "+33 6 75 76 32 47", "religion": "buddhist", "service_times": "Th 07:45-08:30; Sa 09:00-10:30", "website": "https://www.zensotobourgogne.fr/"}}, {"type": "Feature", "geometry": {"type": "Point", "coordinates": [6.1763868, 49.1250662]}, "properties": {"osm_id": 12379212195, "osm_type": "node", "amenity": "place_of_worship", "contact:housenumber": "2", "contact:street": "Place Jean Spinga", "name": "Thar Deu Ling Metz", "office": "association", "ref:FR:SIRET": "52304882500013", "religion": "buddhist"}}, {"type": "Feature", "geometry": {"type": "Point", "coordinates": [5.6369427, 45.594952]}, "properties": {"osm_id": 12394853008, "osm_type": "node", "addr:housenumber": "105", "amenity": "place_of_worship", "denomination": "jehovahs_witness"}}, {"type": "Feature", "geometry": {"type": "Point", "coordinates": [6.1817501, 49.1017958]}, "properties": {"osm_id": 12492183747, "osm_type": "node", "amenity": "place_of_worship", "contact:email": "info@meditation-metz.org", "contact:facebook": "https://www.facebook.com/people/Centre-de-M%C3%A9ditation-Kadampa-Metz/100064273136287/", "contact:housenumber": "55", "contact:phone": "+33 7 49 49 99 82", "contact:street": "Rue Jacques Chirac", "contact:website": "https://www.meditation-metz.org/", "name": "Centre de Méditation Kadampa", "office": "association", "ref:FR:SIRET": "51229527000049", "religion": "buddhist"}}, {"type": "Feature", "geometry": {"type": "Point", "coordinates": [6.1716012, 48.6863349]}, "properties": {"osm_id": 12534030093, "osm_type": "node", "amenity": "place_of_worship", "name": "Lys dans la vallée", "religion": "branhamism", "wheelchair": "limited"}}, {"type": "Feature", "geometry": {"type": "Point", "coordinates": [5.0741962, 43.9148473]}, "properties": {"osm_id": 12545728127, "osm_type": "node", "amenity": "place_of_worship", "description": "Quartier Solaire L'Isle-sur-la-Sorgue", "name": "Quartier Solaire L'isle-sur-la-Sorgue", "source": "http://quartier-solaire.fr/wp-content/uploads/2025/01/Quartier-Solaire-Fav-1.png"}}, {"type": "Feature", "geometry": {"type": "Point", "coordinates": [7.5287394, 47.5990203]}, "properties": {"osm_id": 12591783583, "osm_type": "node", "amenity": "place_of_worship", "check_date": "2024-07-05", "name": "Praying room"}}, {"type": "Feature", "geometry": {"type": "Point", "coordinates": [5.6570642, 43.4545215]}, "properties": {"osm_id": 12609735102, "osm_type": "node", "amenity": "place_of_worship", "name": "Soka Gakkai Maison de L'Europe", "note": "Bureau, Restauration, Hébrgement", "religion": "buddhist"}}, {"type": "Feature", "geometry": {"type": "Point", "coordinates": [3.1529788, 50.6917496]}, "properties": {"osm_id": 12609941336, "osm_type": "node", "addr:city": "Roubaix", "addr:housenumber": "1", "addr:postcode": "59100", "addr:street": "Rue Favreuil", "amenity": "place_of_worship", "denomination": "theravada", "name": "Wat Bouddhabouxa", "name:fr": "Wat Bouddhabouxa", "name:th": "วัดพุทธบูชา", "name:th-Latn": "Wat Phutthabucha", "phone": "+33 3 20 28 58 70", "religion": "buddhist", "website": "http://watbouddhabouxa.free.fr", "wikidata": "Q13020779", "wikipedia": "th:วัดพุทธบูชา (ประเทศฝรั่งเศส)"}}, {"type": "Feature", "geometry": {"type": "Point", "coordinates": [2.643137, 48.854815]}, "properties": {"osm_id": 12609965920, "osm_type": "node", "addr:city": "Torcy", "addr:housenumber": "77", "addr:postcode": "77200", "addr:street": "Avenue du Président François Mitterrand", "amenity": "place_of_worship", "email": "watphradhammakayaparis@gmail.com", "name": "Wat Phra Dhammakaya Paris", "name:th": "วัดพระธรรมกายปารีส", "phone": "+33 1 64 68 38 33", "religion": "buddhist"}}, {"type": "Feature", "geometry": {"type": "Point", "coordinates": [-1.3897347, 48.0720583]}, "properties": {"osm_id": 12633545432, "osm_type": "node", "amenity": "place_of_worship", "name": "Foyer USDomagne", "religion": "football"}}, {"type": "Feature", "geometry": {"type": "Point", "coordinates": [4.8353124, 45.7656772]}, "properties": {"osm_id": 12714060844, "osm_type": "node", "addr:city": "Lyon", "addr:housenumber": "10", "addr:postcode": "69001", "addr:street": "Rue Mulet", "amenity": "place_of_worship", "denomination": "orthodox", "name": "Beth Habad Centre-Ville", "religion": "jewish"}}, {"type": "Feature", "geometry": {"type": "Point", "coordinates": [6.8212591, 48.6306676]}, "properties": {"osm_id": 12797684232, "osm_type": "node", "addr:city": "Igney", "addr:postcode": "54450", "amenity": "place_of_worship", "denomination": "catholic", "religion": "chrétient"}}, {"type": "Feature", "geometry": {"type": "Point", "coordinates": [1.0188869, 49.2854793]}, "properties": {"osm_id": 12816570209, "osm_type": "node", "amenity": "place_of_worship", "name": "Notre-Dame de Caudebèc"}}, {"type": "Feature", "geometry": {"type": "Point", "coordinates": [1.9404307, 46.1623566]}, "properties": {"osm_id": 12823717501, "osm_type": "node", "amenity": "place_of_worship", "denomination": "serbian_orthodox", "name": "L'arrivée", "religion": "buddhist", "service_times": "12h-22h"}}, {"type": "Feature", "geometry": {"type": "Point", "coordinates": [4.2967213, 43.6467254]}, "properties": {"osm_id": 12829747365, "osm_type": "node", "amenity": "place_of_worship", "name": "chinois", "religion": "hindu"}}, {"type": "Feature", "geometry": {"type": "Point", "coordinates": [4.8972222, 48.6272222]}, "properties": {"osm_id": 12870896934, "osm_type": "node", "amenity": "place_of_worship", "name": "Église d’Hoëricourt (vestiges)"}}, {"type": "Feature", "geometry": {"type": "Point", "coordinates": [1.453728, 43.6075196]}, "properties": {"osm_id": 12890586166, "osm_type": "node", "addr:city": "Toulouse", "addr:housenumber": "2", "addr:place": "Place Riquet", "addr:postcode": "31000", "amenity": "place_of_worship", "name": "Synagogue Hekhal David", "religion": "jewish"}}, {"type": "Feature", "geometry": {"type": "Point", "coordinates": [5.1332231, 48.1183728]}, "properties": {"osm_id": 12925999501, "osm_type": "node", "addr:street": "Rue des Tanneries", "amenity": "place_of_worship", "name": "parc Sainte Marie"}}, {"type": "Feature", "geometry": {"type": "Point", "coordinates": [2.3719852, 48.8311001]}, "properties": {"osm_id": 12996833616, "osm_type": "node", "addr:city": "Paris", "addr:housenumber": "9", "addr:postcode": "75000", "addr:street": "Rue Charcot", "amenity": "place_of_worship", "check_date": "2026-03-09", "name": "Dai Dojo de Sukyo Mahikari de Paris", "opening_hours": "Mo-Fr 09:00-19:00; Su 09:00-18:00", "phone": "+33 1 45 83 72 49", "website": "https://sukyomahikarifrance.com", "wheelchair": "yes"}}, {"type": "Feature", "geometry": {"type": "Point", "coordinates": [6.5488301, 47.0359191]}, "properties": {"osm_id": 13073912002, "osm_type": "node", "amenity": "place_of_worship"}}, {"type": "Feature", "geometry": {"type": "Point", "coordinates": [-2.2700634, 47.0267266]}, "properties": {"osm_id": 13159381230, "osm_type": "node", "amenity": "place_of_worship"}}, {"type": "Feature", "geometry": {"type": "Point", "coordinates": [2.2641609, 48.848473]}, "properties": {"osm_id": 13208826478, "osm_type": "node", "addr:city": "Paris", "addr:housenumber": "4", "addr:postcode": "75016", "addr:street": "Rue Girodet", "amenity": "place_of_worship", "name": "Centre Torat Haïm Girodet", "religion": "jewish", "website": "https://torathaim.org/"}}, {"type": "Feature", "geometry": {"type": "Point", "coordinates": [7.260007, 43.7078517]}, "properties": {"osm_id": 13376754372, "osm_type": "node", "amenity": "place_of_worship", "check_date": "2025-12-14", "name": "Église de Scientologie", "religion": "scientologist", "website": "https://www.scientologie-nice.org/"}}, {"type": "Feature", "geometry": {"type": "Point", "coordinates": [2.4118119, 48.9214521]}, "properties": {"osm_id": 13386889538, "osm_type": "node", "amenity": "place_of_worship", "name": "Sri Sabareesan", "religion": "hindu"}}, {"type": "Feature", "geometry": {"type": "Point", "coordinates": [1.8608421, 43.6625387]}, "properties": {"osm_id": 13414037859, "osm_type": "node", "addr:city": "Massac-Séran", "addr:housenumber": "180", "addr:postcode": "81500", "addr:street": "Route de Lavaur", "amenity": "place_of_worship", "denomination": "catholic", "name": "Couvent de Massac", "religion": "catholique"}}, {"type": "Feature", "geometry": {"type": "Point", "coordinates": [1.6845347, 44.4208693]}, "properties": {"osm_id": 13443586874, "osm_type": "node", "amenity": "place_of_worship"}}, {"type": "Feature", "geometry": {"type": "Point", "coordinates": [-0.8189831, 46.7945031]}, "properties": {"osm_id": 13452539041, "osm_type": "node", "amenity": "place_of_worship", "name": "églises"}}, {"type": "Feature", "geometry": {"type": "Point", "coordinates": [-0.8955702, 46.9623786]}, "properties": {"osm_id": 13520010150, "osm_type": "node", "amenity": "place_of_worship"}}, {"type": "Feature", "geometry": {"type": "Point", "coordinates": [0.6917449, 47.3846938]}, "properties": {"osm_id": 13531916354, "osm_type": "node", "amenity": "place_of_worship", "name": "DHAGPO Tours", "religion": "buddhist"}}, {"type": "Feature", "geometry": {"type": "Point", "coordinates": [5.0314642, 44.4781075]}, "properties": {"osm_id": 13536159577, "osm_type": "node", "addr:housenumber": "195", "addr:street": "Chemin du Rastelet", "amenity": "place_of_worship", "check_date": "2026-09-02", "email": "iktlda26@gmail.com", "name": "Institut Kadam Tcheuling Drôme-Ardèche", "religion": "buddhist", "start_date": "2008", "website": "https://sites.google.com/site/kadamtcheulingdromeardeche/accueil"}}, {"type": "Feature", "geometry": {"type": "Point", "coordinates": [-2.0881622, 47.4020748]}, "properties": {"osm_id": 13609581501, "osm_type": "node", "amenity": "place_of_worship", "check_date": "2026-03-01", "name": "Fontaine Saint-Second"}}, {"type": "Feature", "geometry": {"type": "Point", "coordinates": [6.8743283, 48.0056665]}, "properties": {"osm_id": 13640472343, "osm_type": "node", "amenity": "place_of_worship", "religion": "jewish"}}, {"type": "Feature", "geometry": {"type": "Point", "coordinates": [-1.6466794, 48.1096799]}, "properties": {"osm_id": 13647969221, "osm_type": "node", "amenity": "place_of_worship", "name": "Église catholique Marcel Callo"}}, {"type": "Feature", "geometry": {"type": "Point", "coordinates": [7.0282458, 43.5505124]}, "properties": {"osm_id": 13686005079, "osm_type": "node", "amenity": "place_of_worship", "name": "Holy Trinity church"}}, {"type": "Feature", "geometry": {"type": "Point", "coordinates": [2.4821247, 48.8185253]}, "properties": {"osm_id": 13702718383, "osm_type": "node", "amenity": "place_of_worship", "religion": "jewish"}}, {"type": "Feature", "geometry": {"type": "Point", "coordinates": [1.936989, 48.9285264]}, "properties": {"osm_id": 13724639723, "osm_type": "node", "amenity": "place_of_worship", "denomination": "evangelical", "email": "contact@ee-morainvilliers.org", "name": "Église Évangélique de Morainvilliers", "phone": "+33 1 72 54 14 78", "ref:FR:SIRET": "33835635500010", "website": "https://ee-morainvilliers.org"}}, {"type": "Feature", "geometry": {"type": "Point", "coordinates": [0.2050723, 47.984493]}, "properties": {"osm_id": 13743624212, "osm_type": "node", "amenity": "place_of_worship", "name": "Centre Évangelique Péniel"}}, {"type": "Feature", "geometry": {"type": "Point", "coordinates": [-1.0560388, 47.3340904]}, "properties": {"osm_id": 13817341613, "osm_type": "node", "amenity": "place_of_worship", "denomination": "eglise", "name": "EGLISE", "religion": "chretien"}}, {"type": "Feature", "geometry": {"type": "Point", "coordinates": [2.3592419, 48.789117]}, "properties": {"osm_id": 13825012873, "osm_type": "node", "amenity": "place_of_worship"}}, {"type": "Feature", "geometry": {"type": "Point", "coordinates": [0.3859324, 45.8928788]}, "properties": {"osm_id": 13830781601, "osm_type": "node", "addr:postcode": "16260", "addr:street": "Route de Mansle", "amenity": "place_of_worship", "name": "Ancien Temple protestant"}}, {"type": "Feature", "geometry": {"type": "Point", "coordinates": [2.2670203, 48.8563079]}, "properties": {"osm_id": 13843651727, "osm_type": "node", "addr:city": "Paris", "addr:housenumber": "133", "addr:postcode": "75016", "addr:street": "Rue du Ranelagh", "amenity": "place_of_worship", "name": "augustinogue", "religion": "jewish", "service_times": "24/24"}}, {"type": "Feature", "geometry": {"type": "Point", "coordinates": [2.2539404, 43.6017361]}, "properties": {"osm_id": 13865637001, "osm_type": "node", "addr:postcode": "81000", "addr:street": "Rue Mérigonde", "amenity": "place_of_worship", "name": "Eglise Adventiste du 7ème jour de Castres", "opening_hours": "Sa 09:45-12:30; Su off; Mo off; Tu off; We off; Th off; Fr off", "phone": "+33 9 73 50 73 43"}}, {"type": "Feature", "geometry": {"type": "Point", "coordinates": [2.2840963, 48.8876244]}, "properties": {"osm_id": 13901456308, "osm_type": "node", "addr:housenumber": "6 bis", "addr:postcode": "92300", "addr:street": "Rue Vergniaud", "amenity": "place_of_worship", "check_date": "2026-06-01", "name": "Rigpa", "phone": "+33146390102", "website": "https://rigpa.fr/paris"}}, {"type": "Feature", "geometry": {"type": "Point", "coordinates": [4.1409492, 46.7556969]}, "properties": {"osm_id": 13921840002, "osm_type": "node", "addr:housenumber": "5", "addr:postcode": "71320", "addr:street": "Route de Plaige", "amenity": "place_of_worship", "denomination": "tibetan", "female": "only", "name": "Nigouling", "religion": "buddhist"}}, {"type": "Feature", "geometry": {"type": "Point", "coordinates": [7.3338537, 47.745082]}, "properties": {"osm_id": 28851703, "osm_type": "way", "amenity": "place_of_worship", "building": "synagogue", "heritage": "3", "heritage:operator": "mhs", "mhs:inscription_date": "1984", "name": "Synagogue", "ref:mhs": "PA00085547", "religion": "jewish", "source:heritage": "data.gouv.fr:Ministère de la Culture - 04/2015", "wikidata": "Q2375217", "wikipedia": "fr:Synagogue de Mulhouse"}}, {"type": "Feature", "geometry": {"type": "Point", "coordinates": [2.6867162, 48.8818995]}, "properties": {"osm_id": 29225529, "osm_type": "way", "amenity": "place_of_worship", "building": "yes"}}, {"type": "Feature", "geometry": {"type": "Point", "coordinates": [7.4528856, 48.2579281]}, "properties": {"osm_id": 29457492, "osm_type": "way", "amenity": "place_of_worship", "building": "yes", "religion": "jewish"}}, {"type": "Feature", "geometry": {"type": "Point", "coordinates": [6.0214182, 47.2413566]}, "properties": {"osm_id": 32744591, "osm_type": "way", "amenity": "place_of_worship", "building": "synagogue", "heritage": "2", "heritage:operator": "mhs", "historic": "yes", "mhs:inscription_date": "1984-11-16", "name": "Synagogue de Besançon", "ref:mhs": "PA00101610", "religion": "jewish", "source": "cadastre-dgi-fr source : Direction Générale des Impôts - Cadastre ;mise à jour : 2009;data.gouv.fr:Ministère de la Culture - 08/2011", "source:heritage": "Ministère de la Culture - 06/2019", "wikidata": "Q1141086", "wikipedia": "fr:Synagogue de Besançon"}}, {"type": "Feature", "geometry": {"type": "Point", "coordinates": [5.7255043, 45.1819593]}, "properties": {"osm_id": 34572738, "osm_type": "way", "addr:housenumber": "11", "addr:street": "Rue André Maginot", "amenity": "place_of_worship", "building": "yes", "check_date": "2024-11-18", "name": "Synagogue ACJG Rachi", "ref:FR:RNB": "FS2CJ1TS4R5E", "religion": "jewish", "roof:colour": "#aeb5c2", "source": "cadastre-dgi-fr source : Direction Générale des Impôts - Cadastre. Mise à jour : 2009;https://www.grande-synagogue-de-grenoble.fr/", "wikidata": "Q101086115"}}, {"type": "Feature", "geometry": {"type": "Point", "coordinates": [7.7403924, 48.5908924]}, "properties": {"osm_id": 36269935, "osm_type": "way", "amenity": "place_of_worship", "building": "yes", "email": "zenstrasbourg@meditation-zen.org", "name": "Centre de bouddhisme zen", "phone": "+33 3 88 75 06 50", "religion": "buddhist", "source": "cadastre-dgi-fr source : Direction Générale des Impôts - Cadastre ; mise à jour : 2009"}}, {"type": "Feature", "geometry": {"type": "Point", "coordinates": [6.9508564, 48.2875807]}, "properties": {"osm_id": 38349126, "osm_type": "way", "amenity": "place_of_worship", "building": "synagogue", "religion": "jewish", "source": "cadastre-dgi-fr source : Direction Générale des Impôts - Cadastre. Mise à jour : 2009"}}, {"type": "Feature", "geometry": {"type": "Point", "coordinates": [7.7566634, 48.5902524]}, "properties": {"osm_id": 40142894, "osm_type": "way", "amenity": "place_of_worship", "building": "synagogue", "check_date": "2025-04-25", "name": "Synagogue de la Paix", "name:de": "Friedenssynagoge", "ref:FR:RNB": "SAT9EPWAZSS7", "religion": "jewish", "source": "cadastre-dgi-fr source : Direction Générale des Impôts - Cadastre;mise à jour : 2009", "wikidata": "Q3115137", "wikipedia": "fr:Grande synagogue de la Paix (Strasbourg 1958)"}}, {"type": "Feature", "geometry": {"type": "Point", "coordinates": [3.0656159, 50.6286082]}, "properties": {"osm_id": 40827911, "osm_type": "way", "amenity": "place_of_worship", "architect": "Hannottin", "architect:wikidata": "Q16218046", "architect:wikipedia": "fr:Théophile-Albert Hannotin", "building": "yes", "check_date": "2026-02-07", "heritage": "3", "heritage:operator": "mhs", "mhs:inscription_date": "1984-09-13", "name": "Synagogue", "ref:mhs": "PA00107727", "religion": "jewish", "source": "data.gouv.fr:Ministère de la Culture - 08/2011", "source:architect": "data.gouv.fr:Ministère de la Culture - 2022-01", "source:heritage": "data.gouv.fr:Ministère de la Culture - 04/2015", "start_date:fr": "4e quart 19e siècle", "wikidata": "Q3508056", "wikipedia": "fr:Synagogue de Lille"}}, {"type": "Feature", "geometry": {"type": "Point", "coordinates": [7.769264, 48.575439]}, "properties": {"osm_id": 40864625, "osm_type": "way", "addr:city": "Strasbourg", "addr:housenumber": "17", "addr:postcode": "67000", "addr:street": "Rue de Nicosie", "amenity": "place_of_worship", "building": "synagogue", "name": "Centre du Jour", "religion": "jewish", "source": "cadastre-dgi-fr source : Direction Générale des Impôts - Cadastre;mise à jour : 2009"}}, {"type": "Feature", "geometry": {"type": "Point", "coordinates": [7.7134178, 48.6009501]}, "properties": {"osm_id": 40926492, "osm_type": "way", "amenity": "place_of_worship", "building": "yes", "diff:ref:FR:RNB": "splitted", "name": "Synagogue de Cronenbourg", "name:de": "Synagoge Kronenburg", "ref:FR:RNB": "XD7CP79SH8PX", "religion": "jewish", "source": "cadastre-dgi-fr source : Direction Générale des Impôts - Cadastre ; mise à jour : 2009"}}, {"type": "Feature", "geometry": {"type": "Point", "coordinates": [7.6480834, 48.5853772]}, "properties": {"osm_id": 41260152, "osm_type": "way", "amenity": "place_of_worship", "religion": "jewish", "source": "cadastre-dgi-fr source : Direction Générale des Impôts - Cadastre ; mise à jour : 2009"}}, {"type": "Feature", "geometry": {"type": "Point", "coordinates": [7.5947377, 48.3704757]}, "properties": {"osm_id": 41279478, "osm_type": "way", "addr:city": "Benfeld", "addr:housenumber": "5", "addr:postcode": "67230", "addr:street": "Rue de la Dîme", "amenity": "place_of_worship", "building": "synagogue", "heritage": "3", "heritage:operator": "mhs", "mhs:inscription_date": "1984-10-08", "name": "Synagogue", "ref:mhs": "PA00084610", "religion": "jewish", "source": "cadastre-dgi-fr source : Direction Générale des Impôts - Cadastre. Mise à jour : 2009", "source:heritage": "data.gouv.fr, Ministère de la Culture - 2016", "start_date": "C19", "wikidata": "Q14627702", "wikipedia": "fr:Synagogue de Benfeld"}}, {"type": "Feature", "geometry": {"type": "Point", "coordinates": [3.0419917, 50.6252812]}, "properties": {"osm_id": 41290681, "osm_type": "way", "amenity": "place_of_worship", "building": "yes", "check_date": "2023-09-07", "name": "Temple antoiniste", "religion": "antoinist", "source": "cadastre-dgi-fr source : Direction Générale des Impôts - Cadastre;mise à jour : 2008"}}, {"type": "Feature", "geometry": {"type": "Point", "coordinates": [5.7320089, 45.3880032]}, "properties": {"osm_id": 41435290, "osm_type": "way", "addr:city": "Saint-Laurent-du-Pont", "addr:housenumber": "48", "addr:postcode": "38380", "addr:street": "Place de l'Église", "amenity": "place_of_worship", "building": "chapel", "name": "Chapelle Saint-Jean", "source": "cadastre-dgi-fr source : Direction Générale des Finances Publiques - Cadastre. Mise à jour : 2020", "wikidata": "Q60375605"}}, {"type": "Feature", "geometry": {"type": "Point", "coordinates": [2.3438876, 48.8936801]}, "properties": {"osm_id": 41506069, "osm_type": "way", "addr:housenumber": "13", "alt_name": "Synagogue Montmartre", "amenity": "place_of_worship", "building": "yes", "check_date": "2023-10-07", "name": "Synagogue de la rue Sainte-Isaure", "religion": "jewish", "start_date": "1939", "wikidata": "Q1589139", "wikipedia": "fr:Synagogue de la rue Sainte-Isaure"}}, {"type": "Feature", "geometry": {"type": "Point", "coordinates": [4.3654758, 43.8351994]}, "properties": {"osm_id": 41849247, "osm_type": "way", "amenity": "place_of_worship", "building": "yes", "name": "Synagogue", "religion": "jewish", "source": "cadastre-dgi-fr source : Direction Générale des Impôts - Cadastre. Mise à jour : 2009"}}, {"type": "Feature", "geometry": {"type": "Point", "coordinates": [5.0449138, 47.3174227]}, "properties": {"osm_id": 42049104, "osm_type": "way", "addr:city": "Dijon", "addr:housenumber": "5", "addr:postcode": "21000", "addr:street": "Rue de la Synagogue", "alt_name": "Synagogue Fondation Ed Kahn", "amenity": "place_of_worship", "building": "synagogue", "check_date": "2025-05-27", "heritage": "3", "heritage:operator": "mhs", "mhs:inscription_date": "1989-03-15", "name": "Synagogue de Dijon", "ref:mhs": "PA00112747", "religion": "jewish", "source": "Direction Générale des Finances Publiques - Cadastre. Mise à jour : 2016", "source:heritage": "data.gouv.fr:Ministère de la Culture - 04/2015", "start_date": "1873", "wikidata": "Q2375021", "wikipedia": "fr:Synagogue de Dijon"}}, {"type": "Feature", "geometry": {"type": "Point", "coordinates": [7.0869111, 48.9405788]}, "properties": {"osm_id": 42251247, "osm_type": "way", "addr:city": "Sarre-Union", "addr:housenumber": "15A", "addr:postcode": "67260", "addr:street": "Rue des Juifs", "amenity": "place_of_worship", "building": "yes", "name": "Synagogue de Sarre-Union", "religion": "jewish", "source": "cadastre-dgi-fr source : Direction Générale des Impôts - Cadastre;mise à jour : 2009"}}, {"type": "Feature", "geometry": {"type": "Point", "coordinates": [6.1788923, 48.6876677]}, "properties": {"osm_id": 42255313, "osm_type": "way", "amenity": "place_of_worship", "building": "yes", "heritage": "3", "heritage:operator": "mhs", "mhs:inscription_date": "1984-07-11", "name": "Synagogue", "ref:mhs": "PA00106319", "religion": "jewish", "source": "cadastre-dgi-fr source : Direction Générale des Impôts - Cadastre;mise à jour : 2009", "source:heritage": "Ministère de la Culture - 07/2018", "start_date": "1788", "wikidata": "Q3508070", "wikipedia": "fr:Synagogue de Nancy"}}, {"type": "Feature", "geometry": {"type": "Point", "coordinates": [2.3866038, 48.8433943]}, "properties": {"osm_id": 42311107, "osm_type": "way", "amenity": "place_of_worship", "building": "yes", "name": "Synagogue Chivté Israël", "religion": "jewish", "source": "cadastre-dgi-fr source : Direction Générale des Impôts - Cadastre ; mise à jour : 2009", "wikidata": "Q3507984"}}, {"type": "Feature", "geometry": {"type": "Point", "coordinates": [3.0484924, 45.760482]}, "properties": {"osm_id": 42412446, "osm_type": "way", "amenity": "place_of_worship"}}, {"type": "Feature", "geometry": {"type": "Point", "coordinates": [-1.6537555, 48.135571]}, "properties": {"osm_id": 43923070, "osm_type": "way", "addr:street": "Allée du Mont-Dol", "amenity": "place_of_worship", "building": "yes", "name": "Centre Edmond Safra", "name:br": "Kreizenn Edmond Safra", "name:fr": "Centre Edmond Safra", "religion": "jewish", "source": "cadastre-dgi-fr source : Direction Générale des Finances Publiques - Cadastre. Mise à jour : 2016", "source:name:br": "proper translation"}}, {"type": "Feature", "geometry": {"type": "Point", "coordinates": [7.7566719, 48.6123501]}, "properties": {"osm_id": 44046764, "osm_type": "way", "amenity": "place_of_worship", "building": "yes", "contact:city": "Bischheim", "contact:housenumber": "9", "contact:postcode": "67800", "contact:street": "Place de la Synagogue", "ref:FR:RNB": "9KCBKMJP4ECB", "religion": "jewish", "source": "Direction Générale des Finances Publiques - cadastre. Mise à jour : 2009"}}, {"type": "Feature", "geometry": {"type": "Point", "coordinates": [7.4487285, 48.6356591]}, "properties": {"osm_id": 44636364, "osm_type": "way", "amenity": "place_of_worship", "building": "synagogue", "religion": "jewish", "source": "cadastre-dgi-fr source : Direction Générale des Impôts - Cadastre. Mise à jour : 2009"}}, {"type": "Feature", "geometry": {"type": "Point", "coordinates": [-1.5888302, 47.2059036]}, "properties": {"osm_id": 45739602, "osm_type": "way", "amenity": "place_of_worship", "building": "yes", "name": "Temple antoiniste", "name:br": "Templ antonat", "religion": "antoinist", "source": "cadastre-dgi-fr source : Direction Générale des Impôts - Cadastre. Mise à jour : 2009", "wikidata": "Q60711014"}}, {"type": "Feature", "geometry": {"type": "Point", "coordinates": [7.4070465, 48.6447637]}, "properties": {"osm_id": 46601511, "osm_type": "way", "amenity": "place_of_worship", "building": "church", "religion": "jewish", "source": "cadastre-dgi-fr source : Direction Générale des Impôts - Cadastre. Mise à jour : 2009"}}, {"type": "Feature", "geometry": {"type": "Point", "coordinates": [7.4430667, 48.6049377]}, "properties": {"osm_id": 46836447, "osm_type": "way", "amenity": "place_of_worship", "building": "synagogue", "heritage": "3", "heritage:operator": "mhs", "mhs:inscription_date": "1990-10-30", "ref:mhs": "PA00085286", "religion": "jewish", "source": "cadastre-dgi-fr source : Direction Générale des Impôts - Cadastre. Mise à jour : 2010", "source:heritage": "data.gouv.fr, Ministère de la Culture - 2016", "start_date": "C19", "wikidata": "Q21976070", "wikipedia": "fr:Synagogue de Westhoffen"}}, {"type": "Feature", "geometry": {"type": "Point", "coordinates": [7.4392428, 48.58444]}, "properties": {"osm_id": 47069016, "osm_type": "way", "amenity": "place_of_worship", "building": "synagogue", "heritage": "3", "heritage:operator": "mhs", "mhs:inscription_date": "1999-02-10", "ref:mhs": "PA67000036", "religion": "jewish", "source": "cadastre-dgi-fr source : Direction Générale des Impôts - Cadastre. Mise à jour : 2010", "source:heritage": "data.gouv.fr, Ministère de la Culture - 2016", "start_date": "C19", "wikidata": "Q21979623", "wikipedia": "fr:Synagogue de Balbronn"}}, {"type": "Feature", "geometry": {"type": "Point", "coordinates": [7.3625013, 48.0769775]}, "properties": {"osm_id": 47600487, "osm_type": "way", "amenity": "place_of_worship", "building": "synagogue", "check_date": "2024-05-19", "heritage": "3", "heritage:operator": "mhs", "mhs:inscription_date": "1984-07-11", "name": "Synagogue", "name:de": "Synagoge", "name:zh": "科尔马犹太会堂", "ref:mhs": "PA00085409", "religion": "jewish", "source": "cadastre-dgi-fr source : Direction Générale des Impôts - Cadastre. Mise à jour : 2010", "source:heritage": "data.gouv.fr:Ministère de la Culture - 04/2015", "wikidata": "Q2375013", "wikipedia": "fr:Synagogue de Colmar"}}, {"type": "Feature", "geometry": {"type": "Point", "coordinates": [7.7471012, 48.5468506]}, "properties": {"osm_id": 47722300, "osm_type": "way", "amenity": "place_of_worship", "building": "synagogue", "religion": "jewish", "source": "cadastre-dgi-fr source : Direction Générale des Impôts - Cadastre. Mise à jour : 2010"}}, {"type": "Feature", "geometry": {"type": "Point", "coordinates": [7.7907661, 48.813943]}, "properties": {"osm_id": 48623909, "osm_type": "way", "amenity": "place_of_worship", "building": "synagogue", "check_date": "2024-11-06", "heritage": "3", "heritage:operator": "mhs", "mhs:inscription_date": "1984-08-29", "name": "Synagogue", "name:de": "Synagoge", "ref:mhs": "PA00084740", "religion": "jewish", "source": "Direction Générale des Finances Publiques - Cadastre;mise à jour : 2010", "source:heritage": "data.gouv.fr, Ministère de la Culture - 2016", "start_date": "C19", "wikidata": "Q1485934", "wikipedia": "fr:Synagogue de Haguenau"}}, {"type": "Feature", "geometry": {"type": "Point", "coordinates": [3.3338121, 46.5460374]}, "properties": {"osm_id": 49272493, "osm_type": "way", "amenity": "place_of_worship", "building": "yes", "source": "cadastre-dgi-fr source : Direction Générale des Impôts - Cadastre. Mise à jour : 2020"}}, {"type": "Feature", "geometry": {"type": "Point", "coordinates": [2.3668811, 48.8553095]}, "properties": {"osm_id": 49734642, "osm_type": "way", "amenity": "place_of_worship", "building": "yes", "check_date": "2025-05-01", "denomination": "ashkenazi", "heritage": "2", "heritage:operator": "mhs", "mhs:inscription_date": "1987-12-29", "name": "Synagogue de la rue des Tournelles", "ref:mhs": "PA00086478", "religion": "jewish", "source": "Direction générales des finances publiques - année 2010", "source:heritage": "data.gouv.fr:Ministère de la Culture - 04/2015", "wikidata": "Q1129979", "wikipedia": "fr:Synagogue de la rue des Tournelles"}}, {"type": "Feature", "geometry": {"type": "Point", "coordinates": [7.3542884, 48.0863228]}, "properties": {"osm_id": 49901575, "osm_type": "way", "amenity": "place_of_worship", "building": "yes", "name": "Dojo Zen de colmar", "religion": "buddhist", "roof:shape": "flat", "source": "cadastre-dgi-fr source : Direction Générale des Impôts - Cadastre. Mise à jour : 2010"}}, {"type": "Feature", "geometry": {"type": "Point", "coordinates": [7.3632921, 48.086303]}, "properties": {"osm_id": 50127873, "osm_type": "way", "amenity": "place_of_worship", "building": "yes", "name": "Kagyu Dakshang Tcheu Ling", "religion": "buddhist", "source": "cadastre-dgi-fr source : Direction Générale des Impôts - Cadastre. Mise à jour : 2010"}}, {"type": "Feature", "geometry": {"type": "Point", "coordinates": [5.716998, 45.1783405]}, "properties": {"osm_id": 50211613, "osm_type": "way", "addr:housenumber": "24", "addr:street": "Rue Sidi-Brahim", "amenity": "place_of_worship", "building": "apartments", "building:levels": "2", "name": "Centre d'Études Juives", "phone": "+33 4 76 21 13 94", "religion": "jewish", "roof:levels": "0", "roof:shape": "many", "source": "cadastre-dgi-fr source : Direction Générale des Impôts - Cadastre. Mise à jour : 2010", "website": "https://bethalimoud.com/"}}, {"type": "Feature", "geometry": {"type": "Point", "coordinates": [7.3322915, 48.0706473]}, "properties": {"osm_id": 51721689, "osm_type": "way", "amenity": "place_of_worship", "building": "yes", "name": "Djangtchoub Samten Gomdra Tcheulin", "religion": "buddhist", "source": "cadastre-dgi-fr source : Direction Générale des Impôts - Cadastre. Mise à jour : 2010"}}, {"type": "Feature", "geometry": {"type": "Point", "coordinates": [7.3337564, 48.05782]}, "properties": {"osm_id": 52111344, "osm_type": "way", "amenity": "place_of_worship", "contact:city": "Colmar", "contact:housenumber": "112a", "contact:postcode": "68000", "contact:street": "Route de Rouffach", "contact:website": "https://www.jw.org", "name": "Salle du Royaume des Témoins de Jéhovah", "source": "cadastre-dgi-fr source : Direction Générale des Impôts - Cadastre. Mise à jour : 2010"}}, {"type": "Feature", "geometry": {"type": "Point", "coordinates": [1.406138, 43.5860049]}, "properties": {"osm_id": 52506905, "osm_type": "way", "amenity": "place_of_worship", "building": "synagogue", "name": "Synagogue Chaare Emeth", "religion": "jewish", "source": "cadastre-dgi-fr source : Direction Générale des Impôts - Cadastre. Mise à jour : 2010"}}, {"type": "Feature", "geometry": {"type": "Point", "coordinates": [7.3912821, 48.0790659]}, "properties": {"osm_id": 54035724, "osm_type": "way", "amenity": "place_of_worship", "building": "yes", "name": "Synagogue", "religion": "jewish", "source": "cadastre-dgi-fr source : Direction Générale des Impôts - Cadastre. Mise à jour : 2010"}}, {"type": "Feature", "geometry": {"type": "Point", "coordinates": [2.3048903, 48.8473922]}, "properties": {"osm_id": 54117312, "osm_type": "way", "addr:housenumber": "14", "addr:postcode": "75015", "addr:street": "Chasseloup Laubat", "amenity": "place_of_worship", "building": "synagogue", "building:levels": "1", "check_date": "2025-06-21", "denomination": "jewish", "name": "Synagoge Chasseloup-Laubat", "phone": "+33 1 42 73 36 29", "religion": "jewish", "source": "cadastre-dgi-fr source : Direction Générale des Impôts - Cadastre;mise à jour : 2010", "website": "https://www.consistoire.org/chasseloup/", "wikidata": "Q1130752"}}, {"type": "Feature", "geometry": {"type": "Point", "coordinates": [2.3606794, 48.8559322]}, "properties": {"osm_id": 56040608, "osm_type": "way", "amenity": "place_of_worship", "architect": "Hector Guimard", "architect:wikipedia": "fr:Hector Guimard", "building": "church", "building:levels": "5", "check_date": "2025-03-06", "heritage": "3", "heritage:operator": "mhs", "mhs:inscription_date": "1989-07-04", "name": "Synagogue", "ref:mhs": "PA00086477", "religion": "jewish", "source": "cadastre-dgi-fr source : Direction Générale des Impôts - Cadastre. Mise à jour : 2010", "source:heritage": "data.gouv.fr:Ministère de la Culture - 08/2011", "start_date": "1913", "wikidata": "Q1567790", "wikipedia": "fr:Synagogue de la rue Pavée"}}, {"type": "Feature", "geometry": {"type": "Point", "coordinates": [2.3599226, 48.8669091]}, "properties": {"osm_id": 56435813, "osm_type": "way", "amenity": "place_of_worship", "architect": "J. A. Thierry", "building": "yes", "denomination": "sephardi", "heritage": "2", "heritage:operator": "mhs", "mhs:inscription_date": "2019-04-29", "name": "Synagogue Nazareth", "ref:mhs": "PA00086234", "religion": "jewish", "source": "cadastre-dgi-fr source : Direction Générale des Impôts - Cadastre. Mise à jour : 2010", "source:heritage": "data.gouv.fr:Ministère de la Culture - 2025-02", "start_date": "1852", "wikidata": "Q1567798", "wikipedia": "fr:Synagogue Nazareth"}}, {"type": "Feature", "geometry": {"type": "Point", "coordinates": [2.3476178, 48.8410205]}, "properties": {"osm_id": 56693739, "osm_type": "way", "amenity": "place_of_worship", "building": "yes", "name": "Synagogue Vauquelin", "religion": "jewish", "source": "http://www.synagoguevauquelin.com/"}}, {"type": "Feature", "geometry": {"type": "Point", "coordinates": [2.3404828, 48.8525619]}, "properties": {"osm_id": 57379645, "osm_type": "way", "amenity": "place_of_worship", "religion": "jewish", "source": "cadastre-dgi-fr source : Direction Générale des Impôts - Cadastre ; mise à jour : 2010"}}, {"type": "Feature", "geometry": {"type": "Point", "coordinates": [7.2187347, 48.4773902]}, "properties": {"osm_id": 59326052, "osm_type": "way", "amenity": "place_of_worship", "building": "yes", "heritage": "3", "heritage:operator": "mhs", "mhs:inscription_date": "1999", "name": "Synagogue de Schirmeck", "ref:mhs": "PA67000033", "religion": "jewish", "source": "data.gouv.fr:Ministère de la Culture - 08/2011", "wikidata": "Q21980398", "wikipedia": "fr:Synagogue de Schirmeck"}}, {"type": "Feature", "geometry": {"type": "Point", "coordinates": [7.7579585, 48.6354092]}, "properties": {"osm_id": 59639542, "osm_type": "way", "addr:housename": "Wat Simoungkhoune", "amenity": "place_of_worship", "building": "temple", "building:levels": "1", "check_date": "2024-06-09", "denomination": "theravada", "religion": "buddhist", "roof:shape": "mansard", "source": "Direction Générale des Finances Publiques - Cadastre ; mise à jour : 2010", "wheelchair": "yes"}}, {"type": "Feature", "geometry": {"type": "Point", "coordinates": [7.7583107, 48.6354742]}, "properties": {"osm_id": 59639552, "osm_type": "way", "amenity": "place_of_worship", "building": "temple", "building:levels": "1", "check_date": "2024-06-09", "denomination": "theravada", "religion": "buddhist", "roof:shape": "mansard", "source": "Direction Générale des Finances Publiques - Cadastre ; mise à jour : 2010", "wheelchair": "yes"}}, {"type": "Feature", "geometry": {"type": "Point", "coordinates": [7.6673254, 48.5835291]}, "properties": {"osm_id": 60261537, "osm_type": "way", "amenity": "place_of_worship", "name": "Synagogue", "religion": "jewish", "source": "Direction Générale des Finances Publiques - cadastre. Mise à jour : 2010"}}, {"type": "Feature", "geometry": {"type": "Point", "coordinates": [4.892506, 44.9320814]}, "properties": {"osm_id": 60708189, "osm_type": "way", "amenity": "place_of_worship", "building": "synagogue", "check_date": "2023-10-06", "name": "Synagogue", "religion": "jewish", "source": "cadastre-dgi-fr source : Direction Générale des Finances Publiques - Cadastre. Mise à jour : 2017"}}, {"type": "Feature", "geometry": {"type": "Point", "coordinates": [7.3692346, 48.7457769]}, "properties": {"osm_id": 61416892, "osm_type": "way", "addr:city": "Saverne", "addr:housenumber": "24 B", "addr:postcode": "67700", "addr:street": "Rue de Monswiller", "amenity": "place_of_worship", "building": "yes", "name": "Eglise Evangélique Perspectives de Saverne", "source": "cadastre-dgi-fr source : Direction Générale des Impôts - Cadastre. Mise à jour : 2010", "website": "https://eglise-perspectives-saverne.com/"}}, {"type": "Feature", "geometry": {"type": "Point", "coordinates": [4.8632597, 45.7425196]}, "properties": {"osm_id": 62351497, "osm_type": "way", "addr:street": "Rue Saint-Mathieu", "amenity": "place_of_worship", "building": "yes", "check_date": "2026-05-02", "email": "chaare@free.fr", "name": "Synagogue Chaaré Tsédek", "phone": "+33 4 78 00 72 50", "religion": "jewish"}}, {"type": "Feature", "geometry": {"type": "Point", "coordinates": [2.330533, 48.9326939]}, "properties": {"osm_id": 62395683, "osm_type": "way", "amenity": "place_of_worship", "building": "yes", "name": "Synagogue", "religion": "jewish", "source": "cadastre-dgi-fr source : Direction Générale des Impôts - Cadastre. Mise à jour : 2010"}}, {"type": "Feature", "geometry": {"type": "Point", "coordinates": [2.4213301, 48.7976856]}, "properties": {"osm_id": 62563454, "osm_type": "way", "amenity": "place_of_worship", "building": "yes", "religion": "jewish", "source": "cadastre-dgi-fr source : Direction Générale des Impôts - Cadastre. Mise à jour : 2010"}}, {"type": "Feature", "geometry": {"type": "Point", "coordinates": [2.4153547, 48.8284748]}, "properties": {"osm_id": 62819091, "osm_type": "way", "amenity": "place_of_worship", "building": "yes", "name": "Pagode de Vincennes", "name:ru": "Венсенская пагода", "name:uk": "Венсенська пагода", "religion": "buddhist", "source": "cadastre-dgi-fr source : Direction Générale des Impôts - Cadastre. Mise à jour : 2010", "wheelchair": "yes", "wikidata": "Q2985016", "wikipedia": "fr:Pagode de Vincennes"}}, {"type": "Feature", "geometry": {"type": "Point", "coordinates": [6.8269372, 47.6316745]}, "properties": {"osm_id": 62915513, "osm_type": "way", "addr:housenumber": "12A", "addr:postcode": "90850", "addr:street": "Rue du Port", "amenity": "place_of_worship", "building": "yes", "email": "contact@acbm-fc.org", "name": "ACBM", "source": "cadastre-dgi-fr source : Direction Générale des Impôts - Cadastre. Mise à jour : 2010", "website": "https://acbm-fc.org/"}}, {"type": "Feature", "geometry": {"type": "Point", "coordinates": [-0.3746331, 43.3016578]}, "properties": {"osm_id": 62925204, "osm_type": "way", "amenity": "place_of_worship", "building": "synagogue", "name": "Synagogue de Pau", "phone": "+33 5 59 62 37 85", "religion": "jewish", "source": "cadastre-dgi-fr source : Direction Générale des Impôts - Cadastre. Mise à jour : 2010", "website": "https://www.synagogue-pau.fr/"}}, {"type": "Feature", "geometry": {"type": "Point", "coordinates": [5.7499443, 45.2123505]}, "properties": {"osm_id": 63200605, "osm_type": "way", "amenity": "place_of_worship", "building": "chapel", "building:levels": "1", "name": "Chapelle du Rondeau-Monfleury", "roof:shape": "gabled", "source": "cadastre-dgi-fr source : Direction Générale des Impôts - Cadastre. Mise à jour : 2010", "wikidata": "Q108052306"}}, {"type": "Feature", "geometry": {"type": "Point", "coordinates": [2.3733068, 48.8825966]}, "properties": {"osm_id": 63212274, "osm_type": "way", "amenity": "place_of_worship", "building": "synagogue", "name": "Synagogue Michkenot Israël", "religion": "jewish", "source": "cadastre-dgi-fr source : Direction Générale des Impôts - Cadastre. Mise à jour : 2010", "wikidata": "Q3507993"}}, {"type": "Feature", "geometry": {"type": "Point", "coordinates": [2.3975957, 48.878948]}, "properties": {"osm_id": 63234870, "osm_type": "way", "amenity": "place_of_worship", "building": "yes", "building:levels": "2", "check_date": "2026-02-23", "name": "Temple Antoiniste", "religion": "antoinist", "source": "cadastre-dgi-fr source : Direction Générale des Impôts - Cadastre. Mise à jour : 2010", "wikidata": "Q67182855"}}, {"type": "Feature", "geometry": {"type": "Point", "coordinates": [4.3770035, 45.4563019]}, "properties": {"osm_id": 63279249, "osm_type": "way", "amenity": "place_of_worship", "building": "yes", "contact:website": "http://www.zen-saint-etienne.fr", "denomination": "zen", "name": "Dojo Zen de Saint-Étienne", "religion": "buddhist", "source": "cadastre-dgi-fr source : Direction Générale des Impôts - Cadastre. Mise à jour : 2014"}}, {"type": "Feature", "geometry": {"type": "Point", "coordinates": [4.3765107, 45.4569021]}, "properties": {"osm_id": 63303532, "osm_type": "way", "amenity": "place_of_worship", "building": "yes", "check_date": "2025-01-27", "name": "Temple antoiniste", "religion": "antoinist", "source": "cadastre-dgi-fr source : Direction Générale des Impôts - Cadastre. Mise à jour : 2010"}}, {"type": "Feature", "geometry": {"type": "Point", "coordinates": [1.4297559, 43.5929244]}, "properties": {"osm_id": 63570279, "osm_type": "way", "addr:city": "Toulouse", "addr:housenumber": "14", "addr:postcode": "31300", "addr:street": "Rue de Cherbourg", "amenity": "place_of_worship", "building": "yes", "check_date": "2026-03-29", "name": "Temple antoiniste", "religion": "antoinist", "source": "cadastre-dgi-fr source : Direction Générale des Impôts - Cadastre. Mise à jour : 2010"}}, {"type": "Feature", "geometry": {"type": "Point", "coordinates": [5.9463992, 45.2896052]}, "properties": {"osm_id": 63586519, "osm_type": "way", "amenity": "place_of_worship", "building": "church", "name": "Église Saint-Pierre", "source": "cadastre-dgi-fr source : Direction Générale des Impôts - Cadastre. Mise à jour : 2010", "wikidata": "Q41765487"}}, {"type": "Feature", "geometry": {"type": "Point", "coordinates": [0.0773965, 49.3615244]}, "properties": {"osm_id": 63616614, "osm_type": "way", "amenity": "place_of_worship", "building": "synagogue", "religion": "jewish", "source": "cadastre-dgi-fr source : Direction Générale des Impôts - Cadastre. Mise à jour : 2010;AUCAM 2013-01"}}, {"type": "Feature", "geometry": {"type": "Point", "coordinates": [1.0890672, 49.4444268]}, "properties": {"osm_id": 63635984, "osm_type": "way", "addr:housenumber": "55", "amenity": "place_of_worship", "architect": "François Herr;Robert Duménil;François Gilbert", "architect:wikidata": "Q3084847", "architect:wikipedia": "fr:François Herr", "check_date": "2026-05-13", "name": "Synagogue", "note": "Labellisé Architecture contemporaine remarquable ACR0000935", "religion": "jewish", "source": "cadastre-dgi-fr source : Direction Générale des Impôts - Cadastre. Mise à jour : 2010", "start_date": "1950", "wikidata": "Q18594013", "wikipedia": "fr:Synagogue de Rouen"}}, {"type": "Feature", "geometry": {"type": "Point", "coordinates": [2.3763612, 48.8559243]}, "properties": {"osm_id": 63640089, "osm_type": "way", "amenity": "place_of_worship", "architect": "Arthur-Georges Héaume;Alexandre Persitz;René Sarger", "architect:wikidata": "Q22211462;Q22826541;Q15783549", "architect:wikipedia": "fr:Arthur-Georges Héaume", "building": "synagogue", "building:levels": "3", "check_date": "2024-12-01", "name": "Synagogue Don Isaac Abravanel", "note": "Labellisé Architecture contemporaine remarquable ACR0000693", "religion": "jewish", "source": "cadastre-dgi-fr source : Direction Générale des Impôts - Cadastre. Mise à jour : 2010", "source:architect": "data.culture.gouv.fr:Ministère de la Culture - Direction générale du Patrimoine et de l’Architecture - 2021-05", "start_date": "1974", "wikidata": "Q1663837", "wikipedia": "fr:Synagogue Don Isaac Abravanel"}}, {"type": "Feature", "geometry": {"type": "Point", "coordinates": [2.4440448, 48.6274436]}, "properties": {"osm_id": 63777950, "osm_type": "way", "amenity": "place_of_worship", "building": "yes", "name": "Pagode Khánh-Anh", "religion": "buddhist", "source": "cadastre-dgi-fr source : Direction Générale des Impôts - Cadastre. Mise à jour : 2010", "wikidata": "Q3246658", "wikipedia": "fr:Pagode Khánh-Anh"}}, {"type": "Feature", "geometry": {"type": "Point", "coordinates": [2.3545832, 48.9348369]}, "properties": {"osm_id": 63981084, "osm_type": "way", "amenity": "place_of_worship", "building": "synagogue", "religion": "jewish", "source": "cadastre-dgi-fr source : Direction Générale des Impôts - Cadastre. Mise à jour : 2010"}}, {"type": "Feature", "geometry": {"type": "Point", "coordinates": [2.3395987, 48.9428284]}, "properties": {"osm_id": 63994833, "osm_type": "way", "amenity": "place_of_worship", "building": "yes", "source": "cadastre-dgi-fr source : Direction Générale des Impôts - Cadastre. Mise à jour : 2010"}}, {"type": "Feature", "geometry": {"type": "Point", "coordinates": [2.743085, 42.6270681]}, "properties": {"osm_id": 64068832, "osm_type": "way", "amenity": "place_of_worship", "building": "yes", "source": "cadastre-dgi-fr source : Direction Générale des Impôts - Cadastre. Mise à jour : 2010"}}, {"type": "Feature", "geometry": {"type": "Point", "coordinates": [2.36911, 48.8033791]}, "properties": {"osm_id": 64411151, "osm_type": "way", "amenity": "place_of_worship", "building": "ora", "check_date": "2025-12-07", "name": "Oratoire Beth Yoel", "religion": "jewish", "source": "cadastre-dgi-fr source : Direction Générale des Impôts - Cadastre. Mise à jour : 2010"}}, {"type": "Feature", "geometry": {"type": "Point", "coordinates": [6.0170474, 45.3670954]}, "properties": {"osm_id": 64745610, "osm_type": "way", "amenity": "place_of_worship", "building": "church", "name": "Église Saint-Michel", "source": "cadastre-dgi-fr source : Direction Générale des Impôts - Cadastre. Mise à jour : 2010", "wikidata": "Q60389274"}}, {"type": "Feature", "geometry": {"type": "Point", "coordinates": [6.1805326, 49.1232007]}, "properties": {"osm_id": 64830144, "osm_type": "way", "amenity": "place_of_worship", "building": "synagogue", "check_date": "2025-12-27", "heritage": "3", "heritage:operator": "mhs", "mhs:inscription_date": "1984-12-06", "name": "Synagogue", "ref:mhs": "PA00106918", "religion": "jewish", "source": "cadastre-dgi-fr source : Direction Générale des Impôts - Cadastre. Mise à jour : 2010", "source:heritage": "data.gouv.fr:Ministère de la Culture - 04/2015", "wikidata": "Q3508061", "wikipedia": "fr:Synagogue de Metz"}}, {"type": "Feature", "geometry": {"type": "Point", "coordinates": [2.2412294, 48.9041179]}, "properties": {"osm_id": 64882943, "osm_type": "way", "amenity": "place_of_worship", "building": "yes", "religion": "jewish", "source": "cadastre-dgi-fr source : Direction Générale des Impôts - Cadastre. Mise à jour : 2010"}}, {"type": "Feature", "geometry": {"type": "Point", "coordinates": [1.0584822, 49.4527968]}, "properties": {"osm_id": 64919647, "osm_type": "way", "amenity": "place_of_worship", "building": "yes", "name": "Temple antoiniste", "religion": "antoinist", "source": "cadastre-dgi-fr source : Direction Générale des Impôts - Cadastre. Mise à jour : 2010", "wikidata": "Q113814888"}}, {"type": "Feature", "geometry": {"type": "Point", "coordinates": [5.7729462, 47.9192571]}, "properties": {"osm_id": 64920149, "osm_type": "way", "amenity": "place_of_worship", "building": "chapel", "check_date": "2025-06-23", "name": "Chapelle de Villars", "source": "cadastre-dgi-fr source : Direction Générale des Impôts - Cadastre. Mise à jour : 2010"}}, {"type": "Feature", "geometry": {"type": "Point", "coordinates": [4.8508844, 45.7515163]}, "properties": {"osm_id": 64930509, "osm_type": "way", "addr:city": "Lyon", "addr:housenumber": "317", "addr:postcode": "69007", "addr:street": "Rue Duguesclin", "amenity": "place_of_worship", "building": "yes", "check_date": "2024-12-04", "denomination": "orthodox", "name": "Neveh Chalom Synagogue", "operator": "Consistoire Juif Régional de Lyon", "religion": "jewish", "source": "cadastre-dgi-fr source : Direction Générale des Impôts - Cadastre. Mise à jour : 2010", "website": "https://www.nevehchalom.fr/"}}, {"type": "Feature", "geometry": {"type": "Point", "coordinates": [7.0212465, 43.5546924]}, "properties": {"osm_id": 65126549, "osm_type": "way", "addr:housenumber": "20", "addr:street": "Boulevard d'Alsace", "amenity": "place_of_worship", "building": "yes", "name": "Grande Synagogue de Cannes", "phone": "+33 4 93381654", "religion": "jewish", "source": "cadastre-dgi-fr source : Direction Générale des Impôts - Cadastre. Mise à jour : 2010"}}, {"type": "Feature", "geometry": {"type": "Point", "coordinates": [0.2062081, 47.9965248]}, "properties": {"osm_id": 65548122, "osm_type": "way", "amenity": "place_of_worship", "building": "synagogue", "religion": "jewish", "source": "cadastre-dgi-fr source : Direction Générale des Impôts - Cadastre ; mise à jour : 2010", "wikidata": "Q101086116", "wikipedia": "fr:Synagogue du Mans"}}, {"type": "Feature", "geometry": {"type": "Point", "coordinates": [4.952346, 48.6382119]}, "properties": {"osm_id": 65685912, "osm_type": "way", "amenity": "place_of_worship", "building": "yes", "building:levels": "2", "name": "Synagogue", "religion": "jewish", "source": "cadastre-dgi-fr source : Direction Générale des Impôts - Cadastre. Mise à jour : 2010"}}, {"type": "Feature", "geometry": {"type": "Point", "coordinates": [5.2965988, 43.5391611]}, "properties": {"osm_id": 65724775, "osm_type": "way", "amenity": "place_of_worship", "source": "cadastre-dgi-fr source : Direction Générale des Impôts - Cadastre. Mise à jour : 2010"}}, {"type": "Feature", "geometry": {"type": "Point", "coordinates": [2.4040614, 48.7627454]}, "properties": {"osm_id": 66127366, "osm_type": "way", "amenity": "place_of_worship", "building": "yes", "name": "Pagode Dhammabhirom", "religion": "buddhist", "source": "extraction vectorielle v1 cadastre-dgi-fr source : Direction Générale des Impôts - Cadas. Mise à jour : 2010"}}, {"type": "Feature", "geometry": {"type": "Point", "coordinates": [2.4171965, 48.7637577]}, "properties": {"osm_id": 66149014, "osm_type": "way", "amenity": "place_of_worship", "building": "yes", "name": "Pagode Bouddhametta", "religion": "buddhist", "source": "extraction vectorielle v1 cadastre-dgi-fr source : Direction Générale des Impôts - Cadas. Mise à jour : 2010"}}, {"type": "Feature", "geometry": {"type": "Point", "coordinates": [2.410846, 48.7552647]}, "properties": {"osm_id": 66149428, "osm_type": "way", "amenity": "place_of_worship", "building": "yes", "name": "Synagogue Ben Ich Haï", "religion": "jewish", "source": "cadastre-dgi-fr source : Direction Générale des Impôts - Cadastre. Mise à jour : 2009"}}, {"type": "Feature", "geometry": {"type": "Point", "coordinates": [4.0870583, 43.563156]}, "properties": {"osm_id": 66621947, "osm_type": "way", "amenity": "place_of_worship", "building": "synagogue", "name": "Synagogue Beth Yaacov Atlan", "religion": "jewish", "source": "extraction vectorielle v1 cadastre-dgi-fr source : Direction Générale des Impôts - Cadas. Mise à jour : 2010"}}, {"type": "Feature", "geometry": {"type": "Point", "coordinates": [5.4317858, 45.5228893]}, "properties": {"osm_id": 66736185, "osm_type": "way", "amenity": "place_of_worship", "building": "yes", "source": "cadastre-dgi-fr source : Direction Générale des Impôts - Cadastre. Mise à jour : 2010"}}, {"type": "Feature", "geometry": {"type": "Point", "coordinates": [5.3944181, 45.540146]}, "properties": {"osm_id": 66748107, "osm_type": "way", "amenity": "place_of_worship", "building": "chapel", "historic": "chapel", "name": "Chapelle Saint-Roch", "source": "cadastre-dgi-fr source : Direction Générale des Impôts - Cadastre. Mise à jour : 2010", "wikidata": "Q60386916"}}, {"type": "Feature", "geometry": {"type": "Point", "coordinates": [-1.7840658, 47.997994]}, "properties": {"osm_id": 66859892, "osm_type": "way", "amenity": "place_of_worship", "building": "yes", "name": "Chapelle", "source": "cadastre-dgi-fr source : Direction Générale des Impôts - Cadastre. Mise à jour : 2010"}}, {"type": "Feature", "geometry": {"type": "Point", "coordinates": [6.5968259, 46.4001797]}, "properties": {"osm_id": 66976396, "osm_type": "way", "addr:street": "Avenue des Grottes", "amenity": "place_of_worship", "building": "yes", "name": "Synagogue d'Evian", "religion": "jewish", "source": "extraction vectorielle v1 cadastre-dgi-fr source : Direction Générale des Impôts - Cadas. Mise à jour : 2010"}}, {"type": "Feature", "geometry": {"type": "Point", "coordinates": [3.0786141, 45.7795574]}, "properties": {"osm_id": 67491004, "osm_type": "way", "amenity": "place_of_worship", "building": "yes", "check_date": "2024-07-20", "contact:city": "Clermont-Ferrand", "contact:housenumber": "20", "contact:postcode": "63000", "contact:street": "Rue des Quatre Passeports", "heritage": "3", "heritage:operator": "mhs", "mhs:inscription_date": "2006-03-20", "name": "Synagogue Beit Yacov", "ref:mhs": "PA63000079", "religion": "jewish", "source": "cadastre-dgi-fr source : Direction Générale des Impôts - Cadastre. Mise à jour : 2010", "source:heritage": "data.gouv.fr:Ministère de la Culture - 04/2015", "wikidata": "Q20821353", "wikipedia": "fr:Synagogue de Clermont-Ferrand"}}, {"type": "Feature", "geometry": {"type": "Point", "coordinates": [3.0808804, 45.7772429]}, "properties": {"osm_id": 67517796, "osm_type": "way", "amenity": "place_of_worship", "building": "yes", "building:levels": "4", "name": "Association culturelle israélite", "religion": "jewish", "source": "cadastre-dgi-fr source : Direction Générale des Impôts - Cadastre. Mise à jour : 2010"}}, {"type": "Feature", "geometry": {"type": "Point", "coordinates": [2.268298, 48.880811]}, "properties": {"osm_id": 67544237, "osm_type": "way", "amenity": "place_of_worship", "architect": "Émile Ulmann;Germain Debré;Julien Hirsch", "architect:wikidata": "Q16218146;Q1268653", "architect:wikipedia": "fr:Émile Ullmann", "building": "yes", "name": "Synagogue de Neuilly", "religion": "jewish", "source": "cadastre-dgi-fr source : Direction Générale des Impôts - Cadastre. Mise à jour : 2010", "source:architect": "survey", "start_date": "1878", "wheelchair": "no", "wikidata": "Q1568469", "wikipedia": "fr:Synagogue de Neuilly"}}, {"type": "Feature", "geometry": {"type": "Point", "coordinates": [0.5754949, 45.585411]}, "properties": {"osm_id": 67994505, "osm_type": "way", "amenity": "place_of_worship", "building": "yes", "name": "Saint-Pierre-es-Liens", "source": "cadastre-dgi-fr source : Direction Générale des Impôts - Cadastre. Mise à jour : 2010", "wikidata": "Q41750165", "wikipedia": "fr:Église Saint-Pierre-ès-Liens de Teyjat"}}, {"type": "Feature", "geometry": {"type": "Point", "coordinates": [7.2605825, 47.8586034]}, "properties": {"osm_id": 68134200, "osm_type": "way", "amenity": "place_of_worship", "building": "synagogue", "name": "Synagogue", "religion": "jewish", "source": "extraction vectorielle v1 cadastre-dgi-fr source : Direction Générale des Impôts - Cadas. Mise à jour : 2010 ; survey"}}, {"type": "Feature", "geometry": {"type": "Point", "coordinates": [2.2417798, 48.8834219]}, "properties": {"osm_id": 68852328, "osm_type": "way", "amenity": "place_of_worship", "building": "yes", "religion": "jewish", "source": "cadastre-dgi-fr source : Direction Générale des Impôts - Cadastre. Mise à jour : 2010"}}, {"type": "Feature", "geometry": {"type": "Point", "coordinates": [5.3775718, 43.2870451]}, "properties": {"osm_id": 69136228, "osm_type": "way", "addr:housenumber": "117", "amenity": "place_of_worship", "building": "yes", "check_date": "2026-05-06", "heritage": "3", "heritage:operator": "mhs", "mhs:inscription_date": "2007-08-01", "name": "Grande Synagogue", "ref:mhs": "PA13000053", "religion": "jewish", "source": "cadastre-dgi-fr source : Direction Générale des Impôts - Cadastre. Mise à jour : 2010", "source:heritage": "Ministère de la Culture - 06/2019", "wikidata": "Q3115133", "wikipedia": "fr:Grande synagogue de Marseille"}}, {"type": "Feature", "geometry": {"type": "Point", "coordinates": [2.3475592, 48.8744883]}, "properties": {"osm_id": 69221039, "osm_type": "way", "amenity": "place_of_worship", "building": "yes", "building:levels": "4", "denomination": "orthodox", "name": "Synagogue Rashi", "religion": "jewish", "source": "cadastre-dgi-fr source : Direction Générale des Impôts - Cadastre. Mise à jour : 2010", "wikidata": "Q3508000", "wikipedia": "fr:Synagogue Rashi (Paris)"}}, {"type": "Feature", "geometry": {"type": "Point", "coordinates": [2.3364892, 48.8755092]}, "properties": {"osm_id": 69363730, "osm_type": "way", "amenity": "place_of_worship", "architect": "Aldrophe", "building": "synagogue", "check_date": "2025-03-25", "heritage": "2", "heritage:operator": "mhs", "mhs:inscription_date": "1987-12-11", "name": "Grande Synagogue de la Victoire", "ref:mhs": "PA00089001", "religion": "jewish", "source": "cadastre-dgi-fr source : Direction Générale des Impôts - Cadastre. Mise à jour : 2010", "source:architect": "data.gouv.fr:Ministère de la culture - 08/2017", "source:heritage": "data.gouv.fr, Ministère de la Culture - 2016", "start_date": "C19", "wheelchair": "limited", "wikidata": "Q1358886", "wikipedia": "fr:Grande synagogue de Paris"}}, {"type": "Feature", "geometry": {"type": "Point", "coordinates": [2.3369238, 48.8757851]}, "properties": {"osm_id": 69363791, "osm_type": "way", "alt_name": "Consistoire de la Synagogue de la Victoire", "amenity": "place_of_worship", "building": "yes", "building:levels": "6", "name": "Consistoire", "religion": "jewish", "source": "cadastre-dgi-fr source : Direction Générale des Impôts - Cadastre. Mise à jour : 2010"}}, {"type": "Feature", "geometry": {"type": "Point", "coordinates": [2.3425466, 48.8761054]}, "properties": {"osm_id": 69417432, "osm_type": "way", "amenity": "place_of_worship", "architect": "Stanislas Ferrand", "building": "yes", "building:levels": "2", "heritage": "3", "heritage:operator": "mhs", "historic": "building", "mhs:inscription_date": "1927-11-04", "name": "Synagogue Buffault", "ref:mhs": "PA00088925", "religion": "jewish", "source": "cadastre-dgi-fr source : Direction Générale des Impôts - Cadastre. Mise à jour : 2010", "source:heritage": "data.gouv.fr, Ministère de la Culture - 2016", "start_date": "1876", "wikidata": "Q22924750"}}, {"type": "Feature", "geometry": {"type": "Point", "coordinates": [5.061501, 45.3412218]}, "properties": {"osm_id": 69446843, "osm_type": "way", "amenity": "place_of_worship", "building": "yes", "name": "Le Temple", "source": "cadastre-dgi-fr source : Direction Générale des Impôts - Cadastre. Mise à jour : 2010"}}, {"type": "Feature", "geometry": {"type": "Point", "coordinates": [5.3905276, 43.3183982]}, "properties": {"osm_id": 69652091, "osm_type": "way", "addr:city": "Marseille", "addr:country": "FR", "addr:housenumber": "20", "addr:postcode": "13014", "addr:street": "Chemin de Sainte-Marthe", "amenity": "place_of_worship", "building": "yes", "name": "Association Culturelle Israélite Ohel Yaacov", "religion": "jewish", "source": "cadastre-dgi-fr source : Direction Générale des Impôts - Cadastre. Mise à jour : 2010"}}, {"type": "Feature", "geometry": {"type": "Point", "coordinates": [0.6934184, 47.3844531]},