{"type": "FeatureCollection", "features": [{"type": "Feature", "geometry": {"type": "Point", "coordinates": [6.2170675, 49.6154226]}, "properties": {"osm_id": 265819709, "osm_type": "node", "amenity": "school", "created_by": "Potlatch 0.9a", "wheelchair": "no"}}, {"type": "Feature", "geometry": {"type": "Point", "coordinates": [6.0541275, 49.6100936]}, "properties": {"osm_id": 441315364, "osm_type": "node", "amenity": "school", "check_date": "2026-06-05", "name": "École Préscolaire Prince Sébastien", "name:de": "Prinz-Sebastian-Vorschule"}}, {"type": "Feature", "geometry": {"type": "Point", "coordinates": [6.0311099, 49.6284704]}, "properties": {"osm_id": 849561238, "osm_type": "node", "amenity": "school", "wheelchair": "yes"}}, {"type": "Feature", "geometry": {"type": "Point", "coordinates": [6.123554, 49.6791757]}, "properties": {"osm_id": 864443386, "osm_type": "node", "amenity": "school", "name": "École Willy Goergen"}}, {"type": "Feature", "geometry": {"type": "Point", "coordinates": [6.1479942, 49.538721]}, "properties": {"osm_id": 959790131, "osm_type": "node", "amenity": "school", "name": "Crauthemer Groundschoul"}}, {"type": "Feature", "geometry": {"type": "Point", "coordinates": [6.0280827, 50.054817]}, "properties": {"osm_id": 1069769725, "osm_type": "node", "amenity": "school", "name": "Centre d'éducation différenciée"}}, {"type": "Feature", "geometry": {"type": "Point", "coordinates": [6.1572858, 49.8701004]}, "properties": {"osm_id": 1108157879, "osm_type": "node", "amenity": "school", "check_date": "2025-11-26", "name": "Place Stehres", "operator": "JacDahm", "wheelchair": "yes"}}, {"type": "Feature", "geometry": {"type": "Point", "coordinates": [6.2208221, 49.5789351]}, "properties": {"osm_id": 1417920209, "osm_type": "node", "alt_name": "Gronschoul \"Um Ewnet\"", "amenity": "school", "int_name": "École Fondamentale \"Um Ewent\"", "name": "Um Ewent"}}, {"type": "Feature", "geometry": {"type": "Point", "coordinates": [6.3794614, 49.7005745]}, "properties": {"osm_id": 1446906083, "osm_type": "node", "amenity": "school"}}, {"type": "Feature", "geometry": {"type": "Point", "coordinates": [6.0415417, 49.5246317]}, "properties": {"osm_id": 1487271024, "osm_type": "node", "amenity": "school"}}, {"type": "Feature", "geometry": {"type": "Point", "coordinates": [6.1148897, 49.8619051]}, "properties": {"osm_id": 1614852824, "osm_type": "node", "amenity": "school"}}, {"type": "Feature", "geometry": {"type": "Point", "coordinates": [5.8381369, 49.8404342]}, "properties": {"osm_id": 1711264700, "osm_type": "node", "addr:city": "Koetschette", "addr:country": "LU", "addr:housenumber": "1", "addr:postcode": "8821", "addr:street": "Rue de la Paix", "amenity": "school", "name": "Centre scolaire et sportif de Koetschette", "source": "http://www.rambrouch.lu/enseignement"}}, {"type": "Feature", "geometry": {"type": "Point", "coordinates": [6.1041673, 49.519776]}, "properties": {"osm_id": 1858260519, "osm_type": "node", "amenity": "school"}}, {"type": "Feature", "geometry": {"type": "Point", "coordinates": [6.2255729, 49.5248369]}, "properties": {"osm_id": 2054203201, "osm_type": "node", "amenity": "school"}}, {"type": "Feature", "geometry": {"type": "Point", "coordinates": [6.0050724, 49.8335406]}, "properties": {"osm_id": 2117638075, "osm_type": "node", "amenity": "school"}}, {"type": "Feature", "geometry": {"type": "Point", "coordinates": [5.8833732, 49.7311685]}, "properties": {"osm_id": 2179929906, "osm_type": "node", "amenity": "school"}}, {"type": "Feature", "geometry": {"type": "Point", "coordinates": [6.0098404, 49.5630305]}, "properties": {"osm_id": 2460402080, "osm_type": "node", "amenity": "school"}}, {"type": "Feature", "geometry": {"type": "Point", "coordinates": [6.1494423, 49.5099202]}, "properties": {"osm_id": 2466286022, "osm_type": "node", "amenity": "school"}}, {"type": "Feature", "geometry": {"type": "Point", "coordinates": [6.1451779, 49.5388675]}, "properties": {"osm_id": 2562758546, "osm_type": "node", "amenity": "school", "name": "Music Factory"}}, {"type": "Feature", "geometry": {"type": "Point", "coordinates": [6.2067494, 49.6152212]}, "properties": {"osm_id": 4365488592, "osm_type": "node", "amenity": "school", "name": "École de musique Leonardo Castellano"}}, {"type": "Feature", "geometry": {"type": "Point", "coordinates": [6.1282703, 49.5244645]}, "properties": {"osm_id": 4369726389, "osm_type": "node", "amenity": "school"}}, {"type": "Feature", "geometry": {"type": "Point", "coordinates": [6.2692119, 49.630469]}, "properties": {"osm_id": 5001384921, "osm_type": "node", "amenity": "school"}}, {"type": "Feature", "geometry": {"type": "Point", "coordinates": [6.0411644, 49.5220491]}, "properties": {"osm_id": 5060152970, "osm_type": "node", "addr:city": "Bergem", "addr:housenumber": "20A", "addr:postcode": "3316", "addr:street": "Rue Basse", "amenity": "school", "name": "Music Factory", "school": "music_school", "website": "https://music-factory.lu/ecoles-musique-roeser-bergem/"}}, {"type": "Feature", "geometry": {"type": "Point", "coordinates": [6.0731701, 50.1405792]}, "properties": {"osm_id": 5122001373, "osm_type": "node", "amenity": "school", "name": "Cycle 4, Crèche et Maison Relais"}}, {"type": "Feature", "geometry": {"type": "Point", "coordinates": [6.1244216, 49.6785973]}, "properties": {"osm_id": 5373331214, "osm_type": "node", "amenity": "school", "name": "École Sepp Hansen"}}, {"type": "Feature", "geometry": {"type": "Point", "coordinates": [6.1118102, 49.7564618]}, "properties": {"osm_id": 6874396030, "osm_type": "node", "amenity": "school", "name": "Lycée technique pour professions éducatives et sociales (LTPES)", "source": "http://www.ltpes.lu"}}, {"type": "Feature", "geometry": {"type": "Point", "coordinates": [6.1115071, 49.7562036]}, "properties": {"osm_id": 6874396031, "osm_type": "node", "amenity": "school", "name": "Lycée Ermesinde Mersch", "source": "http://www.lem.lu", "wikidata": "Q13103854"}}, {"type": "Feature", "geometry": {"type": "Point", "coordinates": [6.1305662, 49.6454847]}, "properties": {"osm_id": 6918758142, "osm_type": "node", "addr:city": "Luxembourg", "addr:housenumber": "12", "addr:postcode": "1217", "addr:street": "Rue de Bastogne", "amenity": "school", "check_date": "2024-10-26", "comment": "Offers tutoring and coaching for students and companies for different subjects and levels.", "email": "info@etic.lu", "name": "ETIC Academy", "operator:type": "private", "phone": "+352 661 137 633", "website": "https://www.etic.lu"}}, {"type": "Feature", "geometry": {"type": "Point", "coordinates": [6.0739686, 50.1404652]}, "properties": {"osm_id": 8980108575, "osm_type": "node", "addr:city": "Weiswampach", "addr:housenumber": "8", "addr:postcode": "9991", "addr:street": "Am Eelerich", "amenity": "school", "grades": "1-6", "name": "Wämper Schull - Cycle 2 et 3", "website": "https://www.weiswampach.lu"}}, {"type": "Feature", "geometry": {"type": "Point", "coordinates": [6.1150791, 49.6129478]}, "properties": {"osm_id": 9053033907, "osm_type": "node", "addr:city": "Luxembourg", "addr:housenumber": "7", "addr:postcode": "1371", "addr:street": "Val Sainte-Croix", "amenity": "school", "name": "Over The Rainbow School", "website": "https://otrschool.lu/"}}, {"type": "Feature", "geometry": {"type": "Point", "coordinates": [6.1097353, 49.6035087]}, "properties": {"osm_id": 10585038160, "osm_type": "node", "addr:city": "Luxembourg", "addr:housenumber": "17", "addr:postcode": "1254", "addr:street": "Rue Marguerite de Brabant", "amenity": "school", "isced:level": "3", "name": "École nationale pour adultes"}}, {"type": "Feature", "geometry": {"type": "Point", "coordinates": [6.2663618, 49.4844262]}, "properties": {"osm_id": 11046837822, "osm_type": "node", "addr:city": "Puttelange-lès-Thionville", "addr:postcode": "57570", "addr:street": "Rue Principale", "amenity": "school", "contact:email": "ce.0571013S@ac-nancy-metz.fr", "contact:phone": "+33 3 82 51 29 39", "education": "school", "name": "École primaire Charles d'Huart", "operator:type": "public", "ref:FR:SIRET": "21570557500037", "ref:UAI": "0571013S", "school:FR": "primaire", "source": "Ministère de l'Éducation nationale et de la Jeunesse - 2023-06", "start_date": "1967-04-29"}}, {"type": "Feature", "geometry": {"type": "Point", "coordinates": [5.9486705, 49.5031127]}, "properties": {"osm_id": 12861482982, "osm_type": "node", "access": "permissive", "amenity": "school", "entrance": "yes", "isced:level": "3", "min_age": "17", "name": "ENAD", "wheelchair": "yes"}}, {"type": "Feature", "geometry": {"type": "Point", "coordinates": [6.1272628, 49.618887]}, "properties": {"osm_id": 9653742, "osm_type": "way", "amenity": "school", "email": "secretariat@lrsl.lu", "isced:level": "2;3", "name": "Lycée Robert-Schuman", "operator:type": "public", "phone": "+352 22 82 14 1", "website": "https://www.lrsl.lu/", "wikidata": "Q10317957", "wikimedia_commons": "Category:Lycée Robert Schuman Luxembourg", "wikipedia": "lb:Lycée Robert-Schuman"}}, {"type": "Feature", "geometry": {"type": "Point", "coordinates": [5.9159556, 49.6584165]}, "properties": {"osm_id": 24745351, "osm_type": "way", "amenity": "school", "building": "yes", "name": "École primaire Steinfort"}}, {"type": "Feature", "geometry": {"type": "Point", "coordinates": [6.0890809, 49.4878619]}, "properties": {"osm_id": 24910716, "osm_type": "way", "amenity": "school", "check_date": "2024-05-12", "name": "École fondamentale Brill", "school:LU": "primaire"}}, {"type": "Feature", "geometry": {"type": "Point", "coordinates": [6.254131, 49.7137226]}, "properties": {"osm_id": 25009582, "osm_type": "way", "amenity": "school", "check_date": "2024-06-28", "name": "Grondschoul Jonglënster", "name:fr": "École fondamentale Junglinster"}}, {"type": "Feature", "geometry": {"type": "Point", "coordinates": [5.9833395, 49.4992879]}, "properties": {"osm_id": 25210068, "osm_type": "way", "amenity": "school", "check_date": "2025-03-23", "name": "Lycée des Garçons", "wheelchair": "limited", "wikidata": "Q3247659"}}, {"type": "Feature", "geometry": {"type": "Point", "coordinates": [5.9775966, 49.5026117]}, "properties": {"osm_id": 25210162, "osm_type": "way", "amenity": "school", "check_date": "2024-05-19", "name": "Lyçée Hubert Clement", "wikidata": "Q3247375"}}, {"type": "Feature", "geometry": {"type": "Point", "coordinates": [5.8761813, 49.5585806]}, "properties": {"osm_id": 25376887, "osm_type": "way", "amenity": "school", "name": "Parkschoul"}}, {"type": "Feature", "geometry": {"type": "Point", "coordinates": [6.1257583, 49.6220248]}, "properties": {"osm_id": 25381495, "osm_type": "way", "addr:city": "Luxembourg", "addr:country": "LU", "addr:housenumber": "19", "addr:postcode": "2522", "addr:street": "Rue Guillaume Schneider", "amenity": "school", "isced:level": "2;3", "landuse": "education", "name": "Lycée des Arts et Métiers", "ref:caclr": "20142", "website": "https://www.artsetmetiers.lu/", "wikidata": "Q16366473", "wikimedia_commons": "Category:Lycée des Arts et Métiers (Luxembourg)", "wikipedia": "lb:Lycée des arts et métiers"}}, {"type": "Feature", "geometry": {"type": "Point", "coordinates": [6.1180423, 49.6261322]}, "properties": {"osm_id": 25405121, "osm_type": "way", "amenity": "school", "isced:level": "0;1;2;3", "name": "Fräi-Öffentlech Waldorfschoul", "name:de": "Waldorfschule", "name:en": "Waldorf School", "name:fr": "École Waldorf", "name:lb": "Fräi-Öffentlech Waldorfschoul", "phone": "+352 46 69 32", "website": "https://www.waldorf.lu/", "wikidata": "Q13102685", "wikimedia_commons": "Category:Waldorf schools in Luxembourg", "wikipedia": "lb:Fräi-ëffentlech Waldorfschoul Lëtzebuerg"}}, {"type": "Feature", "geometry": {"type": "Point", "coordinates": [6.1122195, 49.6248504]}, "properties": {"osm_id": 25405135, "osm_type": "way", "amenity": "school", "isced:level": "2;3", "name": "Lycée Michel Lucius", "operator:type": "public", "website": "https://www.lml.lu"}}, {"type": "Feature", "geometry": {"type": "Point", "coordinates": [5.8926267, 49.5360812]}, "properties": {"osm_id": 25585276, "osm_type": "way", "amenity": "school", "email": "info@men.lu", "fax": "+352 26 58 52 75", "name": "École des Garçons", "name:lb": "Jongeschoul", "operator": "Ministère de l'Education nationale, de l'Enfance et de la Jeunesse", "phone": "+352 26 58 52 76", "website": "https://men.public.lu/"}}, {"type": "Feature", "geometry": {"type": "Point", "coordinates": [5.892144, 49.535113]}, "properties": {"osm_id": 25585287, "osm_type": "way", "amenity": "school", "email": "info@men.lu", "fax": "+352 26 58 52 75", "name": "École des Filles", "name:lb": "Meedechersschoul", "operator": "Ministère de l'Education nationale, de l'Enfance et de la Jeunesse", "phone": "+352 26 58 52 76", "website": "https://men.public.lu/"}}, {"type": "Feature", "geometry": {"type": "Point", "coordinates": [5.8904163, 49.5223063]}, "properties": {"osm_id": 26153588, "osm_type": "way", "amenity": "school", "email": "info@men.lu", "fax": "+352 26 58 30 85 41", "name": "École fondamentale Differdange-Centre", "operator": "Ministère de l'Education nationale, de l'Enfance et de la Jeunesse", "phone": "+352 26 58 30 85 62", "website": "https://men.public.lu/", "wheelchair": "yes"}}, {"type": "Feature", "geometry": {"type": "Point", "coordinates": [5.9257887, 49.5083451]}, "properties": {"osm_id": 26171342, "osm_type": "way", "amenity": "school", "check_date": "2024-05-12", "name": "École Belvaux Poste"}}, {"type": "Feature", "geometry": {"type": "Point", "coordinates": [6.1091491, 49.6024611]}, "properties": {"osm_id": 26245561, "osm_type": "way", "amenity": "school", "landuse": "education", "name": "Campus Geesseknäppchen", "wheelchair": "yes"}}, {"type": "Feature", "geometry": {"type": "Point", "coordinates": [6.1296684, 49.6002157]}, "properties": {"osm_id": 26435707, "osm_type": "way", "amenity": "school", "grades": "1-4", "isced:level": "0;1", "name": "École fondamentale Gare"}}, {"type": "Feature", "geometry": {"type": "Point", "coordinates": [6.2994381, 49.665217]}, "properties": {"osm_id": 27693058, "osm_type": "way", "amenity": "school", "name": "École fondamentale"}}, {"type": "Feature", "geometry": {"type": "Point", "coordinates": [6.1554215, 49.6275275]}, "properties": {"osm_id": 27753305, "osm_type": "way", "alt_name": "ScholaEuropea Luxembourg I", "amenity": "school", "isced:level": "0;1;2;3", "name": "École Européenne Luxembourg I Kirchberg", "name:de": "Europäische Schule Luxemburg I Kirchberg", "name:en": "European School Luxembourg I Kirchberg", "name:fr": "École Européenne Luxembourg I Kirchberg", "name:lb": "Europaschoul", "name:nl": "Europese School Luxemburg I Kirchberg", "url": "euroschool.lu", "wikidata": "Q5413125", "wikimedia_commons": "Category:European School, Luxembourg I", "wikipedia": "en:European School, Luxembourg I"}}, {"type": "Feature", "geometry": {"type": "Point", "coordinates": [6.3371696, 49.7804251]}, "properties": {"osm_id": 28957543, "osm_type": "way", "amenity": "school", "name": "Grondschoul Konsdrëf", "name:fr": "École fondamentale Consdorf", "name:lb": "Grondschoul Konsdrëf", "website": "https://sites.schoul.lu/oli/lu/schoolweb/-/yTLuZpVQuM/32538/", "wheelchair": "limited"}}, {"type": "Feature", "geometry": {"type": "Point", "coordinates": [6.1106245, 49.6035451]}, "properties": {"osm_id": 29050030, "osm_type": "way", "addr:city": "Luxembourg", "addr:housenumber": "24", "addr:postcode": "1273", "addr:street": "Boulevard Pierre Dupong", "amenity": "school", "building": "school", "isced:level": "2;3", "name": "Athénée de Luxembourg", "phone": "+352 440249 6100", "ref": "AL", "sport": "multi", "website": "https://al.lu", "wheelchair": "limited", "wikidata": "Q545334", "wikimedia_commons": "Category:Athénée de Luxembourg", "wikipedia": "en:Athénée de Luxembourg"}}, {"type": "Feature", "geometry": {"type": "Point", "coordinates": [6.0708203, 49.4874168]}, "properties": {"osm_id": 29319998, "osm_type": "way", "amenity": "school", "name": "Grondschoul Butschebuerg", "name:lb": "Grondschoul Butschebuerg", "school:LU": "primaire"}}, {"type": "Feature", "geometry": {"type": "Point", "coordinates": [6.0080003, 49.5068625]}, "properties": {"osm_id": 29979329, "osm_type": "way", "amenity": "school", "name": "École primaire Nelly Stein"}}, {"type": "Feature", "geometry": {"type": "Point", "coordinates": [5.9858071, 49.5292042]}, "properties": {"osm_id": 31856510, "osm_type": "way", "amenity": "school", "building": "school", "name": "École fondamentale de Mondercange", "website": "http://www.mondercange.lu/index.php/accueil-scolarisation/ecole-fondamentale"}}, {"type": "Feature", "geometry": {"type": "Point", "coordinates": [6.0085981, 49.5037206]}, "properties": {"osm_id": 34869091, "osm_type": "way", "amenity": "school", "name": "École primaire Lydie Schmit"}}, {"type": "Feature", "geometry": {"type": "Point", "coordinates": [6.0944224, 49.6031686]}, "properties": {"osm_id": 35412470, "osm_type": "way", "addr:city": "Luxembourg", "addr:housenumber": "152", "addr:postcode": "2146", "addr:street": "Rue de Merl", "amenity": "school", "check_date": "2025-11-16", "education": "school", "grades": "2-4", "isced:level": "1", "name": "École fondamentale Merl", "religion": "no", "website": "https://www.schoulmerl.com/"}}, {"type": "Feature", "geometry": {"type": "Point", "coordinates": [6.1892524, 49.6216795]}, "properties": {"osm_id": 35779638, "osm_type": "way", "amenity": "school", "building": "office", "name": "École de Police", "operator:wikidata": "Q2097000", "operator:wikipedia": "lb:Police_grand-ducale"}}, {"type": "Feature", "geometry": {"type": "Point", "coordinates": [5.9017884, 49.5172397]}, "properties": {"osm_id": 37613834, "osm_type": "way", "amenity": "school", "email": "secretariat.differdange@ltma.lu", "fax": "+352 58 44 79 40", "name": "Lycée Technique Mathias Adam Annexe Jenker", "operator": "Ministère de l'Education nationale, de l'Enfance et de la Jeunesse", "phone": "+352 58 44 79 - 1", "website": "https://www.ltma.lu/"}}, {"type": "Feature", "geometry": {"type": "Point", "coordinates": [6.1030499, 49.8466086]}, "properties": {"osm_id": 37736016, "osm_type": "way", "amenity": "school", "name": "École privée Sainte-Anne"}}, {"type": "Feature", "geometry": {"type": "Point", "coordinates": [6.1118045, 49.6005253]}, "properties": {"osm_id": 37764733, "osm_type": "way", "addr:city": "Luxembourg", "addr:housenumber": "38", "addr:postcode": "1430", "addr:street": "Boulevard Pierre Dupong", "amenity": "school", "building": "school", "isced:level": "2;3", "loc_name": "Alima", "name": "Lycée Aline Mayrisch", "operator": "Lycée Aline Mayrisch", "operator:type": "public", "ref": "LAML", "website": "http://www.laml.lu"}}, {"type": "Feature", "geometry": {"type": "Point", "coordinates": [5.9094421, 49.5673886]}, "properties": {"osm_id": 38731853, "osm_type": "way", "amenity": "school", "education": "school", "name": "École du Centre", "website": "https://www.kaerjenger-schoulen.lu/?com=0I1I0I0I"}}, {"type": "Feature", "geometry": {"type": "Point", "coordinates": [5.9888141, 49.5094959]}, "properties": {"osm_id": 38958259, "osm_type": "way", "amenity": "school", "name": "Lallenger Schoul (Primary School)"}}, {"type": "Feature", "geometry": {"type": "Point", "coordinates": [6.1147509, 49.6214898]}, "properties": {"osm_id": 40525907, "osm_type": "way", "amenity": "school", "grades": "2-4", "isced:level": "1", "name": "École fondamentale Limpertsberg", "website": "https://www.vdl.lu/fr/vivre/education-et-formations/scolariser-ses-enfants/ecoles-de-la-ville/ecole-limpertsberg"}}, {"type": "Feature", "geometry": {"type": "Point", "coordinates": [6.0988811, 49.6213195]}, "properties": {"osm_id": 41380955, "osm_type": "way", "amenity": "school", "fixme": "confirm campus", "isced:level": "3-5", "name": "Centre de Logopédie", "short_name": "CL", "website": "https://logopedie.lu/"}}, {"type": "Feature", "geometry": {"type": "Point", "coordinates": [6.273544, 49.5059536]}, "properties": {"osm_id": 41569653, "osm_type": "way", "amenity": "school", "building": "yes", "education": "school"}}, {"type": "Feature", "geometry": {"type": "Point", "coordinates": [6.0710442, 49.6162914]}, "properties": {"osm_id": 43165707, "osm_type": "way", "addr:city": "Strassen", "addr:country": "LU", "addr:housenumber": "7", "addr:postcode": "8018", "addr:street": "Rue du Cimetière", "amenity": "school", "building": "school", "building:levels": "1", "name": "Pavillon Hueflach", "ref:caclr": "113483", "wheelchair": "no"}}, {"type": "Feature", "geometry": {"type": "Point", "coordinates": [5.9078335, 49.5679932]}, "properties": {"osm_id": 44149169, "osm_type": "way", "addr:city": "Bascharage", "addr:housenumber": "13", "addr:postcode": "4922", "addr:street": "Rue de l'Église", "amenity": "school", "landuse": "education", "name": "Lycée Technique pour Professions de Santé", "website": "https://www.ltps.lu/"}}, {"type": "Feature", "geometry": {"type": "Point", "coordinates": [6.1214177, 49.6197667]}, "properties": {"osm_id": 50041772, "osm_type": "way", "addr:city": "Luxembourg", "addr:postcode": "1921", "addr:street": "Place Auguste Laurent", "amenity": "school", "barrier": "fence", "email": "secretariat@lgl.lu", "fence_type": "metal", "isced:level": "2;3", "name": "Lycée des Garçons Luxembourg", "name:lb": "Jongelycée", "nohousenumber": "yes", "note": "Website says Place Auguste Laurent, CACLR disagrees", "old_name": "Industrieschoul", "phone": "+352 22 23 02 1", "ref": "LGL", "ref:caclr": "215736", "website": "https://lgl.lu", "wikidata": "Q6707494", "wikipedia": "lb:Lycée de garçons de Luxembourg"}}, {"type": "Feature", "geometry": {"type": "Point", "coordinates": [6.150516, 49.6186685]}, "properties": {"osm_id": 51768368, "osm_type": "way", "amenity": "school", "email": "secretariat@saintesophie.lu", "isced:level": "0;1;2;3", "name": "École privée Notre-Dame Sainte-Sophie", "ref": "EPND", "ref:AEFE": "540O03", "website": "https://saintesophie.lu/"}}, {"type": "Feature", "geometry": {"type": "Point", "coordinates": [6.129189, 49.6024664]}, "properties": {"osm_id": 52093589, "osm_type": "way", "amenity": "school", "email": "secretariat@epf.lu", "isced:level": "2;3", "name": "École Privée Fieldgen", "name:fr": "École Privée Fieldgen", "name:lb": "Am Fieldgen", "phone": "+352 49 94 31 1", "ref": "EPF", "website": "https://www.epf.lu", "wikidata": "Q13105497", "wikimedia_commons": "Category:École privée Fieldgen", "wikipedia": "lb:École privée Fieldgen"}}, {"type": "Feature", "geometry": {"type": "Point", "coordinates": [6.0351058, 49.6718176]}, "properties": {"osm_id": 54160600, "osm_type": "way", "amenity": "school", "building": "yes"}}, {"type": "Feature", "geometry": {"type": "Point", "coordinates": [6.1611479, 49.628399]}, "properties": {"osm_id": 55354732, "osm_type": "way", "amenity": "school", "name": "Centre Polyvalent de l'Enfance (CPE)"}}, {"type": "Feature", "geometry": {"type": "Point", "coordinates": [6.18256, 49.8934309]}, "properties": {"osm_id": 64384136, "osm_type": "way", "amenity": "school", "name": "Am Brill"}}, {"type": "Feature", "geometry": {"type": "Point", "coordinates": [6.0176712, 49.5054928]}, "properties": {"osm_id": 67997994, "osm_type": "way", "amenity": "school", "name": "Albert Wingert Schoul", "name:fr": "École Fondamentale \"Albert Wingert", "name:lb": "Albert Wingert Schoul"}}, {"type": "Feature", "geometry": {"type": "Point", "coordinates": [5.92723, 49.9638263]}, "properties": {"osm_id": 68748604, "osm_type": "way", "amenity": "school", "name": "Lyçée du Nord", "short_name": "LN"}}, {"type": "Feature", "geometry": {"type": "Point", "coordinates": [6.1531387, 49.567754]}, "properties": {"osm_id": 69415439, "osm_type": "way", "amenity": "school", "landuse": "education", "name": "Groundschoul Fenteng", "wheelchair": "limited"}}, {"type": "Feature", "geometry": {"type": "Point", "coordinates": [5.9380205, 49.5206752]}, "properties": {"osm_id": 69730779, "osm_type": "way", "amenity": "school"}}, {"type": "Feature", "geometry": {"type": "Point", "coordinates": [5.9453383, 49.5988702]}, "properties": {"osm_id": 69927597, "osm_type": "way", "amenity": "school"}}, {"type": "Feature", "geometry": {"type": "Point", "coordinates": [5.9824634, 49.4999637]}, "properties": {"osm_id": 73264883, "osm_type": "way", "amenity": "school", "check_date": "2024-05-13", "name": "École primaire"}}, {"type": "Feature", "geometry": {"type": "Point", "coordinates": [6.0792095, 49.6568721]}, "properties": {"osm_id": 74312070, "osm_type": "way", "amenity": "school", "name": "Grondschoul Bridel", "name:fr": "École fondamentale de Bridel", "name:lb": "Grondschoul Bridel"}}, {"type": "Feature", "geometry": {"type": "Point", "coordinates": [6.3632349, 49.5641756]}, "properties": {"osm_id": 77488309, "osm_type": "way", "amenity": "school", "check_date": "2024-09-08", "education": "school", "name": "Grondschoul Stadbriedemes", "name:fr": "École fondamentale Stadtbredimus", "name:lb": "Grondschoul Stadbriedemes"}}, {"type": "Feature", "geometry": {"type": "Point", "coordinates": [5.9380007, 49.5206252]}, "properties": {"osm_id": 81678305, "osm_type": "way", "addr:city": "Soleuvre", "addr:housenumber": "45", "addr:postcode": "4418", "addr:street": "Rue de Belvaux", "amenity": "school", "building": "house", "grades": "0-6", "name": "Zolwer 2000", "website": "https://www.ecoles-sanem.lu"}}, {"type": "Feature", "geometry": {"type": "Point", "coordinates": [5.9272407, 49.5190413]}, "properties": {"osm_id": 84623744, "osm_type": "way", "amenity": "school", "check_date": "2026-01-15", "name": "École Scheierhaff"}}, {"type": "Feature", "geometry": {"type": "Point", "coordinates": [6.1271546, 49.7215273]}, "properties": {"osm_id": 85469593, "osm_type": "way", "addr:city": "Lintgen", "addr:country": "LU", "addr:housenumber": "2", "addr:postcode": "7445", "addr:street": "Place Publique", "amenity": "school", "designation": "École primaire", "name": "Schoulcampus Lëmbaach", "name:lb": "Schoulcampus Lëmbaach"}}, {"type": "Feature", "geometry": {"type": "Point", "coordinates": [5.9522826, 49.6673809]}, "properties": {"osm_id": 85743601, "osm_type": "way", "addr:city": "Koerich", "addr:country": "LU", "addr:housenumber": "1", "addr:postcode": "8385", "addr:street": "Neie Wee", "amenity": "school", "landuse": "education", "name": "Schoul Käerch", "ref:caclr": "35649", "website": "https://www.schoul-kaerch.lu/"}}, {"type": "Feature", "geometry": {"type": "Point", "coordinates": [6.2136201, 49.8090981]}, "properties": {"osm_id": 86097170, "osm_type": "way", "amenity": "school"}}, {"type": "Feature", "geometry": {"type": "Point", "coordinates": [6.2133801, 49.8091117]}, "properties": {"osm_id": 86097173, "osm_type": "way", "amenity": "school", "building": "school", "isced:level": "1", "note": "No house number", "ref:caclr": "missing"}}, {"type": "Feature", "geometry": {"type": "Point", "coordinates": [5.8244308, 49.5464463]}, "properties": {"osm_id": 87232396, "osm_type": "way", "amenity": "school", "name": "École Fonderie Rodange", "wheelchair": "no"}}, {"type": "Feature", "geometry": {"type": "Point", "coordinates": [5.9031198, 49.5651823]}, "properties": {"osm_id": 87298051, "osm_type": "way", "addr:city": "Bascharage", "addr:housenumber": "83A", "addr:postcode": "4950", "addr:street": "Avenue de Luxembourg", "amenity": "school", "education": "school", "name": "École fondamentale Op Acker", "ref:caclr": "208753", "website": "https://www.kaerjenger-schoulen.lu/?com=0I1I0I0I"}}, {"type": "Feature", "geometry": {"type": "Point", "coordinates": [6.2508222, 49.7135339]}, "properties": {"osm_id": 88018216, "osm_type": "way", "amenity": "school", "name": "École Loupesch"}}, {"type": "Feature", "geometry": {"type": "Point", "coordinates": [6.399244, 49.6243033]}, "properties": {"osm_id": 94122012, "osm_type": "way", "amenity": "school", "name": "École fondamentale de Dreiborn"}}, {"type": "Feature", "geometry": {"type": "Point", "coordinates": [6.117993, 49.601487]}, "properties": {"osm_id": 95933402, "osm_type": "way", "amenity": "school", "building": "yes", "grades": "2-4", "isced:level": "1", "layer": "1", "name": "École Hollerich - Cycles 2-4", "ref": "HOM21"}}, {"type": "Feature", "geometry": {"type": "Point", "coordinates": [6.1158382, 49.635496]}, "properties": {"osm_id": 97488810, "osm_type": "way", "amenity": "school", "grades": "1", "isced:level": "0", "name": "Bëschspillschoul", "official_name": "Ecole fondamentale Eich - Bëschspillschoul", "operator": "Ville de Luxembourg"}}, {"type": "Feature", "geometry": {"type": "Point", "coordinates": [6.0292891, 49.6309721]}, "properties": {"osm_id": 98675168, "osm_type": "way", "addr:city": "Mamer", "addr:country": "LU", "addr:housenumber": "42", "addr:postcode": "8210", "addr:street": "Route d'Arlon", "amenity": "school", "building": "yes", "name": "École primaire Kinneksbond", "wheelchair": "yes"}}, {"type": "Feature", "geometry": {"type": "Point", "coordinates": [6.1641746, 49.6107731]}, "properties": {"osm_id": 99368685, "osm_type": "way", "addr:city": "Luxembourg", "addr:country": "LU", "addr:housenumber": "11", "addr:postcode": "2328", "addr:street": "Rue des Peupliers", "amenity": "school", "email": "reception@st-georges.lu", "isced:level": "0;1;2;3", "name": "Saint George's International School", "phone": "+352 42 32 24", "website": "https://www.st-georges.lu/"}}, {"type": "Feature", "geometry": {"type": "Point", "coordinates": [5.9159431, 49.6885104]}, "properties": {"osm_id": 101176410, "osm_type": "way", "amenity": "school", "fence_type": "wire"}}, {"type": "Feature", "geometry": {"type": "Point", "coordinates": [5.9243058, 50.0600058]}, "properties": {"osm_id": 101326681, "osm_type": "way", "amenity": "school"}}, {"type": "Feature", "geometry": {"type": "Point", "coordinates": [6.0734142, 50.1404399]}, "properties": {"osm_id": 102944180, "osm_type": "way", "amenity": "school", "description": "École fondamentale de la commune de Weiswampach", "isced:level": "1", "website": "https://www.weiswampach.lu/"}}, {"type": "Feature", "geometry": {"type": "Point", "coordinates": [6.0358662, 50.0616122]}, "properties": {"osm_id": 103331337, "osm_type": "way", "amenity": "school", "name": "Centre scolaire Reuler"}}, {"type": "Feature", "geometry": {"type": "Point", "coordinates": [6.1090314, 49.5176336]}, "properties": {"osm_id": 112455182, "osm_type": "way", "amenity": "school", "check_date": "2025-10-02", "name": "École fondamentale"}}, {"type": "Feature", "geometry": {"type": "Point", "coordinates": [5.9068905, 49.5637588]}, "properties": {"osm_id": 118461436, "osm_type": "way", "amenity": "school", "name": "École Précoce"}}, {"type": "Feature", "geometry": {"type": "Point", "coordinates": [6.1244609, 49.6789333]}, "properties": {"osm_id": 119299665, "osm_type": "way", "amenity": "school"}}, {"type": "Feature", "geometry": {"type": "Point", "coordinates": [6.1243491, 49.6795427]}, "properties": {"osm_id": 120142581, "osm_type": "way", "amenity": "school", "building": "school", "name": "École Michel Rodange"}}, {"type": "Feature", "geometry": {"type": "Point", "coordinates": [6.2785156, 49.7962416]}, "properties": {"osm_id": 120390360, "osm_type": "way", "amenity": "school", "landuse": "education", "name": "Grondschoul Waldbëlleg", "name:fr": "École fondamentale de Waldbillig", "name:lb": "Grondschoul Waldbëlleg"}}, {"type": "Feature", "geometry": {"type": "Point", "coordinates": [6.2498494, 49.6997466]}, "properties": {"osm_id": 123077404, "osm_type": "way", "addr:city": "Junglinster", "addr:housenumber": "2", "addr:postcode": "6122", "addr:street": "Rue Victor Ferrant", "amenity": "school", "education": "school", "email": "secretariat.direction@llj.lu", "fax": "+352 276 963-290", "name": "Lënster Lycée", "phone": "+352 276 9631", "ref:caclr": "229137", "religion": "none", "website": "https://llis.lu/", "wheelchair": "yes", "wikidata": "Q17480838", "wikipedia": "lb:Lënster Lycée International School"}}, {"type": "Feature", "geometry": {"type": "Point", "coordinates": [5.9264035, 49.5467123]}, "properties": {"osm_id": 124411850, "osm_type": "way", "addr:city": "Sanem", "addr:country": "LU", "addr:housenumber": "37", "addr:postcode": "4990", "addr:street": "Rue de Niederkorn", "amenity": "school", "building": "school", "ref:caclr": "89981"}}, {"type": "Feature", "geometry": {"type": "Point", "coordinates": [6.2071183, 49.9347923]}, "properties": {"osm_id": 129450562, "osm_type": "way", "amenity": "school", "landuse": "education", "name": "Grondschoul Veianen", "name:fr": "École fondamentale de Vianden", "name:lb": "Grondschoul Veianen"}}, {"type": "Feature", "geometry": {"type": "Point", "coordinates": [6.2206201, 49.5783695]}, "properties": {"osm_id": 129824410, "osm_type": "way", "addr:city": "Contern", "addr:housenumber": "40", "addr:postcode": "5316", "addr:street": "Rue de Syren", "amenity": "school", "ref:caclr": "216822"}}, {"type": "Feature", "geometry": {"type": "Point", "coordinates": [6.1549477, 49.5714921]}, "properties": {"osm_id": 130864410, "osm_type": "way", "addr:city": "Hesperange", "addr:housenumber": "9", "addr:postcode": "5810", "addr:street": "Rue de Bettembourg", "amenity": "school", "building": "yes", "wheelchair": "limited"}}, {"type": "Feature", "geometry": {"type": "Point", "coordinates": [6.3796872, 49.7007162]}, "properties": {"osm_id": 131479699, "osm_type": "way", "amenity": "school", "building": "yes"}}, {"type": "Feature", "geometry": {"type": "Point", "coordinates": [6.3792403, 49.7011119]}, "properties": {"osm_id": 131479700, "osm_type": "way", "amenity": "school", "building": "public"}}, {"type": "Feature", "geometry": {"type": "Point", "coordinates": [6.1576444, 49.6256681]}, "properties": {"osm_id": 132277938, "osm_type": "way", "amenity": "school", "isced:level": "2;3", "name": "Lycée Technique du Centre"}}, {"type": "Feature", "geometry": {"type": "Point", "coordinates": [6.1685851, 49.8639263]}, "properties": {"osm_id": 143048250, "osm_type": "way", "amenity": "school", "isced:level": "2;3", "landuse": "education", "name": "Lycée Classique Diekirch Nouveau Bâtiment"}}, {"type": "Feature", "geometry": {"type": "Point", "coordinates": [6.1622898, 49.8637564]}, "properties": {"osm_id": 143188738, "osm_type": "way", "amenity": "school", "check_date": "2025-11-05", "name": "Nordstadlycée Annexe", "note": "No house number", "ref:caclr": "missing"}}, {"type": "Feature", "geometry": {"type": "Point", "coordinates": [5.902014, 49.8703383]}, "properties": {"osm_id": 143545733, "osm_type": "way", "amenity": "school"}}, {"type": "Feature", "geometry": {"type": "Point", "coordinates": [6.2169195, 49.8751158]}, "properties": {"osm_id": 144911437, "osm_type": "way", "amenity": "school", "name": "École fondamentale"}}, {"type": "Feature", "geometry": {"type": "Point", "coordinates": [5.9632784, 49.5095067]}, "properties": {"osm_id": 148555060, "osm_type": "way", "amenity": "school", "name": "Licee Guillaume Kroll"}}, {"type": "Feature", "geometry": {"type": "Point", "coordinates": [6.1905397, 49.5150098]}, "properties": {"osm_id": 153342310, "osm_type": "way", "amenity": "school", "building": "yes", "name": "Zentralschoul Fréiseng"}}, {"type": "Feature", "geometry": {"type": "Point", "coordinates": [6.1898981, 49.5151597]}, "properties": {"osm_id": 153342311, "osm_type": "way", "amenity": "school", "building": "yes"}}, {"type": "Feature", "geometry": {"type": "Point", "coordinates": [5.9152204, 49.658733]}, "properties": {"osm_id": 154989407, "osm_type": "way", "addr:city": "Steinfort", "addr:country": "LU", "addr:housenumber": "5", "addr:postcode": "8420", "addr:street": "Rue de l'École", "amenity": "school", "building": "yes", "note:caclr": "CACLR has wrong building", "ref:caclr": "41035", "wheelchair": "no"}}, {"type": "Feature", "geometry": {"type": "Point", "coordinates": [6.1440894, 49.6008116]}, "properties": {"osm_id": 157260848, "osm_type": "way", "addr:city": "Luxembourg", "addr:housenumber": "37", "addr:postcode": "2174", "addr:street": "Rue du Mur", "amenity": "school", "building": "yes", "ref:caclr": "18440"}}, {"type": "Feature", "geometry": {"type": "Point", "coordinates": [5.8381804, 49.8404223]}, "properties": {"osm_id": 159029830, "osm_type": "way", "amenity": "school"}}, {"type": "Feature", "geometry": {"type": "Point", "coordinates": [6.1377474, 49.6369995]}, "properties": {"osm_id": 162076977, "osm_type": "way", "addr:city": "Luxembourg", "addr:housenumber": "20", "addr:postcode": "1721", "addr:street": "Rue Nicolas Hein", "amenity": "school", "building": "school", "isced:level": "2;3", "name": "Lycée des Arts et Métiers - Site Dommeldange", "ref:caclr": "216748"}}, {"type": "Feature", "geometry": {"type": "Point", "coordinates": [6.163026, 49.6217793]}, "properties": {"osm_id": 164075623, "osm_type": "way", "addr:city": "Luxembourg", "addr:country": "LU", "addr:housenumber": "257", "addr:postcode": "2221", "addr:street": "Rue de Neudorf", "amenity": "school", "building": "yes", "education": "school", "grades": "1-6"}}, {"type": "Feature", "geometry": {"type": "Point", "coordinates": [6.1432864, 49.6144321]}, "properties": {"osm_id": 164179137, "osm_type": "way", "addr:city": "Luxembourg", "addr:country": "LU", "addr:housenumber": "53", "addr:postcode": "2118", "addr:street": "Allée Pierre de Mansfeld", "amenity": "school", "building": "yes"}}, {"type": "Feature", "geometry": {"type": "Point", "coordinates": [5.9988088, 49.9933823]}, "properties": {"osm_id": 165881337, "osm_type": "way", "amenity": "school", "landuse": "education", "name": "École fondamentale Schoulkauz"}}, {"type": "Feature", "geometry": {"type": "Point", "coordinates": [5.979728, 49.8876001]}, "properties": {"osm_id": 173122050, "osm_type": "way", "addr:city": "Heiderscheid", "addr:housenumber": "9", "addr:postcode": "9157", "addr:street": "Schoulwee", "amenity": "school", "building": "yes", "ref:caclr": "240915"}}, {"type": "Feature", "geometry": {"type": "Point", "coordinates": [6.0919338, 49.4919462]}, "properties": {"osm_id": 173899000, "osm_type": "way", "amenity": "school"}}, {"type": "Feature", "geometry": {"type": "Point", "coordinates": [6.1042914, 49.5198219]}, "properties": {"osm_id": 175195220, "osm_type": "way", "amenity": "school"}}, {"type": "Feature", "geometry": {"type": "Point", "coordinates": [6.1901839, 49.5150291]}, "properties": {"osm_id": 185207530, "osm_type": "way", "amenity": "school", "building": "school", "wheelchair": "limited"}}, {"type": "Feature", "geometry": {"type": "Point", "coordinates": [6.0552675, 49.6189524]}, "properties": {"osm_id": 193209866, "osm_type": "way", "addr:city": "Strassen", "addr:country": "LU", "addr:housenumber": "192", "addr:postcode": "8141", "addr:street": "Rue des Romains", "amenity": "school", "building": "school", "name": "École Maria Montessori", "website": "http://www.emm.lu"}}, {"type": "Feature", "geometry": {"type": "Point", "coordinates": [6.2255629, 49.5245633]}, "properties": {"osm_id": 195121195, "osm_type": "way", "amenity": "school", "building": "school"}}, {"type": "Feature", "geometry": {"type": "Point", "coordinates": [6.1463088, 49.5958393]}, "properties": {"osm_id": 205004799, "osm_type": "way", "amenity": "school", "check_date": "2025-01-13", "isced:level": "1", "name": "École fondamentale Bonnevoie Schlechter"}}, {"type": "Feature", "geometry": {"type": "Point", "coordinates": [6.1411076, 49.6028816]}, "properties": {"osm_id": 205398727, "osm_type": "way", "amenity": "school", "isced:level": "0;1", "name": "École fondamentale Bonnevoie Verger"}}, {"type": "Feature", "geometry": {"type": "Point", "coordinates": [6.1259334, 49.6045027]}, "properties": {"osm_id": 205398731, "osm_type": "way", "amenity": "school", "grades": "2-4", "isced:level": "1", "name": "École fondamentale Gare"}}, {"type": "Feature", "geometry": {"type": "Point", "coordinates": [6.1376183, 49.5973072]}, "properties": {"osm_id": 205398733, "osm_type": "way", "amenity": "school", "check_date": "2024-09-27", "grades": "4", "isced:level": "0;1", "min_age": "6", "name": "École fondamentale Bonnevoie Gellé", "operator": "Ville de Luxembourg"}}, {"type": "Feature", "geometry": {"type": "Point", "coordinates": [6.1399254, 49.6031469]}, "properties": {"osm_id": 205398739, "osm_type": "way", "amenity": "school"}}, {"type": "Feature", "geometry": {"type": "Point", "coordinates": [6.1482805, 49.5958655]}, "properties": {"osm_id": 205398750, "osm_type": "way", "amenity": "school", "check_date": "2025-08-21", "isced:level": "0", "name": "École fondamentale Bonnevoie Schlechter"}}, {"type": "Feature", "geometry": {"type": "Point", "coordinates": [6.1403916, 49.596319]}, "properties": {"osm_id": 205398755, "osm_type": "way", "amenity": "school", "check_date": "2024-10-10", "grades": "4", "isced:level": "0;1", "min_age": "6", "name": "École fondamentale Bonnevoie Gellé", "operator": "Ville de Luxembourg"}}, {"type": "Feature", "geometry": {"type": "Point", "coordinates": [6.1608376, 49.6095035]}, "properties": {"osm_id": 205663506, "osm_type": "way", "amenity": "school", "grades": "1-4", "isced:level": "0;1", "name": "École fondamentale Hamm"}}, {"type": "Feature", "geometry": {"type": "Point", "coordinates": [6.1074622, 49.5889676]}, "properties": {"osm_id": 208334632, "osm_type": "way", "amenity": "school", "grades": "1", "isced:level": "0", "name": "École fondamentale Cessange"}}, {"type": "Feature", "geometry": {"type": "Point", "coordinates": [6.106247, 49.5886203]}, "properties": {"osm_id": 208334633, "osm_type": "way", "amenity": "school", "isced:level": "1", "name": "École précoce et fondamentale Cessange", "name:en": "Early and Primary School Cessange", "name:fr": "École précoce et fondamentale Cessange", "operator": "Ville de Luxembourg", "phone": "+352 47 96 6851"}}, {"type": "Feature", "geometry": {"type": "Point", "coordinates": [6.1212793, 49.6096641]}, "properties": {"osm_id": 210440171, "osm_type": "way", "addr:city": "Luxembourg", "addr:country": "LU", "addr:housename": "Villa Lotti", "addr:housenumber": "45A", "addr:postcode": "2163", "addr:street": "Avenue Monterey", "amenity": "school", "building": "yes", "check_date": "2025-06-16", "name": "Prolingua"}}, {"type": "Feature", "geometry": {"type": "Point", "coordinates": [6.111705, 49.7563109]}, "properties": {"osm_id": 229070337, "osm_type": "way", "addr:city": "Mersch", "addr:country": "LU", "addr:housenumber": "45", "addr:postcode": "7590", "addr:street": "Rue de la Gare", "amenity": "school", "designation": "Secondary School", "name": "Campus scolaire Mersch"}}, {"type": "Feature", "geometry": {"type": "Point", "coordinates": [6.1131986, 49.756305]}, "properties": {"osm_id": 231610307, "osm_type": "way", "amenity": "school", "building": "school", "name": "EIMAB annexe"}}, {"type": "Feature", "geometry": {"type": "Point", "coordinates": [6.3660441, 49.6001967]}, "properties": {"osm_id": 234175983, "osm_type": "way", "addr:city": "Lenningen", "addr:country": "LU", "addr:housenumber": "6", "addr:postcode": "5431", "addr:street": "Rue de l'École", "amenity": "school", "building": "school", "education": "school", "name": "Primärschule Lenningen (Gebäude \"Kokebierg\")", "source": "bing", "survey:date": "2013-08-17"}}, {"type": "Feature", "geometry": {"type": "Point", "coordinates": [6.2488272, 49.692703]}, "properties": {"osm_id": 234902464, "osm_type": "way", "amenity": "school", "landuse": "education", "name": "Grondschoul Gonnereng", "name:fr": "École fondamentale Gonderange", "toilets:wheelchair": "yes", "wheelchair": "limited"}}, {"type": "Feature", "geometry": {"type": "Point", "coordinates": [5.9762553, 49.7751623]}, "properties": {"osm_id": 236241689, "osm_type": "way", "amenity": "school"}}, {"type": "Feature", "geometry": {"type": "Point", "coordinates": [6.0188476, 49.7715713]}, "properties": {"osm_id": 237072935, "osm_type": "way", "amenity": "school"}}, {"type": "Feature", "geometry": {"type": "Point", "coordinates": [5.9986993, 50.1211543]}, "properties": {"osm_id": 237121424, "osm_type": "way", "amenity": "school", "check_date": "2025-10-22", "name": "Elwënter Primärschoul"}}, {"type": "Feature", "geometry": {"type": "Point", "coordinates": [5.8550721, 49.5471746]}, "properties": {"osm_id": 237204137, "osm_type": "way", "amenity": "school", "name": "École fondamentale Lamadelaine"}}, {"type": "Feature", "geometry": {"type": "Point", "coordinates": [5.8553052, 49.5468212]}, "properties": {"osm_id": 237204316, "osm_type": "way", "amenity": "school", "name": "École Lamadelaine"}}, {"type": "Feature", "geometry": {"type": "Point", "coordinates": [5.838764, 49.5466406]}, "properties": {"osm_id": 237346663, "osm_type": "way", "amenity": "school", "name": "École Neiwiss Rodange"}}, {"type": "Feature", "geometry": {"type": "Point", "coordinates": [6.2146821, 49.704761]}, "properties": {"osm_id": 243625432, "osm_type": "way", "amenity": "school"}}, {"type": "Feature", "geometry": {"type": "Point", "coordinates": [5.9774518, 49.4920799]}, "properties": {"osm_id": 251441888, "osm_type": "way", "amenity": "school", "building": "yes", "check_date": "2025-08-03", "name": "Brillschoul"}}, {"type": "Feature", "geometry": {"type": "Point", "coordinates": [6.0634465, 49.5670609]}, "properties": {"osm_id": 253357530, "osm_type": "way", "amenity": "school"}}, {"type": "Feature", "geometry": {"type": "Point", "coordinates": [5.8995475, 49.770247]}, "properties": {"osm_id": 254119585, "osm_type": "way", "addr:city": "Redange", "addr:housenumber": "1", "addr:postcode": "8508", "addr:street": "Rue du Lycée", "amenity": "school", "name": "Atert Lycée Réiden", "website": "https://www.alr.lu/", "wikidata": "Q16366314", "wikipedia": "lb:Atert-Lycée"}}, {"type": "Feature", "geometry": {"type": "Point", "coordinates": [6.1464921, 49.7017741]}, "properties": {"osm_id": 256759683, "osm_type": "way", "amenity": "school", "building": "school", "name": "École centrale de Lorenzweiler"}}, {"type": "Feature", "geometry": {"type": "Point", "coordinates": [6.4427619, 49.6824757]}, "properties": {"osm_id": 257523379, "osm_type": "way", "amenity": "school", "isced:level": "2;3", "name": "Lycée Technique Joseph Bech", "name:lb": "Maacher Lycée", "wikidata": "Q13103857"}}, {"type": "Feature", "geometry": {"type": "Point", "coordinates": [6.4454393, 49.6816627]}, "properties": {"osm_id": 257523380, "osm_type": "way", "amenity": "school"}}, {"type": "Feature", "geometry": {"type": "Point", "coordinates": [6.2800639, 49.5731104]}, "properties": {"osm_id": 257545082, "osm_type": "way", "amenity": "school", "education": "school"}}, {"type": "Feature", "geometry": {"type": "Point", "coordinates": [6.1451258, 49.6107353]}, "properties": {"osm_id": 262019441, "osm_type": "way", "addr:city": "Luxembourg", "addr:country": "LU", "addr:housenumber": "64", "addr:postcode": "2630", "addr:street": "Rue de Trèves", "amenity": "school", "building": "school", "isced:level": "2;3", "name": "Sport Lycée", "wikidata": "Q16366392", "wikimedia_commons": "Category:Sportlycée"}}, {"type": "Feature", "geometry": {"type": "Point", "coordinates": [6.3976816, 49.622996]}, "properties": {"osm_id": 263214704, "osm_type": "way", "amenity": "school", "landuse": "education", "name": "Schoulsyndikat Billek"}}, {"type": "Feature", "geometry": {"type": "Point", "coordinates": [6.140496, 49.6910798]}, "properties": {"osm_id": 264940755, "osm_type": "way", "addr:city": "Helmdange", "addr:country": "LU", "addr:housenumber": "144", "addr:postcode": "7374", "addr:street": "Route de Luxembourg", "amenity": "school", "building": "school", "name": "École Helmdange-Bofferdange"}}, {"type": "Feature", "geometry": {"type": "Point", "coordinates": [6.4797415, 49.7008294]}, "properties": {"osm_id": 268228954, "osm_type": "way", "amenity": "school", "building:levels": "1", "building:part": "yes", "roof:colour": "black", "roof:shape": "pyramidal"}}, {"type": "Feature", "geometry": {"type": "Point", "coordinates": [6.4797419, 49.7010258]}, "properties": {"osm_id": 268228955, "osm_type": "way", "amenity": "school", "building:levels": "1", "building:part": "yes", "roof:colour": "black", "roof:shape": "hipped"}}, {"type": "Feature", "geometry": {"type": "Point", "coordinates": [6.4799641, 49.7007447]}, "properties": {"osm_id": 268229699, "osm_type": "way", "amenity": "school", "building:levels": "1", "building:part": "yes", "roof:colour": "black", "roof:shape": "pyramidal"}}, {"type": "Feature", "geometry": {"type": "Point", "coordinates": [6.4798457, 49.7007722]}, "properties": {"osm_id": 268229700, "osm_type": "way", "amenity": "school", "building:levels": "1", "building:part": "yes", "roof:colour": "black", "roof:shape": "pyramidal"}}, {"type": "Feature", "geometry": {"type": "Point", "coordinates": [5.8918469, 49.536777]}, "properties": {"osm_id": 269309214, "osm_type": "way", "amenity": "school", "email": "info@men.lu", "name": "Pavillon préscolaire", "name:lb": "Spillschoul Nidderkuer", "operator": "Ministère de l'Education nationale, de l'Enfance et de la Jeunesse", "phone": "+352 26 58 52 21", "website": "https://men.public.lu/"}}, {"type": "Feature", "geometry": {"type": "Point", "coordinates": [5.8960678, 49.511793]}, "properties": {"osm_id": 273744947, "osm_type": "way", "amenity": "school", "name": "École Um Bock", "wheelchair": "yes"}}, {"type": "Feature", "geometry": {"type": "Point", "coordinates": [5.8843348, 49.6896124]}, "properties": {"osm_id": 282779454, "osm_type": "way", "amenity": "school"}}, {"type": "Feature", "geometry": {"type": "Point", "coordinates": [5.8859528, 49.5214747]}, "properties": {"osm_id": 285291853, "osm_type": "way", "amenity": "school", "name": "Ancienne École Ménagère", "name:lb": "Aal Haushaltungsschoul", "wheelchair": "yes"}}, {"type": "Feature", "geometry": {"type": "Point", "coordinates": [6.1224436, 49.5926495]}, "properties": {"osm_id": 286088038, "osm_type": "way", "amenity": "school", "isced:level": "0;1", "name": "École fondamentale Gasperich", "operator": "Ville de Luxembourg"}}, {"type": "Feature", "geometry": {"type": "Point", "coordinates": [6.169413, 49.8641176]}, "properties": {"osm_id": 290697554, "osm_type": "way", "amenity": "school", "isced:level": "2;3", "landuse": "education"}}, {"type": "Feature", "geometry": {"type": "Point", "coordinates": [5.984554, 49.7261893]}, "properties": {"osm_id": 295251189, "osm_type": "way", "addr:city": "Saeul", "addr:country": "LU", "addr:housenumber": "8", "addr:postcode": "7471", "addr:street": "Um Sand", "amenity": "school", "landuse": "education", "name": "École fondamentale Saeul", "ref:caclr": "239093"}}, {"type": "Feature", "geometry": {"type": "Point", "coordinates": [6.1578016, 49.8703204]}, "properties": {"osm_id": 295649105, "osm_type": "way", "amenity": "school", "building": "school", "isced:level": "1", "name": "École des Filles", "ref:caclr": "missing"}}, {"type": "Feature", "geometry": {"type": "Point", "coordinates": [6.1705157, 49.8641351]}, "properties": {"osm_id": 295656336, "osm_type": "way", "amenity": "school", "isced:level": "3;4;5", "landuse": "education", "name": "École d'hôtellerie et de tourisme du Luxembourg", "short_name": "EHTL", "website": "https://www.ehtl.lu/"}}, {"type": "Feature", "geometry": {"type": "Point", "coordinates": [6.1566584, 49.8699752]}, "properties": {"osm_id": 295671984, "osm_type": "way", "amenity": "school", "building": "school", "isced:level": "1", "name": "École des Garçons", "ref:caclr": "missing"}}, {"type": "Feature", "geometry": {"type": "Point", "coordinates": [6.1560397, 49.8702349]}, "properties": {"osm_id": 295672352, "osm_type": "way", "addr:city": "Diekirch", "addr:housenumber": "1", "addr:postcode": "9226", "addr:street": "Place des Écoles", "amenity": "school", "building": "school", "isced:level": "0", "name": "Spillschull", "ref:caclr": "132246", "wheelchair": "yes"}}, {"type": "Feature", "geometry": {"type": "Point", "coordinates": [6.1694564, 49.8640275]}, "properties": {"osm_id": 296784124, "osm_type": "way", "addr:city": "Diekirch", "addr:country": "LU", "addr:housenumber": "17", "addr:postcode": "9257", "addr:street": "Rue Joseph Merten", "amenity": "school", "building": "school", "building:levels": "2", "name": "Nordstadlycée", "ref:caclr": "234587"}}, {"type": "Feature", "geometry": {"type": "Point", "coordinates": [5.9851633, 49.5292777]}, "properties": {"osm_id": 296994166, "osm_type": "way", "amenity": "school"}}, {"type": "Feature", "geometry": {"type": "Point", "coordinates": [6.0356034, 49.6177529]}, "properties": {"osm_id": 305084686, "osm_type": "way", "addr:city": "Bertrange", "addr:country": "LU", "addr:housenumber": "6", "addr:postcode": "8268", "addr:street": "Rue Gaston Thorn", "alt_name": "Schola Europea Luxembourg II", "amenity": "school", "name": "École Européenne Luxembourg II Mamer", "name:de": "Europäische Schule II Mamer", "name:en": "European School II Mamer", "name:fr": "Ecole Européenne Luxembourg II Mamer", "name:nl": "Europese School II Mamer", "ref:caclr": "228378", "url": "http://www.eursc-mamer.lu/"}}, {"type": "Feature", "geometry": {"type": "Point", "coordinates": [5.9267934, 49.5467496]}, "properties": {"osm_id": 312316322, "osm_type": "way", "amenity": "school", "education": "school", "name": "Grondschoul Suessem", "name:fr": "École fondamentale de Sanem", "name:lb": "Grondschoul Suessem"}}, {"type": "Feature", "geometry": {"type": "Point", "coordinates": [6.0991928, 49.8288666]}, "properties": {"osm_id": 313801529, "osm_type": "way", "amenity": "school"}}, {"type": "Feature", "geometry": {"type": "Point", "coordinates": [6.1023926, 49.7477488]}, "properties": {"osm_id": 315783963, "osm_type": "way", "amenity": "school"}}, {"type": "Feature", "geometry": {"type": "Point", "coordinates": [6.0924325, 49.7420816]}, "properties": {"osm_id": 316037054, "osm_type": "way", "amenity": "school"}}, {"type": "Feature", "geometry": {"type": "Point", "coordinates": [6.4636486, 49.7520948]}, "properties": {"osm_id": 330122694, "osm_type": "way", "addr:city": "Mompach", "addr:housenumber": "6", "addr:postcode": "6695", "addr:street": "Um Buer", "amenity": "school"}}, {"type": "Feature", "geometry": {"type": "Point", "coordinates": [5.9512415, 49.8849964]}, "properties": {"osm_id": 338038349, "osm_type": "way", "amenity": "school", "landuse": "education", "name": "Campus Am Ale Bësch", "website": "https://www.schoul-heischent.lu/"}}, {"type": "Feature", "geometry": {"type": "Point", "coordinates": [6.3442662, 49.8262022]}, "properties": {"osm_id": 340889492, "osm_type": "way", "amenity": "school", "landuse": "education", "name": "Grondschoul Bäerdref", "name:fr": "École fondamentale de Berdorf", "name:lb": "Grondschoul Bäerdref"}}, {"type": "Feature", "geometry": {"type": "Point", "coordinates": [5.8385282, 49.5582944]}, "properties": {"osm_id": 352077527, "osm_type": "way", "amenity": "school", "education": "school", "name": "École primaire de la Frontière"}}, {"type": "Feature", "geometry": {"type": "Point", "coordinates": [5.9947402, 50.0985081]}, "properties": {"osm_id": 355662388, "osm_type": "way", "addr:city": "Sassel", "addr:country": "LU", "addr:housenumber": "29", "addr:postcode": "9976", "addr:street": "Kierchestrooss", "amenity": "school", "building": "school", "ref:ACT:BuildingID": "ACT_ff38914a-934e-4098-b8a4-7ac51793fafb", "ref:caclr": "204888"}}, {"type": "Feature", "geometry": {"type": "Point", "coordinates": [5.9346894, 49.504459]}, "properties": {"osm_id": 363299644, "osm_type": "way", "amenity": "school", "check_date": "2025-04-06", "name": "Lycée Belval"}}, {"type": "Feature", "geometry": {"type": "Point", "coordinates": [6.1306974, 49.6580709]}, "properties": {"osm_id": 368623670, "osm_type": "way", "amenity": "school", "check_date": "2025-10-26", "name": "École fondamentale Walferdange"}}, {"type": "Feature", "geometry": {"type": "Point", "coordinates": [5.9091543, 49.5190262]}, "properties": {"osm_id": 368698129, "osm_type": "way", "amenity": "school", "email": "info@men.lu", "fax": "+352 26 58 49 22", "name": "École Woiwer", "operator": "Ministère de l'Education nationale, de l'Enfance et de la Jeunesse", "phone": "+352 26 58 49 24", "website": "https://men.public.lu/", "wheelchair": "yes"}}, {"type": "Feature", "geometry": {"type": "Point", "coordinates": [5.9722742, 49.4966684]}, "properties": {"osm_id": 368950927, "osm_type": "way", "amenity": "school", "name": "École Jean Jaurès"}}, {"type": "Feature", "geometry": {"type": "Point", "coordinates": [6.1570898, 49.8659245]}, "properties": {"osm_id": 368983463, "osm_type": "way", "addr:city": "Diekirch", "addr:country": "LU", "addr:housenumber": "32", "addr:postcode": "9233", "addr:street": "Avenue de la Gare", "amenity": "school", "isced:level": "2;3", "name": "Lycée classique de Diekirch", "ref:caclr": "131161", "wikidata": "Q1878581"}}, {"type": "Feature", "geometry": {"type": "Point", "coordinates": [6.0808758, 49.4921613]}, "properties": {"osm_id": 370756118, "osm_type": "way", "amenity": "school", "name": "École fondamentale Ribeschpont", "school:LU": "primaire"}}, {"type": "Feature", "geometry": {"type": "Point", "coordinates": [5.8392214, 49.5655716]}, "properties": {"osm_id": 373901144, "osm_type": "way", "amenity": "school", "education": "school", "name": "Athénée Royal Athus", "operator": "Communauté française", "website": "https://arathus.be"}}, {"type": "Feature", "geometry": {"type": "Point", "coordinates": [5.8380748, 49.565273]}, "properties": {"osm_id": 373901145, "osm_type": "way", "amenity": "school", "education": "school", "name": "Institut Cardijn-Lorraine", "operator": "Institut Cardijn-Lorraine, Aumôniers du Travail ASBL à Arlon", "website": "https://www.cardijn-athus.be"}}, {"type": "Feature", "geometry": {"type": "Point", "coordinates": [5.9671122, 49.5240023]}, "properties": {"osm_id": 377224727, "osm_type": "way", "amenity": "school", "landuse": "education", "name": "École d'Ehlerange"}}, {"type": "Feature", "geometry": {"type": "Point", "coordinates": [5.8411862, 49.5454084]}, "properties": {"osm_id": 378884278, "osm_type": "way", "amenity": "school", "name": "École am Päsch Rodange"}}, {"type": "Feature", "geometry": {"type": "Point", "coordinates": [5.870227, 49.5573358]}, "properties": {"osm_id": 378886042, "osm_type": "way", "addr:city": "Pétange", "addr:housenumber": "1", "addr:postcode": "4708", "addr:street": "Rue Mathias Adam", "amenity": "school", "name": "An Eigent", "ref:caclr": "207105"}}, {"type": "Feature", "geometry": {"type": "Point", "coordinates": [5.9855922, 49.5005954]}, "properties": {"osm_id": 381951080, "osm_type": "way", "amenity": "school"}}, {"type": "Feature", "geometry": {"type": "Point", "coordinates": [6.0115554, 49.5014394]}, "properties": {"osm_id": 382871039, "osm_type": "way", "amenity": "school"}}, {"type": "Feature", "geometry": {"type": "Point", "coordinates": [5.9003296, 49.51946]}, "properties": {"osm_id": 383965612, "osm_type": "way", "addr:city": "Differdange", "addr:country": "LU", "addr:housenumber": "2", "addr:postcode": "4508", "addr:street": "Place des Alliés", "amenity": "school", "email": "info@men.lu", "name": "École Fousbann", "operator": "Ministère de l'Education nationale, de l'Enfance et de la Jeunesse", "ref:caclr": "missing", "website": "https://men.public.lu/", "wheelchair": "yes"}}, {"type": "Feature", "geometry": {"type": "Point", "coordinates": [5.9829627, 49.5096105]}, "properties": {"osm_id": 390038675, "osm_type": "way", "addr:city": "Esch-sur-Alzette", "addr:housenumber": "15", "addr:postcode": "4012", "addr:street": "Rue de l'Aérodrome", "amenity": "school", "building": "yes", "check_date": "2024-05-09", "name": "École de l'Aérodrome"}}, {"type": "Feature", "geometry": {"type": "Point", "coordinates": [6.3127895, 49.5516611]}, "properties": {"osm_id": 396030777, "osm_type": "way", "addr:city": "Rolling", "addr:country": "LU", "addr:housenumber": "4", "addr:postcode": "5402", "addr:street": "Rue d'Assel", "amenity": "school", "building": "school", "education": "school"}}, {"type": "Feature", "geometry": {"type": "Point", "coordinates": [5.9887923, 49.644851]}, "properties": {"osm_id": 404303905, "osm_type": "way", "addr:city": "Capellen", "addr:housenumber": "45", "addr:postcode": "8310", "addr:street": "Route d'Arlon", "amenity": "school", "building": "yes", "check_date": "2024-07-29", "name": "Campus Scolaire Capellen", "ref:caclr": "missing", "wheelchair": "yes"}}, {"type": "Feature", "geometry": {"type": "Point", "coordinates": [5.9885772, 49.6443201]}, "properties": {"osm_id": 404303906, "osm_type": "way", "addr:city": "Capellen", "addr:housenumber": "4-6", "addr:postcode": "8336", "addr:street": "Rue Charles Risch", "amenity": "school", "building": "yes", "check_date": "2024-07-29", "name": "Campus Scolaire Capellen", "note:caclr": "CACLR has 45 which is other building", "ref:caclr": "missing"}}, {"type": "Feature", "geometry": {"type": "Point", "coordinates": [6.1206125, 49.6150516]}, "properties": {"osm_id": 426145704, "osm_type": "way", "addr:city": "Luxembourg", "addr:housenumber": "21", "addr:postcode": "1528", "addr:street": "Boulevard de la Foire", "amenity": "school", "building": "civic", "building:levels": "3", "name": "Institut National des Langues", "name:de": "Nationales Spracheninstitut", "name:old": "European School of Luxembourg", "old_name": "Centre de Langues Luxembourg", "ref:caclr": "202905", "roof:levels": "1", "website": "https://www.insl.lu/"}}, {"type": "Feature", "geometry": {"type": "Point", "coordinates": [6.2925324, 49.8380887]}, "properties": {"osm_id": 438364072, "osm_type": "way", "amenity": "school", "name": "Grondschoul Beefort", "operator": "Administration Communal Beaufort"}}, {"type": "Feature", "geometry": {"type": "Point", "coordinates": [6.1551211, 49.5716348]}, "properties": {"osm_id": 458894752, "osm_type": "way", "amenity": "school", "name": "Grondschoul Hesper", "name:lb": "Grondschoul Hesper", "website": "https://www.hesperschoulen.lu/", "wheelchair": "limited"}}, {"type": "Feature", "geometry": {"type": "Point", "coordinates": [5.9851553, 49.514865]}, "properties": {"osm_id": 460847973, "osm_type": "way", "amenity": "school", "name": "Centre d'Éducation Différenciée"}}, {"type": "Feature", "geometry": {"type": "Point", "coordinates": [5.8942277, 49.5132778]}, "properties": {"osm_id": 460958952, "osm_type": "way", "amenity": "school", "name": "École Prince Henri"}}, {"type": "Feature", "geometry": {"type": "Point", "coordinates": [5.9837726, 49.5117644]}, "properties": {"osm_id": 460959000, "osm_type": "way", "amenity": "school", "name": "Lycée technique de Lallange"}}, {"type": "Feature", "geometry": {"type": "Point", "coordinates": [6.1462102, 49.7012326]}, "properties": {"osm_id": 462734873, "osm_type": "way", "amenity": "school", "landuse": "education"}}, {"type": "Feature", "geometry": {"type": "Point", "coordinates": [5.9178118, 49.6615321]}, "properties": {"osm_id": 465159737, "osm_type": "way", "amenity": "school"}}, {"type": "Feature", "geometry": {"type": "Point", "coordinates": [5.9154431, 49.6585123]}, "properties": {"osm_id": 468484797, "osm_type": "way", "amenity": "school"}}, {"type": "Feature", "geometry": {"type": "Point", "coordinates": [5.9598291, 49.5836287]}, "properties": {"osm_id": 470569486, "osm_type": "way", "amenity": "school", "name": "Nouvelle Ecole Fondamentale"}}, {"type": "Feature", "geometry": {"type": "Point", "coordinates": [6.0997584, 49.6028633]}, "properties": {"osm_id": 481599740, "osm_type": "way", "amenity": "school", "grades": "1", "isced:level": "0", "name": "École fondamentale Merl"}}, {"type": "Feature", "geometry": {"type": "Point", "coordinates": [6.4226075, 49.8143719]}, "properties": {"osm_id": 482633107, "osm_type": "way", "amenity": "school", "education": "school", "name": "Lycée classique Echternach", "religion": "none", "short_name": "LCE", "website": "https://www.lce.lu/", "wikidata": "Q16366338", "wikipedia": "lb:Lycée classique d'Echternach"}}, {"type": "Feature", "geometry": {"type": "Point", "coordinates": [6.1510208, 49.6263155]}, "properties": {"osm_id": 501063660, "osm_type": "way", "amenity": "school", "isced:level": "3", "name": "Institut National des Langues"}}, {"type": "Feature", "geometry": {"type": "Point", "coordinates": [6.1430399, 49.5904449]}, "properties": {"osm_id": 528091498, "osm_type": "way", "amenity": "school", "isced:level": "2;3", "name": "Lycée Technique de Bonnevoie", "name:lb": "Bouneweger Lycée  Lëtzebuerg", "phone": "+352 40 39 45 – 1", "ref": "LTB", "website": "https://ltb.lu/", "wikipedia": "lb:Lycée technique de Bonnevoie"}}, {"type": "Feature", "geometry": {"type": "Point", "coordinates": [6.1387892, 49.6628556]}, "properties": {"osm_id": 539868141, "osm_type": "way", "amenity": "school", "landuse": "education", "name": "École de Helmsange"}}, {"type": "Feature", "geometry": {"type": "Point", "coordinates": [6.1171819, 49.6020391]}, "properties": {"osm_id": 540211426, "osm_type": "way", "amenity": "school", "building": "yes", "grades": "1", "isced:level": "0", "name": "École Hollerich - Cycle 1 & Foyer Scolaire & Classes de Cohabitation (CDI)", "ref": "HOM25", "roof:shape": "flat"}}, {"type": "Feature", "geometry": {"type": "Point", "coordinates": [5.9413698, 49.5131523]}, "properties": {"osm_id": 562554240, "osm_type": "way", "amenity": "school", "check_date": "2024-04-07", "name": "Schoul Roude Wee"}}, {"type": "Feature", "geometry": {"type": "Point", "coordinates": [6.1470175, 49.7007004]}, "properties": {"osm_id": 580466133, "osm_type": "way", "amenity": "school", "building": "school", "name": "Complexe scolaire Jos Wohlfart", "source": "geoportail.lu all layers Plan cadastral complet; geoportail.lu all layers Points adresse; geoportail.lu ortho latest"}}, {"type": "Feature", "geometry": {"type": "Point", "coordinates": [5.9326995, 49.9676357]}, "properties": {"osm_id": 609591727, "osm_type": "way", "amenity": "school", "name": "École fondamentale & Maison relais Reenert", "operator": "Commune de Wiltz", "website": "https://www.wiltz.lu/fr/guichet-citoyen/enseignement/enseignement-fondamental/reenert"}}, {"type": "Feature", "geometry": {"type": "Point", "coordinates": [6.1464615, 49.5875243]}, "properties": {"osm_id": 612954357, "osm_type": "way", "amenity": "school", "name": "École préscolaire de Howald Couvent"}}, {"type": "Feature", "geometry": {"type": "Point", "coordinates": [6.3178447, 49.5024172]}, "properties": {"osm_id": 633097562, "osm_type": "way", "amenity": "school", "education": "school", "name": "École centrale Elvange"}}, {"type": "Feature", "geometry": {"type": "Point", "coordinates": [6.0347046, 49.6217301]}, "properties": {"osm_id": 635234804, "osm_type": "way", "amenity": "school"}}, {"type": "Feature", "geometry": {"type": "Point", "coordinates": [6.1273898, 49.5837351]}, "properties": {"osm_id": 646033938, "osm_type": "way", "amenity": "school", "contact:email": "primaire@vauban.lu;secondaire@vauban.lu", "name": "Vauban, École et Lycée Français de Luxembourg", "opening_hours": "Mo-Fr 08:00-16:00; Sa-Su,PH off", "operator:type": "private", "phone": "+352 28 10 11", "website": "https://www.vauban.lu", "wheelchair": "yes"}}, {"type": "Feature", "geometry": {"type": "Point", "coordinates": [6.075072, 49.6026399]}, "properties": {"osm_id": 650047105, "osm_type": "way", "amenity": "school", "name": "Institut pour Déficients Visuels"}}, {"type": "Feature", "geometry": {"type": "Point", "coordinates": [5.9727011, 49.9348629]}, "properties": {"osm_id": 661850220, "osm_type": "way", "addr:city": "Dahl", "addr:housenumber": "19", "addr:postcode": "9644", "addr:street": "Duerfstrooss", "amenity": "school", "building": "school", "ref:caclr": "146932"}}, {"type": "Feature", "geometry": {"type": "Point", "coordinates": [5.9692803, 49.5024252]}, "properties": {"osm_id": 662427267, "osm_type": "way", "amenity": "school", "check_date": "2024-10-19", "name": "École du Bruch"}}, {"type": "Feature", "geometry": {"type": "Point", "coordinates": [6.2851103, 49.50024]}, "properties": {"osm_id": 663781177, "osm_type": "way", "addr:city": "Mondorf-les-Bains", "addr:housenumber": "2", "addr:postcode": "5659", "addr:street": "Route de Burmerange", "amenity": "school", "education": "school", "name": "École internationale de Mondorf", "website": "https://www.eimlb.lu/fr/home"}}, {"type": "Feature", "geometry": {"type": "Point", "coordinates": [6.1278517, 49.6437852]}, "properties": {"osm_id": 666697389, "osm_type": "way", "amenity": "school", "check_date": "2025-11-22", "isced:level": "0;1", "name": "École fondamentale Beggen", "operator": "Ville de Luxembourg"}}, {"type": "Feature", "geometry": {"type": "Point", "coordinates": [5.8374084, 49.5700128]}, "properties": {"osm_id": 669418562, "osm_type": "way", "amenity": "school", "education": "school", "name": "École fondamentale annexée Athus II", "operator": "Communauté française", "phone": "+32 63 38 86 04"}}, {"type": "Feature", "geometry": {"type": "Point", "coordinates": [5.835691, 49.5640609]}, "properties": {"osm_id": 669423840, "osm_type": "way", "amenity": "school", "education": "school", "name": "École fondamentale annexée Athus I", "operator": "Communauté française", "phone": "+32 63 22 11 24"}}, {"type": "Feature", "geometry": {"type": "Point", "coordinates": [5.9080632, 49.8469617]}, "properties": {"osm_id": 682993471, "osm_type": "way", "amenity": "school"}}, {"type": "Feature", "geometry": {"type": "Point", "coordinates": [6.2134138, 49.8082128]}, "properties": {"osm_id": 688245336, "osm_type": "way", "amenity": "school", "name": "Aerenzdallschull"}}, {"type": "Feature", "geometry": {"type": "Point", "coordinates": [5.8964922, 49.5211306]}, "properties": {"osm_id": 696192027, "osm_type": "way", "amenity": "school"}}, {"type": "Feature", "geometry": {"type": "Point", "coordinates": [6.320104, 49.6064338]}, "properties": {"osm_id": 723719787, "osm_type": "way", "amenity": "school", "education": "school", "landuse": "residential", "name": "Grondschoul Lenningen", "name:fr": "École fondamentale de Lenningen", "name:lb": "Grondschoul Lenningen"}}, {"type": "Feature", "geometry": {"type": "Point", "coordinates": [6.1100927, 49.5904103]}, "properties": {"osm_id": 739543267, "osm_type": "way", "addr:city": "Luxembourg", "addr:housenumber": "23", "addr:postcode": "2667", "addr:street": "Rue Verte", "amenity": "school", "building": "yes", "name": "École internationale Gaston Thorn", "website": "https://www.eigt.lu"}}, {"type": "Feature", "geometry": {"type": "Point", "coordinates": [6.0003364, 49.8022153]}, "properties": {"osm_id": 749062681, "osm_type": "way", "amenity": "school", "name": "Grondschoul Viichten", "name:fr": "École fondamentale Vichten", "name:lb": "Grondschoul Viichten", "operator": "Gemeng Vichten", "operator:type": "public", "website": "https://www.ecole-vichten.lu/"}}, {"type": "Feature", "geometry": {"type": "Point", "coordinates": [5.9500157, 49.6164741]}, "properties": {"osm_id": 749301602, "osm_type": "way", "amenity": "school", "landuse": "education", "name": "Grondschoul Garnech"}}, {"type": "Feature", "geometry": {"type": "Point", "coordinates": [6.1327424, 49.6089234]}, "properties": {"osm_id": 769160529, "osm_type": "way", "amenity": "school", "isced:level": "2;3", "name": "Lycée des Arts et Métiers - Site Congréation"}}, {"type": "Feature", "geometry": {"type": "Point", "coordinates": [6.3684848, 49.5451703]}, "properties": {"osm_id": 786601109, "osm_type": "way", "amenity": "school", "education": "school", "landuse": "education"}}, {"type": "Feature", "geometry": {"type": "Point", "coordinates": [6.3658348, 49.5470703]}, "properties": {"osm_id": 786601122, "osm_type": "way", "amenity": "school", "education": "school", "name": "École Gewännchen"}}, {"type": "Feature", "geometry": {"type": "Point", "coordinates": [6.0605029, 49.9092236]}, "properties": {"osm_id": 807441867, "osm_type": "way", "amenity": "school", "name": "Zentralschoul Buurschent"}}, {"type": "Feature", "geometry": {"type": "Point", "coordinates": [6.1730308, 49.7951684]}, "properties": {"osm_id": 807780560, "osm_type": "way", "amenity": "school", "name": "Noumer Grondschoul"}}, {"type": "Feature", "geometry": {"type": "Point", "coordinates": [6.057166, 50.0963485]}, "properties": {"osm_id": 813196835, "osm_type": "way", "amenity": "school", "landuse": "education"}}, {"type": "Feature", "geometry": {"type": "Point", "coordinates": [6.244478, 49.6529136]}, "properties": {"osm_id": 839037150, "osm_type": "way", "amenity": "school"}}, {"type": "Feature", "geometry": {"type": "Point", "coordinates": [6.1788238, 49.8655004]}, "properties": {"osm_id": 849841898, "osm_type": "way", "addr:city": "Gilsdorf", "addr:housenumber": "17", "addr:postcode": "9370", "addr:street": "Rue Principale", "amenity": "school", "building": "school", "ref:caclr": "130367"}}, {"type": "Feature", "geometry": {"type": "Point", "coordinates": [6.1789046, 49.865325]}, "properties": {"osm_id": 849841900, "osm_type": "way", "amenity": "school"}}, {"type": "Feature", "geometry": {"type": "Point", "coordinates": [6.0200739, 49.734403]}, "properties": {"osm_id": 856640669, "osm_type": "way", "amenity": "school"}}, {"type": "Feature", "geometry": {"type": "Point", "coordinates": [5.9385576, 49.5233722]}, "properties": {"osm_id": 863267893, "osm_type": "way", "amenity": "school"}}, {"type": "Feature", "geometry": {"type": "Point", "coordinates": [6.4802666, 49.7004384]}, "properties": {"osm_id": 875495923, "osm_type": "way", "addr:city": "Mertert", "addr:housenumber": "3", "addr:postcode": "6684", "addr:street": "Rue du Parc", "amenity": "school", "building:levels": "2", "building:levels:underground": "1", "fee": "no", "grades": "Cycle 1", "internet_access": "yes", "name": "École Pierre Frieden (bâtiment Cycle 1)", "operator": "Ministère de l'éducation nationale", "operator:type": "public", "religion": "none", "website": "https://www.mertert-schulen.lu/", "wheelchair": "yes"}}, {"type": "Feature", "geometry": {"type": "Point", "coordinates": [6.0975323, 49.8526857]}, "properties": {"osm_id": 884212047, "osm_type": "way", "amenity": "school", "education": "school", "name": "École nationale de santé du Luxembourg"}}, {"type": "Feature", "geometry": {"type": "Point", "coordinates": [6.09762, 49.850012]}, "properties": {"osm_id": 887558465, "osm_type": "way", "amenity": "school", "name": "Lycée Technique d'Ettelbruck", "short_name": "LTEtt"}}, {"type": "Feature", "geometry": {"type": "Point", "coordinates": [6.2960024, 49.6639773]}, "properties": {"osm_id": 890368089, "osm_type": "way", "amenity": "school"}}, {"type": "Feature", "geometry": {"type": "Point", "coordinates": [6.2667494, 49.6300448]}, "properties": {"osm_id": 890742220, "osm_type": "way", "amenity": "school"}}, {"type": "Feature", "geometry": {"type": "Point", "coordinates": [6.1009932, 49.8505799]}, "properties": {"osm_id": 892816717, "osm_type": "way", "amenity": "school", "name": "Cycle 1 - rue Dr Klein", "website": "https://www.schoul-ettelbreck.lu/"}}, {"type": "Feature", "geometry": {"type": "Point", "coordinates": [6.0995745, 49.8453337]}, "properties": {"osm_id": 892816718, "osm_type": "way", "access:conditional": "no @ (22:00-07:00)", "amenity": "school", "name": "Schoul-Ettelbréck Cycle 2-4", "website": "https://www.schoul-ettelbreck.lu/"}}, {"type": "Feature", "geometry": {"type": "Point", "coordinates": [6.096057, 49.8397724]}, "properties": {"osm_id": 892816739, "osm_type": "way", "amenity": "school", "check_date": "2025-02-04", "name": "CNFPC Ettelbruck"}}, {"type": "Feature", "geometry": {"type": "Point", "coordinates": [6.0921681, 49.8089626]}, "properties": {"osm_id": 896312828, "osm_type": "way", "amenity": "school"}}, {"type": "Feature", "geometry": {"type": "Point", "coordinates": [5.9322846, 49.9681813]}, "properties": {"osm_id": 898508785, "osm_type": "way", "amenity": "school", "name": "École fondamentale et Maison Relais Villa Millermoaler", "operator": "Commune de Wiltz", "website": "https://www.wiltz.lu/fr/guichet-citoyen/enseignement/enseignement-fondamental/ecole-villa-millermoaler"}}, {"type": "Feature", "geometry": {"type": "Point", "coordinates": [5.9131231, 49.8520468]}, "properties": {"osm_id": 900313861, "osm_type": "way", "amenity": "school"}}, {"type": "Feature", "geometry": {"type": "Point", "coordinates": [6.1404976, 49.6728813]}, "properties": {"osm_id": 901971502, "osm_type": "way", "amenity": "school"}}, {"type": "Feature", "geometry": {"type": "Point", "coordinates": [6.3301112, 49.5550729]}, "properties": {"osm_id": 902232912, "osm_type": "way", "amenity": "school", "education": "school"}}, {"type": "Feature", "geometry": {"type": "Point", "coordinates": [6.1031653, 49.4851692]}, "properties": {"osm_id": 902260818, "osm_type": "way", "amenity": "school", "leisure": "summer_camp", "name": "Waldschoul"}}, {"type": "Feature", "geometry": {"type": "Point", "coordinates": [6.1640003, 49.6174786]}, "properties": {"osm_id": 903866836, "osm_type": "way", "amenity": "school", "isced:level": "0;1", "name": "École fondamentale Cents", "operator": "Ville de Luxembourg"}}, {"type": "Feature", "geometry": {"type": "Point", "coordinates": [6.0685659, 49.7874573]}, "properties": {"osm_id": 907068254, "osm_type": "way", "amenity": "school"}}, {"type": "Feature", "geometry": {"type": "Point", "coordinates": [6.2197828, 49.7862314]}, "properties": {"osm_id": 908199072, "osm_type": "way", "amenity": "school"}}, {"type": "Feature", "geometry": {"type": "Point", "coordinates": [6.2821988, 49.8206605]}, "properties": {"osm_id": 912524102, "osm_type": "way", "amenity": "school", "name": "Cycle 1 - Précoce"}}, {"type": "Feature", "geometry": {"type": "Point", "coordinates": [5.9395345, 49.7961243]}, "properties": {"osm_id": 913184540, "osm_type": "way", "amenity": "school", "name": "Grondschoul Préizerdaul", "name:lb": "Grondschoul Préizerdaul"}}, {"type": "Feature", "geometry": {"type": "Point", "coordinates": [6.0233482, 50.0648076]}, "properties": {"osm_id": 913842628, "osm_type": "way", "addr:city": "Clervaux", "addr:housenumber": "1", "addr:postcode": "9707", "addr:street": "Rue Edward Steichen", "amenity": "school", "name": "Lycée Edward Steichen", "ref:caclr": "192571", "website": "https://www.lesc.lu/fr/international.php", "wikidata": "Q25583697", "wikipedia": "lb:Lycée Edward-Steichen"}}, {"type": "Feature", "geometry": {"type": "Point", "coordinates": [6.0501792, 49.6113604]}, "properties": {"osm_id": 914088674, "osm_type": "way", "amenity": "school", "name": "Schoul beim Schlass"}}, {"type": "Feature", "geometry": {"type": "Point", "coordinates": [6.1634793, 49.7632641]}, "properties": {"osm_id": 918830420, "osm_type": "way", "amenity": "school"}}, {"type": "Feature", "geometry": {"type": "Point", "coordinates": [6.3231846, 49.6103821]}, "properties": {"osm_id": 921850387, "osm_type": "way", "amenity": "school", "education": "school", "landuse": "education"}}, {"type": "Feature", "geometry": {"type": "Point", "coordinates": [6.3536622, 49.4921854]}, "properties": {"osm_id": 922735616, "osm_type": "way", "amenity": "school", "education": "school"}}, {"type": "Feature", "geometry": {"type": "Point", "coordinates": [6.139185, 49.6037626]}, "properties": {"osm_id": 924507646, "osm_type": "way", "amenity": "school"}}, {"type": "Feature", "geometry": {"type": "Point", "coordinates": [6.0976, 49.5195742]}, "properties": {"osm_id": 928910217, "osm_type": "way", "amenity": "school"}}, {"type": "Feature", "geometry": {"type": "Point", "coordinates": [6.3499347, 49.5279827]}, "properties": {"osm_id": 929799250, "osm_type": "way", "amenity": "school", "education": "school", "landuse": "residential"}}, {"type": "Feature", "geometry": {"type": "Point", "coordinates": [6.1692624, 49.5880545]}, "properties": {"osm_id": 937548796, "osm_type": "way", "amenity": "school", "name": "Grondschoul Izeg", "name:fr": "École fondamentale d'Itzig", "name:lb": "Grondschoul Izeg"}}, {"type": "Feature", "geometry": {"type": "Point", "coordinates": [6.0359975, 49.6691631]}, "properties": {"osm_id": 938829905, "osm_type": "way", "amenity": "school", "landuse": "education"}}, {"type": "Feature", "geometry": {"type": "Point", "coordinates": [6.0348185, 49.6718503]}, "properties": {"osm_id": 938829908, "osm_type": "way", "amenity": "school", "name": "Zentralschoul", "name:fr": "École centrale", "name:lb": "Zentralschoul", "website": "https://www.schoul-kielen.lu/wordpress/"}}, {"type": "Feature", "geometry": {"type": "Point", "coordinates": [5.8577389, 49.5544953]}, "properties": {"osm_id": 939332962, "osm_type": "way", "amenity": "school", "name": "Lycée technique Mathias Adam", "website": "https://www.ltma.lu/"}}, {"type": "Feature", "geometry": {"type": "Point", "coordinates": [6.141222, 49.5839633]}, "properties": {"osm_id": 939489607, "osm_type": "way", "amenity": "school", "name": "Houwald Plateau", "school": "primary", "website": "https://www.hesperange.lu/fr/Pages/residents/Enseignement/B%C3%A2timents-scolaires.aspx"}}, {"type": "Feature", "geometry": {"type": "Point", "coordinates": [6.0718053, 49.6162306]}, "properties": {"osm_id": 944250356, "osm_type": "way", "amenity": "school", "name": "École fondamentale Hueflach"}}, {"type": "Feature", "geometry": {"type": "Point", "coordinates": [6.0714882, 49.6182723]}, "properties": {"osm_id": 944250365, "osm_type": "way", "amenity": "school"}}, {"type": "Feature", "geometry": {"type": "Point", "coordinates": [6.1649161, 49.634668]}, "properties": {"osm_id": 944384593, "osm_type": "way", "amenity": "school", "isced:level": "0", "name": "École Fondamentale Kirchberg", "ref": "KINOP"}}, {"type": "Feature", "geometry": {"type": "Point", "coordinates": [5.9140635, 49.6442068]}, "properties": {"osm_id": 944983332, "osm_type": "way", "amenity": "school"}}, {"type": "Feature", "geometry": {"type": "Point", "coordinates": [6.4798113, 49.7009215]}, "properties": {"osm_id": 945482200, "osm_type": "way", "amenity": "school", "name": "École Pierre Frieden"}}, {"type": "Feature", "geometry": {"type": "Point", "coordinates": [5.9772364, 49.9467153]}, "properties": {"osm_id": 946494940, "osm_type": "way", "amenity": "school"}}, {"type": "Feature", "geometry": {"type": "Point", "coordinates": [6.0705706, 49.6162778]}, "properties": {"osm_id": 954426233, "osm_type": "way", "amenity": "school"}}, {"type": "Feature", "geometry": {"type": "Point", "coordinates": [6.3990272, 49.7316859]}, "properties": {"osm_id": 965631517, "osm_type": "way", "amenity": "school", "education": "school", "landuse": "education", "name": "Renert", "source": "https://bech.lu/wp-content/uploads/2020/09/Schoulbuet_2020_2021.pdf"}}, {"type": "Feature", "geometry": {"type": "Point", "coordinates": [6.1354914, 49.5411912]}, "properties": {"osm_id": 971772585, "osm_type": "way", "amenity": "school"}}, {"type": "Feature", "geometry": {"type": "Point", "coordinates": [5.9591123, 49.8579903]}, "properties": {"osm_id": 973224482, "osm_type": "way", "amenity": "school"}}, {"type": "Feature", "geometry": {"type": "Point", "coordinates": [5.9644382, 49.6993578]}, "properties": {"osm_id": 975389011, "osm_type": "way", "addr:city": "Septfontaines", "addr:housenumber": "31", "addr:postcode": "8395", "addr:street": "Mierscherstrooss", "amenity": "school", "building": "school", "fixme": "public building, need to check what's in there in addition to a school", "grades": "0-6", "name": "École fondamentale de Septfontaines"}}, {"type": "Feature", "geometry": {"type": "Point", "coordinates": [6.1067948, 49.6144549]}, "properties": {"osm_id": 1010776835, "osm_type": "way", "addr:city": "Luxembourg", "addr:housenumber": "4", "addr:postcode": "1854", "addr:street": "Rue Aloyse Kayser", "amenity": "school", "isced:level": "0;1", "name": "École fondamentale Belair Kayser"}}, {"type": "Feature", "geometry": {"type": "Point", "coordinates": [5.9252806, 49.9668455]}, "properties": {"osm_id": 1032619836, "osm_type": "way", "addr:city": "Wiltz", "addr:country": "LU", "addr:housenumber": "4", "addr:postcode": "9540", "addr:street": "Bei der Gierwerei", "amenity": "school", "building": "yes", "isced:level": "0;1", "name": "Campus Geenzepark", "operator": "Commune de Wiltz", "ref:caclr": "251858", "start_date": "2023-09-15", "website": "https://www.schoul-wooltz.lu/"}}, {"type": "Feature", "geometry": {"type": "Point", "coordinates": [6.1280454, 49.6274232]}, "properties": {"osm_id": 1042823665, "osm_type": "way", "amenity": "school", "grades": "1-4", "isced:level": "0;1", "name": "École fondamentale Eich"}}, {"type": "Feature", "geometry": {"type": "Point", "coordinates": [6.1461526, 49.6273532]}, "properties": {"osm_id": 1042823681, "osm_type": "way", "amenity": "school", "isced:level": "0;1", "min_age": "3", "name": "Eis Schoul", "official_name": "Ecole fondamentale Ecole de recherche \"Eis Schoul\"", "website": "https://www.eisschoul.lu/"}}, {"type": "Feature", "geometry": {"type": "Point", "coordinates": [6.1129276, 49.6098807]}, "properties": {"osm_id": 1042823682, "osm_type": "way", "amenity": "school", "grades": "2-4", "isced:level": "1", "name": "École fondamentale Belair Diderich", "operator": "Ville de Luxembourg", "website": "https://belairdiderich.schoul.lu"}}, {"type": "Feature", "geometry": {"type": "Point", "coordinates": [6.1201757, 49.6219382]}, "properties": {"osm_id": 1042858991, "osm_type": "way", "amenity": "school", "grades": "1", "isced:level": "0", "name": "École fondamentale Limpertsberg"}}, {"type": "Feature", "geometry": {"type": "Point", "coordinates": [6.1616487, 49.6367542]}, "properties": {"osm_id": 1042858992, "osm_type": "way", "amenity": "school", "grades": "2-4", "isced:level": "1", "name": "École fondamentale Kirchberg"}}, {"type": "Feature", "geometry": {"type": "Point", "coordinates": [6.1079372, 49.61878]}, "properties": {"osm_id": 1042858995, "osm_type": "way", "amenity": "school", "grades": "1", "isced:level": "0", "name": "École fondamentale Rollingergrund"}}, {"type": "Feature", "geometry": {"type": "Point", "coordinates": [6.1057172, 49.6197001]}, "properties": {"osm_id": 1042858996, "osm_type": "way", "amenity": "school", "grades": "1-4", "isced:level": "0;1", "name": "École fondamentale Rollingergrund"}}, {"type": "Feature", "geometry": {"type": "Point", "coordinates": [6.1099474, 49.5902372]}, "properties": {"osm_id": 1042858997, "osm_type": "way", "amenity": "school", "grades": "1", "isced:level": "0", "name": "École fondamentale Cessange"}}, {"type": "Feature", "geometry": {"type": "Point", "coordinates": [6.1173217, 49.6016389]}, "properties": {"osm_id": 1042858999, "osm_type": "way", "amenity": "school", "grades": "1-4", "isced:level": "0;1", "landuse": "education", "name": "École fondamentale Hollerich"}}, {"type": "Feature", "geometry": {"type": "Point", "coordinates": [6.1268955, 49.6014316]}, "properties": {"osm_id": 1042859003, "osm_type": "way", "amenity": "school", "grades": "1", "isced:level": "0", "name": "École fondamentale Gare", "name:de": "Grundschule Gare", "operator": "Ville de Luxembourg", "operator:type": "public", "religion": "no"}}, {"type": "Feature", "geometry": {"type": "Point", "coordinates": [6.10259, 49.6103768]}, "properties": {"osm_id": 1042859004, "osm_type": "way", "amenity": "school", "grades": "1", "isced:level": "0", "name": "École précoce et préscolaire rue Charles IV"}}, {"type": "Feature", "geometry": {"type": "Point", "coordinates": [6.1339896, 49.6145087]}, "properties": {"osm_id": 1042859008, "osm_type": "way", "amenity": "school", "check_date": "2025-09-30", "grades": "1", "isced:level": "0", "name": "École fondamentale Clausen"}}, {"type": "Feature", "geometry": {"type": "Point", "coordinates": [6.1332879, 49.5405316]}, "properties": {"osm_id": 1065857922, "osm_type": "way", "amenity": "school"}}, {"type": "Feature", "geometry": {"type": "Point", "coordinates": [6.1064153, 49.6021458]}, "properties": {"osm_id": 1067704265, "osm_type": "way", "amenity": "school"}}, {"type": "Feature", "geometry": {"type": "Point", "coordinates": [6.1680499, 49.8611234]}, "properties": {"osm_id": 1083728667, "osm_type": "way", "amenity": "school", "name": "Lycée Technique Agricole", "short_name": "LTA"}}, {"type": "Feature", "geometry": {"type": "Point", "coordinates": [5.9934576, 49.4942792]}, "properties": {"osm_id": 1097273319, "osm_type": "way", "amenity": "school", "landuse": "education"}}, {"type": "Feature", "geometry": {"type": "Point", "coordinates": [6.1994386, 49.5471702]}, "properties": {"osm_id": 1119536964, "osm_type": "way", "amenity": "school", "building": "school", "layer": "1"}}, {"type": "Feature", "geometry": {"type": "Point", "coordinates": [5.8536976, 49.7624034]}, "properties": {"osm_id": 1124087006, "osm_type": "way", "amenity": "school", "name": "Schoul \"um Fräschepillchen\"", "name:fr": "École fondamentale \"um Fräschepillchen\"", "name:lb": "Schoul \"um Fräschepillchen\""}}, {"type": "Feature", "geometry": {"type": "Point", "coordinates": [5.8887555, 49.7648267]}, "properties": {"osm_id": 1133388722, "osm_type": "way", "amenity": "school"}}, {"type": "Feature", "geometry": {"type": "Point", "coordinates": [6.1634381, 49.5679282]}, "properties": {"osm_id": 1139130087, "osm_type": "way", "amenity": "school"}}, {"type": "Feature", "geometry": {"type": "Point", "coordinates": [6.240649, 49.7695648]}, "properties": {"osm_id": 1149852287, "osm_type": "way", "amenity": "school"}}, {"type": "Feature", "geometry": {"type": "Point", "coordinates": [6.1296207, 49.7217093]}, "properties": {"osm_id": 1157408256, "osm_type": "way", "amenity": "school"}}, {"type": "Feature", "geometry": {"type": "Point", "coordinates": [6.4185487, 49.8154825]}, "properties": {"osm_id": 1175999020, "osm_type": "way", "amenity": "school", "education": "school", "name": "Millermoaler Schull Eechternoach", "website": "https://echternach.lu/citoyens/education/ecole-fondamentale-millermoaler-schull/"}}, {"type": "Feature", "geometry": {"type": "Point", "coordinates": [5.9353102, 49.5069696]}, "properties": {"osm_id": 1180479044, "osm_type": "way", "amenity": "school", "name": "Kannercampus"}}, {"type": "Feature", "geometry": {"type": "Point", "coordinates": [5.8726819, 49.5974578]}, "properties": {"osm_id": 1181389028, "osm_type": "way", "amenity": "school"}}, {"type": "Feature", "geometry": {"type": "Point", "coordinates": [6.2208461, 49.6180781]}, "properties": {"osm_id": 1188423537, "osm_type": "way", "amenity": "school", "building": "school", "name": "An de Jeechtstécker"}}, {"type": "Feature", "geometry": {"type": "Point", "coordinates": [6.4475934, 49.6519407]}, "properties": {"osm_id": 1197271840, "osm_type": "way", "addr:city": "Nittel", "addr:country": "DE", "addr:housenumber": "4", "addr:postcode": "54453", "addr:street": "Mühlenweg", "amenity": "school", "name": "Grundschule St. Marien Nittel", "website": "https://www.grundschule-nittel.de/"}}, {"type": "Feature", "geometry": {"type": "Point", "coordinates": [6.1995533, 49.4835592]}, "properties": {"osm_id": 1204735665, "osm_type": "way", "addr:city": "Basse-Rentgen", "addr:housenumber": "10A", "addr:postcode": "57570", "addr:street": "Rue de l'Église", "amenity": "school", "contact:email": "ce.0573716E@ac-nancy-metz.fr", "education": "school", "name": "École primaire Jules Verne", "operator:type": "public", "phone": "+33 3 82 83 48 33", "ref:FR:SIRET": "21570574000045", "ref:UAI": "0573716E", "school:FR": "primaire", "source": "Ministère de l'Éducation nationale, de l'Enseignement supérieur et de la Recherche - 2026-03", "start_date": "2004-09-01"}}, {"type": "Feature", "geometry": {"type": "Point", "coordinates": [6.0311724, 49.533767]}, "properties": {"osm_id": 1211655228, "osm_type": "way", "amenity": "school"}}, {"type": "Feature", "geometry": {"type": "Point", "coordinates": [6.0214031, 49.739616]}, "properties": {"osm_id": 1216610416, "osm_type": "way", "amenity": "school", "name": "Campus Helperknapp", "source": "aerial imagery"}}, {"type": "Feature", "geometry": {"type": "Point", "coordinates": [6.1175726, 49.624104]}, "properties": {"osm_id": 1239920139, "osm_type": "way", "addr:city": "Luxembourg", "addr:housenumber": "1", "addr:postcode": "2515", "addr:street": "Avenue Joseph Sax", "amenity": "school", "grades": "1-6", "isced:level": "1", "name": "International School Michel Lucius", "website": "https://www.lml.lu"}}, {"type": "Feature", "geometry": {"type": "Point", "coordinates": [6.0529944, 49.5072547]}, "properties": {"osm_id": 1267318220, "osm_type": "way", "amenity": "school", "landuse": "education"}}, {"type": "Feature", "geometry": {"type": "Point", "coordinates": [5.9737847, 49.935651]}, "properties": {"osm_id": 1267984351, "osm_type": "way", "amenity": "school", "landuse": "education"}}, {"type": "Feature", "geometry": {"type": "Point", "coordinates": [6.2649797, 49.8667124]}, "properties": {"osm_id": 1270670998, "osm_type": "way", "amenity": "school", "landuse": "education"}}, {"type": "Feature", "geometry": {"type": "Point", "coordinates": [6.415337, 49.8110255]}, "properties": {"osm_id": 1277326063, "osm_type": "way", "amenity": "school", "landuse": "education"}}, {"type": "Feature", "geometry": {"type": "Point", "coordinates": [6.0082917, 49.7183516]}, "properties": {"osm_id": 1282028476, "osm_type": "way", "amenity": "school", "landuse": "education"}}, {"type": "Feature", "geometry": {"type": "Point", "coordinates": [6.2167966, 49.6157878]}, "properties": {"osm_id": 1304047617, "osm_type": "way", "amenity": "school", "landuse": "education"}}, {"type": "Feature", "geometry": {"type": "Point", "coordinates": [6.1165236, 49.6084626]}, "properties": {"osm_id": 1324135245, "osm_type": "way", "amenity": "school"}}, {"type": "Feature", "geometry": {"type": "Point", "coordinates": [6.1374251, 49.6363277]}, "properties": {"osm_id": 1346239409, "osm_type": "way", "addr:city": "Luxembourg", "addr:housenumber": "35", "addr:postcode": "1721", "addr:street": "Rue Nicolas Hein", "amenity": "school", "building": "school", "building:colour": "brown", "building:levels": "3", "grades": "1-4", "isced:level": "0;1", "name": "École Dommeldange", "note": "This is the temporary location of the school till the campus vis-a-vis is ready in 2030", "ref:caclr": "252239", "roof:shape": "flat", "website": "https://www.vdl.lu/fr/vivre/education-et-formations/scolariser-ses-enfants/ecoles-de-la-ville/ecole-dommeldange/doh35"}}, {"type": "Feature", "geometry": {"type": "Point", "coordinates": [6.0996043, 49.6193206]}, "properties": {"osm_id": 1362674736, "osm_type": "way", "amenity": "school"}}, {"type": "Feature", "geometry": {"type": "Point", "coordinates": [6.0458834, 49.8547111]}, "properties": {"osm_id": 1379179971, "osm_type": "way", "amenity": "school"}}, {"type": "Feature", "geometry": {"type": "Point", "coordinates": [6.1260086, 49.6529328]}, "properties": {"osm_id": 1379267056, "osm_type": "way", "amenity": "school", "landuse": "education", "name": "Grondschoul Bäreldeng", "name:fr": "École fondamentale  de Bereldange", "name:lb": "Grondschoul Bäreldeng"}}, {"type": "Feature", "geometry": {"type": "Point", "coordinates": [5.982845, 49.4966685]}, "properties": {"osm_id": 1383273867, "osm_type": "way", "amenity": "school"}}, {"type": "Feature", "geometry": {"type": "Point", "coordinates": [6.164673, 49.5715023]}, "properties": {"osm_id": 1411370525, "osm_type": "way", "amenity": "school", "landuse": "education"}}, {"type": "Feature", "geometry": {"type": "Point", "coordinates": [5.9720066, 49.497489]}, "properties": {"osm_id": 1446954396, "osm_type": "way", "amenity": "school", "name": "École Jean Jaurès"}}, {"type": "Feature", "geometry": {"type": "Point", "coordinates": [6.1629688, 49.6217083]}, "properties": {"osm_id": 1461344068, "osm_type": "way", "amenity": "school", "area": "yes", "education": "school"}}, {"type": "Feature", "geometry": {"type": "Point", "coordinates": [6.1044501, 49.5122068]}, "properties": {"osm_id": 1469172148, "osm_type": "way", "amenity": "school", "education": "school", "name": "Em de Bechel"}}, {"type": "Feature", "geometry": {"type": "Point", "coordinates": [6.2708611, 49.5027919]}, "properties": {"osm_id": 1493858911, "osm_type": "way", "addr:city": "Mondorff", "addr:housenumber": "4", "addr:postcode": "57570", "addr:street": "Rue Paul Verlaine", "amenity": "school", "contact:email": "ce.0571016V@ac-nancy-metz.fr", "contact:phone": "+33 3 82 51 26 62", "education": "school", "name": "École primaire", "operator:type": "public", "ref:FR:SIRET": "21570475000029", "ref:UAI": "0571016V", "school:FR": "primaire", "source": "data.gouv.fr:Ministère de l'Éducation nationale, de la Jeunesse et de la Vie associative - 05/2012", "start_date": "1967-04-27"}}, {"type": "Feature", "geometry": {"type": "Point", "coordinates": [6.1012047, 49.8290303]}, "properties": {"osm_id": 1527114589, "osm_type": "way", "amenity": "school", "isced:level": "0", "name": "Butzeschoul"}}]}