{"type": "FeatureCollection", "features": [{"type": "Feature", "geometry": {"type": "Point", "coordinates": [4.4142279, 52.0981402]}, "properties": {"osm_id": 29672315, "osm_type": "node", "amenity": "place_of_worship", "denomination": "protestant", "name": "Hulp en Heil", "religion": "christian"}}, {"type": "Feature", "geometry": {"type": "Point", "coordinates": [6.9851028, 52.2279591]}, "properties": {"osm_id": 31052233, "osm_type": "node", "amenity": "place_of_worship", "denomination": "syriac_orthodox", "name": "Klooster St. Ephrem de Syriër", "religion": "christian"}}, {"type": "Feature", "geometry": {"type": "Point", "coordinates": [5.988957, 51.3216178]}, "properties": {"osm_id": 60252715, "osm_type": "node", "amenity": "place_of_worship", "created_by": "JOSM", "denomination": "roman_catholic", "name": "Rieterkepelke", "religion": "christian"}}, {"type": "Feature", "geometry": {"type": "Point", "coordinates": [4.8880282, 52.3645621]}, "properties": {"osm_id": 84701653, "osm_type": "node", "addr:city": "Amsterdam", "addr:country": "NL", "addr:housenumber": "566", "addr:postcode": "1017EM", "addr:street": "Keizersgracht", "amenity": "place_of_worship", "denomination": "protestant", "name": "Keizersgrachtkerk", "note": "wijkgemeente van PKA", "religion": "christian", "source": "BAG", "source:date": "2014-02-11", "website": "https://www.keizersgrachtkerk.nl/", "wikidata": "Q1972543", "wikimedia_commons": "Category:Keizersgrachtkerk", "wikipedia": "nl:Keizersgrachtkerk"}}, {"type": "Feature", "geometry": {"type": "Point", "coordinates": [5.0958791, 52.0692739]}, "properties": {"osm_id": 185659366, "osm_type": "node", "addr:city": "Utrecht", "addr:housenumber": "113", "addr:postcode": "3526GB", "addr:street": "Marco Pololaan", "amenity": "place_of_worship", "denomination": "roman_catholic", "name": "Wederkomst des Herenkerk", "operator": "Katholieke Kerkgemeenschap Kanaleneiland", "religion": "christian", "source": "BAG", "source:date": "2014-03-24", "wikidata": "Q16070512", "wikimedia_commons": "Category:Wederkomst des Herenkerk", "wikipedia": "nl:Wederkomst des Herenkerk"}}, {"type": "Feature", "geometry": {"type": "Point", "coordinates": [4.4489074, 51.9085542]}, "properties": {"osm_id": 206388665, "osm_type": "node", "amenity": "place_of_worship", "name": "Oude of Pelgrimvaderskerk", "religion": "christian", "wikidata": "Q2008389", "wikipedia": "nl:Oude of Pelgrimvaderskerk"}}, {"type": "Feature", "geometry": {"type": "Point", "coordinates": [4.3884517, 51.9163035]}, "properties": {"osm_id": 211549783, "osm_type": "node", "amenity": "place_of_worship", "denomination": "orthodox", "name": "Roemeens Orthodoxe Parochie", "religion": "christian", "url": "www.orthodoxekerk.org"}}, {"type": "Feature", "geometry": {"type": "Point", "coordinates": [4.8607027, 52.2925551]}, "properties": {"osm_id": 251075560, "osm_type": "node", "addr:city": "Amstelveen", "addr:country": "NL", "addr:housenumber": "1", "addr:postcode": "1185CN", "addr:street": "Augustinuspark", "amenity": "place_of_worship", "denomination": "protestant", "name": "Paaskerk", "religion": "christian", "website": "https://www.paaskerk-amstelveen.nl/", "wikidata": "Q17126429", "wikimedia_commons": "Category:Hervormde Paaskerk (Amstelveen)", "wikipedia": "nl:Paaskerk (Amstelveen)"}}, {"type": "Feature", "geometry": {"type": "Point", "coordinates": [5.8718444, 50.993452]}, "properties": {"osm_id": 268331319, "osm_type": "node", "amenity": "place_of_worship", "denomination": "roman_catholic", "name": "Gemmakapel", "religion": "christian"}}, {"type": "Feature", "geometry": {"type": "Point", "coordinates": [5.3803982, 52.1388702]}, "properties": {"osm_id": 271967112, "osm_type": "node", "addr:city": "Amersfoort", "addr:housenumber": "4", "addr:postcode": "3817JM", "addr:street": "Robert Kochstraat", "amenity": "place_of_worship", "denomination": "pkn", "name": "Fonteinkerk", "phone": "+31 33 461 4995", "religion": "christian", "website": "https://fonteinkerk-amersfoort.nl/"}}, {"type": "Feature", "geometry": {"type": "Point", "coordinates": [5.8671041, 50.9869205]}, "properties": {"osm_id": 279125407, "osm_type": "node", "addr:city": "Sittard", "addr:housenumber": "109", "addr:postcode": "6132CD", "addr:street": "Leyenbroekerweg", "amenity": "place_of_worship", "denomination": "roman_catholic", "name": "Christus Koning", "religion": "christian", "source": "BAG", "source:date": "2014-05-28"}}, {"type": "Feature", "geometry": {"type": "Point", "coordinates": [5.8670887, 50.986725]}, "properties": {"osm_id": 279125408, "osm_type": "node", "amenity": "place_of_worship", "denomination": "roman_catholic", "name": "Andreaskapel", "religion": "christian"}}, {"type": "Feature", "geometry": {"type": "Point", "coordinates": [5.3846098, 51.5712813]}, "properties": {"osm_id": 281209438, "osm_type": "node", "amenity": "place_of_worship", "check_date": "2025-03-16", "denomination": "roman_catholic", "name": "Kapel", "religion": "christian"}}, {"type": "Feature", "geometry": {"type": "Point", "coordinates": [4.8748262, 52.342086]}, "properties": {"osm_id": 286410338, "osm_type": "node", "addr:city": "Amsterdam", "addr:country": "NL", "addr:housenumber": "36", "addr:postcode": "1077WX", "addr:street": "Prinses Irenestraat", "amenity": "place_of_worship", "denomination": "protestant", "name": "Thomaskerk", "panoramax": "72824fd3-6d71-4b69-92f7-581221972137", "religion": "christian", "wikidata": "Q2124264", "wikimedia_commons": "Category:Thomaskerk (Amsterdam)", "wikipedia": "nl:Thomaskerk (Amsterdam)"}}, {"type": "Feature", "geometry": {"type": "Point", "coordinates": [4.8896053, 52.3692964]}, "properties": {"osm_id": 292367162, "osm_type": "node", "addr:city": "Amsterdam", "addr:housenumber": "30", "addr:postcode": "1012WT", "addr:street": "Begijnhof", "amenity": "place_of_worship", "denomination": "roman_catholic", "name": "Begijnhofkapel", "note": "Johannes en Ursula-kerk", "religion": "christian", "website": "https://begijnhofkapelamsterdam.nl/", "wheelchair": "yes", "wikidata": "Q2740663", "wikimedia_commons": "Category:Begijnhofkapel (Amsterdam)", "wikipedia": "nl:Begijnhofkapel (Amsterdam)"}}, {"type": "Feature", "geometry": {"type": "Point", "coordinates": [5.4026038, 52.1634287]}, "properties": {"osm_id": 296348362, "osm_type": "node", "addr:city": "Amersfoort", "addr:housenumber": "74", "addr:postcode": "3814TE", "addr:street": "Ringweg-Kruiskamp", "amenity": "place_of_worship", "name": "De Adventkerk", "religion": "christian", "source": "BAG", "source:date": "2014-02-11", "wikidata": "Q14849005", "wikipedia": "nl:Adventkerk (Amersfoort)"}}, {"type": "Feature", "geometry": {"type": "Point", "coordinates": [6.066331, 53.1337297]}, "properties": {"osm_id": 304641572, "osm_type": "node", "amenity": "place_of_worship", "religion": "christian"}}, {"type": "Feature", "geometry": {"type": "Point", "coordinates": [6.0557318, 53.3778789]}, "properties": {"osm_id": 310289491, "osm_type": "node", "amenity": "place_of_worship", "name": "Gereformeerde kerk", "religion": "christian"}}, {"type": "Feature", "geometry": {"type": "Point", "coordinates": [4.8965111, 52.0839627]}, "properties": {"osm_id": 330578904, "osm_type": "node", "amenity": "place_of_worship", "denomination": "evangelical", "name": "The Cornerstone", "religion": "christian"}}, {"type": "Feature", "geometry": {"type": "Point", "coordinates": [4.8790271, 52.3462481]}, "properties": {"osm_id": 330661358, "osm_type": "node", "addr:city": "Amsterdam", "addr:country": "NL", "addr:housenumber": "32", "addr:postcode": "1077VW", "addr:street": "Richard Wagnerstraat", "alt_name": "First Church of Christ, Scientist", "amenity": "place_of_worship", "check_date": "2023-09-23", "denomination": "christ_scientist", "name": "Christian Science", "note": "this is not \"Mariakapel\".", "religion": "christian", "website": "https://www.christianscience.nu/index.php?id=527", "wheelchair": "yes"}}, {"type": "Feature", "geometry": {"type": "Point", "coordinates": [4.8795321, 52.3489628]}, "properties": {"osm_id": 330662573, "osm_type": "node", "addr:city": "Amsterdam", "addr:country": "NL", "addr:housenumber": "38", "addr:postcode": "1077EE", "addr:street": "Gerrit van der Veenstraat", "amenity": "place_of_worship", "name": "Lutherkapel", "note": "Hersteld Apostolische Zendingsgemeente (HAZG)?", "religion": "christian"}}, {"type": "Feature", "geometry": {"type": "Point", "coordinates": [6.0558342, 50.8511129]}, "properties": {"osm_id": 338688785, "osm_type": "node", "amenity": "place_of_worship", "check_date": "2024-09-28", "image": "File:Hubertuskapelle Heyder Feldweg, Aachen-Horbach.jpg", "name": "Hubertuskapelle", "religion": "christian", "wheelchair": "no"}}, {"type": "Feature", "geometry": {"type": "Point", "coordinates": [5.5592911, 51.811152]}, "properties": {"osm_id": 340438783, "osm_type": "node", "amenity": "place_of_worship", "check_date": "2025-08-04", "denomination": "roman_catholic", "name": "Kapel O.L. Vrouw van Zeven Weeën", "religion": "christian", "source": "survey"}}, {"type": "Feature", "geometry": {"type": "Point", "coordinates": [4.9344606, 52.3507485]}, "properties": {"osm_id": 341201770, "osm_type": "node", "addr:city": "Amsterdam", "addr:country": "NL", "addr:housenumber": "2", "addr:street": "Hugo de Vrieslaan", "amenity": "place_of_worship", "denomination": "protestant", "heritage": "2", "heritage:operator": "rce", "name": "De Bron", "old_name": "Emmakerk", "ref:rce": "506280", "religion": "christian", "website": "https://www.kerkdebron.org", "wheelchair": "yes"}}, {"type": "Feature", "geometry": {"type": "Point", "coordinates": [5.0976163, 52.2630042]}, "properties": {"osm_id": 343020456, "osm_type": "node", "amenity": "place_of_worship", "denomination": "reformed", "name": "De Hervormde kerk van Ankeveen", "religion": "christian"}}, {"type": "Feature", "geometry": {"type": "Point", "coordinates": [5.5473045, 51.8041841]}, "properties": {"osm_id": 343431896, "osm_type": "node", "amenity": "place_of_worship", "denomination": "roman_catholic", "name": "Kapel Heilige Odrada", "religion": "christian", "source": "GPS"}}, {"type": "Feature", "geometry": {"type": "Point", "coordinates": [5.8561363, 50.8606779]}, "properties": {"osm_id": 358039107, "osm_type": "node", "amenity": "place_of_worship", "denomination": "roman_catholic", "name": "kruisweg op de Schaelsberg", "opening_hours": "24/7", "religion": "christian", "tourism": "museum", "website": "https://www.dekluisvalkenburg.nl"}}, {"type": "Feature", "geometry": {"type": "Point", "coordinates": [4.7444973, 52.079317]}, "properties": {"osm_id": 358163594, "osm_type": "node", "amenity": "place_of_worship", "denomination": "protestant", "name": "Morgenstond", "religion": "christian", "source": "www.reliwiki.nl"}}, {"type": "Feature", "geometry": {"type": "Point", "coordinates": [5.8241078, 50.971923]}, "properties": {"osm_id": 364366017, "osm_type": "node", "amenity": "place_of_worship", "denomination": "protestant", "name": "Ontmoetingskerk", "religion": "christian", "wikidata": "Q28609100", "wikipedia": "nl:Ontmoetingskerk (Geleen)"}}, {"type": "Feature", "geometry": {"type": "Point", "coordinates": [4.5031711, 52.1558034]}, "properties": {"osm_id": 368008165, "osm_type": "node", "amenity": "place_of_worship", "denomination": "roman_catholic", "name": "Verbum Dei", "religion": "christian", "source": "https://reliwiki.nl/index.php/Leiden,_Plantage_16_-_Verbum_Dei", "start_date": "1963"}}, {"type": "Feature", "geometry": {"type": "Point", "coordinates": [4.8611747, 51.6255607]}, "properties": {"osm_id": 369017437, "osm_type": "node", "amenity": "place_of_worship", "name": "Verrijzeniskerk", "religion": "christian", "wheelchair": "yes"}}, {"type": "Feature", "geometry": {"type": "Point", "coordinates": [7.0440301, 52.2662596]}, "properties": {"osm_id": 380435884, "osm_type": "node", "addr:city": "Bad Bentheim", "addr:housenumber": "11", "addr:postcode": "48455", "addr:street": "Klosterstraße", "amenity": "place_of_worship", "denomination": "catholic", "long_name": "Franziskanerkloster Bardel", "name": "Kloster Bardel", "religion": "christian", "website": "https://www.bardel.de/kloster/", "wikidata": "Q1774983", "wikipedia": "de:Kloster Bardel"}}, {"type": "Feature", "geometry": {"type": "Point", "coordinates": [5.7970436, 52.966394]}, "properties": {"osm_id": 388311920, "osm_type": "node", "amenity": "place_of_worship", "denomination": "roman_catholic", "name": "H. Mattheus", "note": "name unsure", "religion": "christian", "wheelchair": "yes"}}, {"type": "Feature", "geometry": {"type": "Point", "coordinates": [5.6754304, 52.0519277]}, "properties": {"osm_id": 404307594, "osm_type": "node", "amenity": "place_of_worship", "name": "De Schuilplaats", "religion": "christian"}}, {"type": "Feature", "geometry": {"type": "Point", "coordinates": [4.7056677, 52.0105932]}, "properties": {"osm_id": 429439572, "osm_type": "node", "addr:city": "Gouda", "addr:housenumber": "141", "addr:postcode": "2801LE", "addr:street": "Hoge Gouwe", "amenity": "place_of_worship", "description": "Chr.Gereformeerde kerk", "name": "Lichtwijzer", "phone": "+31 6 49843127", "religion": "christian", "source": "BAG", "source:date": "2017-05-08", "website": "https://www.cgk-gouda.nl"}}, {"type": "Feature", "geometry": {"type": "Point", "coordinates": [5.9504272, 53.3278273]}, "properties": {"osm_id": 432630438, "osm_type": "node", "amenity": "place_of_worship", "religion": "christian"}}, {"type": "Feature", "geometry": {"type": "Point", "coordinates": [5.7859493, 52.3763331]}, "properties": {"osm_id": 439210603, "osm_type": "node", "addr:city": "Nunspeet", "addr:housenumber": "12", "addr:postcode": "8071BZ", "addr:street": "Dorpsstraat", "amenity": "place_of_worship", "denomination": "protestant", "name": "Hervormde Dorpskerk", "network": "PKN", "religion": "christian", "source": "BAG", "source:date": "2014-05-24", "toilets:wheelchair": "yes", "wheelchair": "yes"}}, {"type": "Feature", "geometry": {"type": "Point", "coordinates": [5.8031342, 52.3867964]}, "properties": {"osm_id": 439210609, "osm_type": "node", "amenity": "place_of_worship", "denomination": "protestant", "name": "Sionskerk", "network": "PKN", "religion": "christian"}}, {"type": "Feature", "geometry": {"type": "Point", "coordinates": [4.2793302, 52.0939363]}, "properties": {"osm_id": 439266676, "osm_type": "node", "amenity": "place_of_worship", "denomination": "protestant", "name": "Zorgvlietkerk", "religion": "christian", "url": "www.nieuwebadkapel-zorgvlietkerk.nl"}}, {"type": "Feature", "geometry": {"type": "Point", "coordinates": [5.9140855, 52.9496696]}, "properties": {"osm_id": 440664489, "osm_type": "node", "amenity": "place_of_worship", "name": "Jehovah's Getuigen Koninkrijkszaal", "religion": "christian"}}, {"type": "Feature", "geometry": {"type": "Point", "coordinates": [4.8637541, 52.3912885]}, "properties": {"osm_id": 442219808, "osm_type": "node", "addr:city": "Amsterdam", "addr:country": "NL", "addr:housenumber": "312", "addr:postcode": "1014AA", "addr:street": "Spaarndammerdijk", "amenity": "place_of_worship", "denomination": "roman_catholic", "description:en": "chapel of cemetery", "description:nl": "kapel bij begraafplaats St Barbara", "name": "Kapel van St Barbara", "religion": "christian"}}, {"type": "Feature", "geometry": {"type": "Point", "coordinates": [4.2865765, 52.1102485]}, "properties": {"osm_id": 443455431, "osm_type": "node", "addr:city": "'s-Gravenhage", "addr:housenumber": "35A", "addr:postcode": "2587CB", "addr:street": "Badhuisweg", "amenity": "place_of_worship", "denomination": "roman_catholic", "name": "Duitstalige Katholieke Gemeenschap", "name:de": "Deutschsprachige katholische Gemeinde", "name:nl": "Duitstalige Katholieke Gemeenschap", "religion": "christian", "source": "BAG", "source:date": "2013-11-26", "website": "https://www.katholischekirche-denhaag.nl"}}, {"type": "Feature", "geometry": {"type": "Point", "coordinates": [4.7331853, 51.5047975]}, "properties": {"osm_id": 443882970, "osm_type": "node", "amenity": "place_of_worship", "chapel": "yes", "denomination": "roman_catholic", "name": "Onze Lieve Vrouw van Zeven Smarten", "religion": "christian"}}, {"type": "Feature", "geometry": {"type": "Point", "coordinates": [4.7117126, 51.4917741]}, "properties": {"osm_id": 443882981, "osm_type": "node", "amenity": "place_of_worship", "building": "chapel", "check_date": "2023-10-31", "name": "Onze Lieve Vrowe van de Vrede", "religion": "christian"}}, {"type": "Feature", "geometry": {"type": "Point", "coordinates": [5.839053, 51.0125119]}, "properties": {"osm_id": 444376208, "osm_type": "node", "amenity": "place_of_worship", "note": "don't know the name", "religion": "christian"}}, {"type": "Feature", "geometry": {"type": "Point", "coordinates": [6.5440892, 53.2145034]}, "properties": {"osm_id": 447884335, "osm_type": "node", "addr:city": "Groningen", "addr:country": "NL", "addr:housenumber": "28-34", "addr:street": "Paulus Potterstraat", "amenity": "place_of_worship", "denomination": "jehovahs_witness", "name": "Koninkrijkszaal van Jehovah's Getuigen", "name:en": "Kingdom Hall of Jehovah's Witnesses", "phone": "+31 50 577 8160", "religion": "christian"}}, {"type": "Feature", "geometry": {"type": "Point", "coordinates": [5.9431148, 51.9349897]}, "properties": {"osm_id": 472409746, "osm_type": "node", "amenity": "place_of_worship", "name": "Dominicanen klooster", "religion": "christian", "source": "survey"}}, {"type": "Feature", "geometry": {"type": "Point", "coordinates": [5.4460406, 52.5172013]}, "properties": {"osm_id": 474824289, "osm_type": "node", "addr:city": "Lelystad", "addr:housenumber": "2", "addr:postcode": "8242GD", "addr:street": "Punter 44", "amenity": "place_of_worship", "name": "Evangeliegemeente Reveil", "religion": "christian", "source": "www.reveillelystad.nl;BAG", "source:date": "2014-06-17"}}, {"type": "Feature", "geometry": {"type": "Point", "coordinates": [5.2853516, 53.391723]}, "properties": {"osm_id": 496057995, "osm_type": "node", "addr:city": "Midsland", "addr:housenumber": "40", "addr:postcode": "8891HT", "addr:street": "Heereweg", "amenity": "place_of_worship", "denomination": "protestant", "name": "Om Oost: ET-10", "religion": "christian"}}, {"type": "Feature", "geometry": {"type": "Point", "coordinates": [4.880472, 52.3608207]}, "properties": {"osm_id": 497191095, "osm_type": "node", "amenity": "place_of_worship", "denomination": "quaker", "name": "Quaker Meeting house", "religion": "christian"}}, {"type": "Feature", "geometry": {"type": "Point", "coordinates": [4.5295408, 52.0111273]}, "properties": {"osm_id": 500192159, "osm_type": "node", "amenity": "place_of_worship", "denomination": "protestant", "name": "De Rank", "religion": "christian"}}, {"type": "Feature", "geometry": {"type": "Point", "coordinates": [4.8263979, 52.7265598]}, "properties": {"osm_id": 503511048, "osm_type": "node", "amenity": "place_of_worship", "denomination": "roman_catholic", "name": "Maria Kapel", "religion": "christian"}}, {"type": "Feature", "geometry": {"type": "Point", "coordinates": [4.707125, 52.0101113]}, "properties": {"osm_id": 518999041, "osm_type": "node", "amenity": "place_of_worship", "check_date": "2026-05-18", "denomination": "protestant", "name": "Sint Joostkapel", "network": "PKN", "religion": "christian", "website": "https://luthersekerkgouda.nl", "wikidata": "Q2806009", "wikipedia": "nl:Sint-Joostkapel (Gouda)"}}, {"type": "Feature", "geometry": {"type": "Point", "coordinates": [4.9993318, 52.8078267]}, "properties": {"osm_id": 522047655, "osm_type": "node", "amenity": "place_of_worship", "name": "Ontmoetingskerk", "religion": "christian"}}, {"type": "Feature", "geometry": {"type": "Point", "coordinates": [4.7466057, 52.0066269]}, "properties": {"osm_id": 533867356, "osm_type": "node", "addr:city": "Gouda", "addr:housenumber": "19", "addr:postcode": "2807KL", "addr:street": "Aderpolderweg", "amenity": "place_of_worship", "check_date": "2026-02-26", "denomination": "protestant", "name": "De Oostpoort", "religion": "christian", "service_times": "Su 09:00-10:30,11:00+", "source": "BAG", "source:date": "2014-03-24", "website": "https://www.oostpoort.net"}}, {"type": "Feature", "geometry": {"type": "Point", "coordinates": [5.0361209, 51.9599117]}, "properties": {"osm_id": 549202442, "osm_type": "node", "addr:city": "Lexmond", "addr:housenumber": "45", "addr:postcode": "4128CX", "addr:street": "Zuidernes", "amenity": "place_of_worship", "denomination": "protestant", "name": "Lux Mundi", "religion": "christian", "source": "BAG", "source:date": "2014-03-24"}}, {"type": "Feature", "geometry": {"type": "Point", "coordinates": [4.433467, 52.1815638]}, "properties": {"osm_id": 549766588, "osm_type": "node", "amenity": "place_of_worship", "denomination": "jehovahs_witness", "name": "Jehovah's Getuigen", "religion": "christian"}}, {"type": "Feature", "geometry": {"type": "Point", "coordinates": [4.5488147, 51.9006155]}, "properties": {"osm_id": 549945917, "osm_type": "node", "addr:city": "Rotterdam", "addr:housenumber": "50", "addr:postcode": "3077BN", "addr:street": "Kasteelweg", "amenity": "place_of_worship", "denomination": "Nederlands hervormd", "name": "Hervormde Adriaen Janszkerk", "religion": "christian", "source": "BAG", "source:date": "2014-03-24", "wikidata": "Q17439881"}}, {"type": "Feature", "geometry": {"type": "Point", "coordinates": [4.4367186, 52.2440207]}, "properties": {"osm_id": 559432665, "osm_type": "node", "amenity": "place_of_worship", "denomination": "protestant", "name": "Zaal Krau", "religion": "christian", "source": "www.reliwiki.nl"}}, {"type": "Feature", "geometry": {"type": "Point", "coordinates": [4.1633284, 51.9051673]}, "properties": {"osm_id": 559662223, "osm_type": "node", "amenity": "place_of_worship", "denomination": "protestant", "name": "Nederlandse Protestanten Bond", "religion": "christian"}}, {"type": "Feature", "geometry": {"type": "Point", "coordinates": [4.1659354, 51.9042047]}, "properties": {"osm_id": 559662228, "osm_type": "node", "amenity": "place_of_worship", "denomination": "protestant", "name": "Waalse Hervormde Gemeente", "religion": "christian"}}, {"type": "Feature", "geometry": {"type": "Point", "coordinates": [4.8760899, 52.3323907]}, "properties": {"osm_id": 561481729, "osm_type": "node", "addr:city": "Amsterdam", "addr:country": "NL", "addr:housenumber": "302", "addr:postcode": "1082LT", "addr:street": "Arent Janszoon Ernststraat", "amenity": "place_of_worship", "denomination": "pentecostal", "name": "Keerpunt", "note": "Pinkstergemeente Amsterdam", "religion": "christian", "source": "BAG", "source:date": "2014-03-24", "wheelchair": "limited"}}, {"type": "Feature", "geometry": {"type": "Point", "coordinates": [4.8751073, 52.3558942]}, "properties": {"osm_id": 561527110, "osm_type": "node", "addr:city": "Amsterdam", "addr:housenumber": "28", "addr:postcode": "1071KM", "addr:street": "Jacob Obrechtstraat", "amenity": "place_of_worship", "denomination": "roman_catholic", "description": "Parochie Onze Lieve Vrouw van de Allerheiligste Rozenkrans", "email": "secretariaat@obrechtkerk.nl", "name": "Obrechtkerk", "phone": "+31 20 662 3779", "religion": "christian", "source": "BAG", "source:date": "2014-03-24", "website": "https://www.obrechtkerk.nl/", "wheelchair": "limited", "wikidata": "Q2045005", "wikimedia_commons": "Category:Obrechtkerk", "wikipedia": "nl:Obrechtkerk"}}, {"type": "Feature", "geometry": {"type": "Point", "coordinates": [5.7813606, 50.7989203]}, "properties": {"osm_id": 567233492, "osm_type": "node", "amenity": "place_of_worship", "building": "chapel", "denomination": "roman_catholic", "historic": "wayside_shrine", "name": "Mariagrot /Lourdesgrot", "name:li": "'t pelke", "place_of_worship": "lourdes_grotto", "religion": "christian"}}, {"type": "Feature", "geometry": {"type": "Point", "coordinates": [5.6076685, 52.6604383]}, "properties": {"osm_id": 571195413, "osm_type": "node", "amenity": "place_of_worship", "denomination": "protestant", "name": "VEG Morgenster", "religion": "christian"}}, {"type": "Feature", "geometry": {"type": "Point", "coordinates": [4.3382905, 52.0795045]}, "properties": {"osm_id": 583344305, "osm_type": "node", "amenity": "place_of_worship", "denomination": "roman_catholic", "name": "Rooms-Katholieke Hongaarse Kerk", "religion": "christian", "source": "www.kerkenindenhaag.nl"}}, {"type": "Feature", "geometry": {"type": "Point", "coordinates": [4.6731715, 52.1453035]}, "properties": {"osm_id": 588393739, "osm_type": "node", "amenity": "place_of_worship", "denomination": "roman_catholic", "name": "Kerkelijk Centrum De Bron", "religion": "christian", "website": "https://www.debron.info/"}}, {"type": "Feature", "geometry": {"type": "Point", "coordinates": [4.8832943, 52.3444611]}, "properties": {"osm_id": 590998739, "osm_type": "node", "addr:city": "Amsterdam", "addr:country": "NL", "addr:housenumber": "3", "addr:postcode": "1077VX", "addr:street": "Diepenbrockstraat", "amenity": "place_of_worship", "denomination": "roman_catholic", "name": "Kapel van de Vrouwe van alle Volkeren", "religion": "christian", "website": "https://www.de-vrouwe.net/"}}, {"type": "Feature", "geometry": {"type": "Point", "coordinates": [4.3238738, 52.1054101]}, "properties": {"osm_id": 597397283, "osm_type": "node", "amenity": "place_of_worship", "denomination": "protestant", "name": "Maison Gaspard", "religion": "christian", "url": "www.royalgaspard.nl"}}, {"type": "Feature", "geometry": {"type": "Point", "coordinates": [4.5294261, 52.0103702]}, "properties": {"osm_id": 597724054, "osm_type": "node", "amenity": "place_of_worship", "denomination": "protestant", "name": "PKN Gereformeerde Kerk", "religion": "christian"}}, {"type": "Feature", "geometry": {"type": "Point", "coordinates": [4.6287508, 52.195293]}, "properties": {"osm_id": 598055613, "osm_type": "node", "amenity": "place_of_worship", "denomination": "roman_catholic", "name": "Sint Petrus' Bandenkerk", "religion": "christian", "source": "www.reliwiki.nl"}}, {"type": "Feature", "geometry": {"type": "Point", "coordinates": [4.8602563, 52.3084953]}, "properties": {"osm_id": 598187078, "osm_type": "node", "addr:city": "Amstelveen", "addr:country": "NL", "addr:housenumber": "140", "addr:postcode": "1181SZ", "addr:street": "Graaf Aelbrechtlaan", "amenity": "place_of_worship", "denomination": "apostolic", "name": "Apostolisch Genootschap", "religion": "christian"}}, {"type": "Feature", "geometry": {"type": "Point", "coordinates": [4.7057247, 52.3030908]}, "properties": {"osm_id": 598509872, "osm_type": "node", "amenity": "place_of_worship", "denomination": "jehovahs_witness", "name": "Jehovah's Getuigen", "religion": "christian", "source": "www.reliwiki.nl"}}, {"type": "Feature", "geometry": {"type": "Point", "coordinates": [4.2094334, 52.0444736]}, "properties": {"osm_id": 599652280, "osm_type": "node", "amenity": "place_of_worship", "height": "23", "religion": "christian", "technology": "UMTS", "tower:type": "communication"}}, {"type": "Feature", "geometry": {"type": "Point", "coordinates": [4.4792701, 51.898177]}, "properties": {"osm_id": 600512845, "osm_type": "node", "amenity": "place_of_worship", "denomination": "protestant", "name": "Chinese Evangelische Kerk", "religion": "christian", "source": "www.reliwiki.nl", "wikidata": "Q104429561"}}, {"type": "Feature", "geometry": {"type": "Point", "coordinates": [4.4973513, 51.9110125]}, "properties": {"osm_id": 600512860, "osm_type": "node", "amenity": "place_of_worship", "denomination": "protestant", "name": "Koningskerk", "religion": "christian", "wikidata": "Q104429673"}}, {"type": "Feature", "geometry": {"type": "Point", "coordinates": [4.6274156, 52.2615573]}, "properties": {"osm_id": 601056653, "osm_type": "node", "amenity": "place_of_worship", "check_date": "2026-06-13", "denomination": "protestant", "name": "Apostolisch Genootschap", "religion": "christian"}}, {"type": "Feature", "geometry": {"type": "Point", "coordinates": [4.6217181, 52.3473492]}, "properties": {"osm_id": 602440593, "osm_type": "node", "amenity": "place_of_worship", "denomination": "protestant", "name": "Kleine Vermaning", "religion": "christian", "source": "www.reliwiki.nl"}}, {"type": "Feature", "geometry": {"type": "Point", "coordinates": [4.6147443, 52.3579135]}, "properties": {"osm_id": 602440594, "osm_type": "node", "amenity": "place_of_worship", "denomination": "protestant", "name": "de Heemkerk", "religion": "christian", "source": "www.reliwiki.nl"}}, {"type": "Feature", "geometry": {"type": "Point", "coordinates": [4.6573627, 52.036286]}, "properties": {"osm_id": 602522720, "osm_type": "node", "addr:city": "Waddinxveen", "addr:housenumber": "4", "addr:postcode": "2741TV", "addr:street": "Burgemeester Trooststraat", "amenity": "place_of_worship", "check_date": "2025-04-03", "denomination": "jehovahs_witness", "name": "Koninkrijkszaal van Jehova's Getuigen", "religion": "christian", "source": "BAG", "source:date": "2014-02-11"}}, {"type": "Feature", "geometry": {"type": "Point", "coordinates": [4.6619081, 52.0752639]}, "properties": {"osm_id": 602522728, "osm_type": "node", "amenity": "place_of_worship", "denomination": "protestant", "name": "Vergadering van Gelovigen", "religion": "christian", "source": "www.reliwiki.nl"}}, {"type": "Feature", "geometry": {"type": "Point", "coordinates": [4.6622159, 52.07687]}, "properties": {"osm_id": 602522729, "osm_type": "node", "amenity": "place_of_worship", "denomination": "protestant", "name": "Christelijke Gereformeerde Kerk", "religion": "christian"}}, {"type": "Feature", "geometry": {"type": "Point", "coordinates": [4.6642283, 52.0765215]}, "properties": {"osm_id": 602522730, "osm_type": "node", "amenity": "place_of_worship", "denomination": "roman_catholic", "name": "Johannes de Doper", "religion": "christian"}}, {"type": "Feature", "geometry": {"type": "Point", "coordinates": [4.9362608, 52.3484038]}, "properties": {"osm_id": 610067824, "osm_type": "node", "addr:city": "Amsterdam", "addr:country": "NL", "addr:housenumber": "20", "addr:postcode": "1097EP", "addr:street": "Van 't Hofflaan", "amenity": "place_of_worship", "check_date": "2025-04-05", "denomination": "protestant", "name": "Koningskerk", "note": "EBG", "religion": "christian", "source": "BAG", "source:date": "2019-04-04", "website": "https://www.ebga.nl/", "wikidata": "Q1867033", "wikimedia_commons": "Category:Koningskerk, Amsterdam", "wikipedia": "nl:Koningskerk (Amsterdam)"}}, {"type": "Feature", "geometry": {"type": "Point", "coordinates": [4.5804874, 52.3669293]}, "properties": {"osm_id": 610940245, "osm_type": "node", "addr:city": "Aerdenhout", "addr:country": "NL", "addr:housenumber": "9", "addr:street": "Sparrenlaan", "amenity": "place_of_worship", "architect": "Joseph and Pierre Cuypers", "denomination": "roman_catholic", "name": "Antonius Paulus", "religion": "christian", "source": "www.reliwiki.nl", "start_date": "1922", "url": "www.aap-parochies.nl", "wikidata": "Q2744426", "wikipedia": "nl:Sint-Antonius van Paduakerk (Aerdenhout)"}}, {"type": "Feature", "geometry": {"type": "Point", "coordinates": [4.5935897, 52.363256]}, "properties": {"osm_id": 610940246, "osm_type": "node", "addr:city": "Aerdenhout", "addr:country": "NL", "addr:housenumber": "5", "addr:street": "Oscar Mendliklaan", "amenity": "place_of_worship", "denomination": "protestant", "name": "Oecumenische kapel", "religion": "christian", "source": "www.reliwiki.nl"}}, {"type": "Feature", "geometry": {"type": "Point", "coordinates": [5.608029, 52.1870873]}, "properties": {"osm_id": 611000030, "osm_type": "node", "addr:city": "Voorthuizen", "addr:housenumber": "202", "addr:postcode": "3781AK", "addr:street": "Hoofdstraat", "amenity": "place_of_worship", "denomination": "reformed", "name": "Kerk aan het Plein", "operator": "Nederlandse Gereformeerde Kerken", "operator:abbr": "NGK", "religion": "christian", "source": "BAG", "source:date": "2014-02-11", "website": "https://kerkaanhetplein.nl/"}}, {"type": "Feature", "geometry": {"type": "Point", "coordinates": [4.3646194, 52.0421443]}, "properties": {"osm_id": 617260374, "osm_type": "node", "amenity": "place_of_worship", "denomination": "protestant", "name": "De Toevlucht", "religion": "christian", "url": "www.kerkopypenburg.nl"}}, {"type": "Feature", "geometry": {"type": "Point", "coordinates": [4.3567558, 51.9986604]}, "properties": {"osm_id": 617821772, "osm_type": "node", "amenity": "place_of_worship", "name": "Levend Water", "religion": "christian", "website": "https://www.levendwater.nl/"}}, {"type": "Feature", "geometry": {"type": "Point", "coordinates": [4.6461706, 52.4333497]}, "properties": {"osm_id": 618321274, "osm_type": "node", "amenity": "place_of_worship", "denomination": "protestant", "name": "Volle Evangelie Gemeenten", "religion": "christian"}}, {"type": "Feature", "geometry": {"type": "Point", "coordinates": [5.9791049, 51.4363267]}, "properties": {"osm_id": 632079667, "osm_type": "node", "addr:city": "America", "addr:housenumber": "2", "addr:postcode": "5966NM", "addr:street": "Pastoor Jeukenstraat", "amenity": "place_of_worship", "denomination": "roman_catholic", "name": "Heilige Jozefkerk", "religion": "christian", "source": "BAG", "source:date": "2014-03-24"}}, {"type": "Feature", "geometry": {"type": "Point", "coordinates": [5.0346861, 52.1404816]}, "properties": {"osm_id": 634588481, "osm_type": "node", "amenity": "place_of_worship", "denomination": "protestant", "name": "Nederlandse Protestanten Bond", "religion": "christian"}}, {"type": "Feature", "geometry": {"type": "Point", "coordinates": [5.0391662, 52.1420612]}, "properties": {"osm_id": 634588488, "osm_type": "node", "addr:city": "Maarssen", "addr:housenumber": "7", "addr:postcode": "3601GH", "addr:street": "Diependaalsedijk", "amenity": "place_of_worship", "denomination": "protestant", "name": "De Hoeksteen", "religion": "christian", "source": "www.reliwiki.nl;BAG", "source:date": "2014-05-20"}}, {"type": "Feature", "geometry": {"type": "Point", "coordinates": [4.98973, 52.24622]}, "properties": {"osm_id": 635333343, "osm_type": "node", "amenity": "place_of_worship", "denomination": "protestant", "name": "Dorpskerk", "religion": "christian", "source": "www.reliwiki.nl"}}, {"type": "Feature", "geometry": {"type": "Point", "coordinates": [4.8397535, 52.2361404]}, "properties": {"osm_id": 639271244, "osm_type": "node", "amenity": "place_of_worship", "denomination": "protestant", "name": "Thamerkerk", "religion": "christian"}}, {"type": "Feature", "geometry": {"type": "Point", "coordinates": [4.7398494, 52.2311696]}, "properties": {"osm_id": 645622216, "osm_type": "node", "amenity": "place_of_worship", "denomination": "protestant", "name": "De Spil", "religion": "christian", "source": "www.reliwiki.nl"}}, {"type": "Feature", "geometry": {"type": "Point", "coordinates": [4.7595432, 52.2615043]}, "properties": {"osm_id": 647929580, "osm_type": "node", "amenity": "place_of_worship", "denomination": "protestant", "name": "voormalig Zuiderkerk", "religion": "christian", "source": "www.reliwiki.nl"}}, {"type": "Feature", "geometry": {"type": "Point", "coordinates": [4.9752325, 52.3223882]}, "properties": {"osm_id": 652665416, "osm_type": "node", "addr:city": "Amsterdam", "addr:housenumber": "1239", "addr:postcode": "1103TX", "addr:street": "Bijlmerdreef", "amenity": "place_of_worship", "denomination": "protestant", "email": "info@pentecostrevival.nl", "mobile": "+31 6 5476 3538", "name": "Charity's House", "operator": "Pentecost Revival Church", "phone": "+31 20 695 1012", "religion": "christian", "source": "BAG", "source:date": "2014-05-07", "website": "https://www.charityshouse.nl"}}, {"type": "Feature", "geometry": {"type": "Point", "coordinates": [4.7884772, 52.2814104]}, "properties": {"osm_id": 652854100, "osm_type": "node", "addr:city": "Aalsmeer", "addr:housenumber": "269", "addr:postcode": "1432AV", "addr:street": "Oosteinderweg", "amenity": "place_of_worship", "denomination": "protestant", "name": "Oosterkerk", "religion": "christian", "source": "www.reliwiki.nl", "url": "https://hervormdaalsmeer.nl/oosterkerk/"}}, {"type": "Feature", "geometry": {"type": "Point", "coordinates": [5.0118887, 52.1077193]}, "properties": {"osm_id": 654433275, "osm_type": "node", "amenity": "place_of_worship", "denomination": "protestant", "name": "Fontein", "religion": "christian", "source": "www.reliwiki.nl"}}, {"type": "Feature", "geometry": {"type": "Point", "coordinates": [4.7539816, 52.1967172]}, "properties": {"osm_id": 662572560, "osm_type": "node", "amenity": "place_of_worship", "denomination": "protestant", "name": "'t Anker", "religion": "christian", "source": "www.reliwiki.nl"}}, {"type": "Feature", "geometry": {"type": "Point", "coordinates": [4.755727, 52.1997378]}, "properties": {"osm_id": 662572562, "osm_type": "node", "amenity": "place_of_worship", "denomination": "roman_catholic", "name": "Ursulakapel", "religion": "christian", "source": "www.reliwiki.nl"}}, {"type": "Feature", "geometry": {"type": "Point", "coordinates": [6.6227965, 52.4616492]}, "properties": {"osm_id": 668569636, "osm_type": "node", "amenity": "place_of_worship", "name": "Gereformeerde kerk", "religion": "christian"}}, {"type": "Feature", "geometry": {"type": "Point", "coordinates": [6.61943, 52.4600771]}, "properties": {"osm_id": 669893047, "osm_type": "node", "amenity": "place_of_worship", "denomination": "dutch_reformed", "name": "Hervormd centrum", "religion": "christian"}}, {"type": "Feature", "geometry": {"type": "Point", "coordinates": [6.0444799, 51.6390085]}, "properties": {"osm_id": 684385896, "osm_type": "node", "amenity": "place_of_worship", "check_date": "2025-02-04", "denomination": "roman_catholic", "name": "Poaters Kapel", "religion": "christian"}}, {"type": "Feature", "geometry": {"type": "Point", "coordinates": [5.2653494, 52.2521674]}, "properties": {"osm_id": 697043148, "osm_type": "node", "amenity": "place_of_worship", "name": "Nicolaaskerk", "religion": "christian"}}, {"type": "Feature", "geometry": {"type": "Point", "coordinates": [5.152363, 51.8808461]}, "properties": {"osm_id": 710741498, "osm_type": "node", "amenity": "place_of_worship", "name": "Kerk", "religion": "christian"}}, {"type": "Feature", "geometry": {"type": "Point", "coordinates": [5.489438, 52.0796165]}, "properties": {"osm_id": 712470573, "osm_type": "node", "addr:city": "Scherpenzeel", "addr:housenumber": "191", "addr:postcode": "3925KV", "addr:street": "Kerkplein", "amenity": "place_of_worship", "name": "Hervormde Kerk", "religion": "christian", "source": "BAG", "source:date": "2014-02-11"}}, {"type": "Feature", "geometry": {"type": "Point", "coordinates": [4.889191, 52.3683481]}, "properties": {"osm_id": 725239190, "osm_type": "node", "addr:city": "Amsterdam", "addr:housenumber": "411", "addr:postcode": "1012WN", "addr:street": "Singel", "amenity": "place_of_worship", "check_date": "2026-01-28", "denomination": "lutheran", "name": "Oude Lutherse Kerk", "religion": "christian", "source": "BAG", "source:date": "2014-02-11", "website": "https://www.luthersamsterdam.nl", "wheelchair": "yes", "wikidata": "Q2041637", "wikimedia_commons": "Category:Oude Lutherse Kerk"}}, {"type": "Feature", "geometry": {"type": "Point", "coordinates": [6.520792, 52.3087978]}, "properties": {"osm_id": 736217415, "osm_type": "node", "amenity": "place_of_worship", "name": "Boomkamp", "religion": "christian"}}, {"type": "Feature", "geometry": {"type": "Point", "coordinates": [6.5003169, 52.3025983]}, "properties": {"osm_id": 736217429, "osm_type": "node", "amenity": "place_of_worship", "name": "Syrisch-Orthodoxe kerk", "religion": "christian"}}, {"type": "Feature", "geometry": {"type": "Point", "coordinates": [6.5185305, 52.3008051]}, "properties": {"osm_id": 736217441, "osm_type": "node", "addr:city": "Rijssen", "addr:housenumber": "2", "addr:postcode": "7462BN", "addr:street": "Johannes Vermeerstraat", "amenity": "place_of_worship", "denomination": "protestant", "name": "Sion", "phone": "+31 548 512 030", "religion": "christian", "service_times": "Su 09:30,16:30", "source": "BAG", "source:date": "2014-02-11", "website": "https://www.hervormdrijssen.nl/"}}, {"type": "Feature", "geometry": {"type": "Point", "coordinates": [6.5208014, 52.3112316]}, "properties": {"osm_id": 736217487, "osm_type": "node", "addr:city": "Rijssen", "addr:housenumber": "2", "addr:postcode": "7461AT", "addr:street": "Stationsdwarsweg", "amenity": "place_of_worship", "name": "Open Hof", "religion": "christian", "source": "BAG", "source:date": "2014-02-11"}}, {"type": "Feature", "geometry": {"type": "Point", "coordinates": [6.5339608, 52.3033927]}, "properties": {"osm_id": 736217524, "osm_type": "node", "amenity": "place_of_worship", "name": "NGPMB Maart '53", "religion": "christian"}}, {"type": "Feature", "geometry": {"type": "Point", "coordinates": [4.5732826, 51.9693232]}, "properties": {"osm_id": 748442946, "osm_type": "node", "addr:city": "Rotterdam", "addr:country": "NL", "addr:housenumber": "1", "addr:postcode": "3069XJ", "addr:street": "Ben Websterstraat", "amenity": "place_of_worship", "name": "Ontmoetingskerk Zevenkamp", "religion": "christian"}}, {"type": "Feature", "geometry": {"type": "Point", "coordinates": [5.667728, 52.0260123]}, "properties": {"osm_id": 756475983, "osm_type": "node", "addr:city": "Ede", "addr:housenumber": "1", "addr:postcode": "6717JM", "addr:street": "Regentesseplein", "amenity": "place_of_worship", "denomination": "new_apostolic", "name": "Nieuw-Apostolische Kerk", "religion": "christian", "source": "BAG", "source:date": "2014-03-24"}}, {"type": "Feature", "geometry": {"type": "Point", "coordinates": [5.7959867, 51.7827394]}, "properties": {"osm_id": 761729933, "osm_type": "node", "amenity": "place_of_worship", "check_date": "2026-05-24", "denomination": "roman_catholic", "name": "Sint Walrickkapel", "religion": "christian", "ruins": "chapel"}}, {"type": "Feature", "geometry": {"type": "Point", "coordinates": [6.1845931, 52.2561697]}, "properties": {"osm_id": 808441240, "osm_type": "node", "amenity": "place_of_worship", "name": "Filadelfia", "religion": "christian"}}, {"type": "Feature", "geometry": {"type": "Point", "coordinates": [5.7470343, 50.8353641]}, "properties": {"osm_id": 809948270, "osm_type": "node", "addr:city": "Cadier en Keer", "addr:housenumber": "8", "addr:street": "Pater Kustersweg", "amenity": "place_of_worship", "denomination": "roman_catholic", "disused": "yes", "ele": "95", "name": "Heerderberg, Lourdesgrot", "place_of_worship": "lourdes_grotto", "ref": "L340", "religion": "christian", "source": "Ed Stevenhagen", "wikidata": "Q66134175", "wikimedia_commons": "Category:Lourdesgrot (Pater Kustersweg, Cadier en Keer)", "wikipedia": "nl:Lourdesgrot (Pater Kustersweg, Cadier en Keer)"}}, {"type": "Feature", "geometry": {"type": "Point", "coordinates": [5.827938, 50.8624462]}, "properties": {"osm_id": 809948278, "osm_type": "node", "amenity": "place_of_worship", "disused": "yes", "ele": "85", "name": "Lourdesgrot", "natural": "cave_entrance", "place_of_worship": "lourdes_grotto", "ref": "F840", "religion": "christian", "source": "Ed Stevenhagen", "wikidata": "Q29510116", "wikimedia_commons": "Category:Lourdesgrot, Valkenburg aan de Geul", "wikipedia": "nl:Lourdesgrot (Valkenburg)"}}, {"type": "Feature", "geometry": {"type": "Point", "coordinates": [4.7737183, 52.0017346]}, "properties": {"osm_id": 811019922, "osm_type": "node", "amenity": "place_of_worship", "denomination": "protestant", "name": "PKN Gereformeerde Kerk", "religion": "christian", "source": "www.reliwiki.nl"}}, {"type": "Feature", "geometry": {"type": "Point", "coordinates": [4.6661701, 51.9816053]}, "properties": {"osm_id": 818600278, "osm_type": "node", "amenity": "place_of_worship", "denomination": "protestant", "name": "Molukse groeperingen", "religion": "christian"}}, {"type": "Feature", "geometry": {"type": "Point", "coordinates": [4.3994978, 51.9140469]}, "properties": {"osm_id": 840164918, "osm_type": "node", "amenity": "place_of_worship", "denomination": "protestant", "name": "Leger des Heils", "religion": "christian", "source": "www.reliwiki.nl"}}, {"type": "Feature", "geometry": {"type": "Point", "coordinates": [4.398987, 51.9138559]}, "properties": {"osm_id": 840164919, "osm_type": "node", "amenity": "place_of_worship", "denomination": "reformed", "designation": "Nederlands Gereformeerd", "name": "Nederlandse Gereformeerde Kerk", "operator": "Nederlandse Gereformeerde Kerken", "operator:abbr": "NGK", "religion": "christian", "website": "https://www.ngkschiedam.nl/"}}, {"type": "Feature", "geometry": {"type": "Point", "coordinates": [4.3999313, 51.9133217]}, "properties": {"osm_id": 840164921, "osm_type": "node", "amenity": "place_of_worship", "denomination": "protestant", "name": "Lutherse kerk", "religion": "christian", "source": "www.reliwiki.nl"}}, {"type": "Feature", "geometry": {"type": "Point", "coordinates": [4.2539171, 51.9200159]}, "properties": {"osm_id": 842950105, "osm_type": "node", "amenity": "place_of_worship", "denomination": "baptist", "name": "Baptisten", "religion": "christian", "source": "www.reliwiki.nl"}}, {"type": "Feature", "geometry": {"type": "Point", "coordinates": [4.2568728, 51.9234396]}, "properties": {"osm_id": 844500621, "osm_type": "node", "amenity": "place_of_worship", "denomination": "salvation_army", "name": "Leger des Heils", "religion": "christian", "source": "www.reliwiki.nl"}}, {"type": "Feature", "geometry": {"type": "Point", "coordinates": [4.2257018, 52.0066973]}, "properties": {"osm_id": 856325003, "osm_type": "node", "amenity": "place_of_worship", "denomination": "protestant", "name": "Vrijzinnige Protestanten", "religion": "christian", "source": "www.reliwiki.nl"}}, {"type": "Feature", "geometry": {"type": "Point", "coordinates": [4.1614378, 52.0020629]}, "properties": {"osm_id": 859699040, "osm_type": "node", "addr:city": "'s-Gravenzande", "addr:housenumber": "181", "addr:postcode": "2691BE", "addr:street": "Langestraat", "amenity": "place_of_worship", "denomination": "protestant", "name": "Uniekerk", "religion": "christian", "source": "www.reliwiki.nl;BAG", "source:date": "2014-03-24"}}, {"type": "Feature", "geometry": {"type": "Point", "coordinates": [4.1597186, 52.0032428]}, "properties": {"osm_id": 859699044, "osm_type": "node", "amenity": "place_of_worship", "denomination": "protestant", "name": "VEG De Aar", "religion": "christian"}}, {"type": "Feature", "geometry": {"type": "Point", "coordinates": [5.6202077, 52.305489]}, "properties": {"osm_id": 885318332, "osm_type": "node", "amenity": "place_of_worship", "denomination": "protestant", "kerkgenootschap": "Christelijke Gereformeerde Kerken", "name": "De Voorhof", "religion": "christian"}}, {"type": "Feature", "geometry": {"type": "Point", "coordinates": [4.5174516, 51.878904]}, "properties": {"osm_id": 919678000, "osm_type": "node", "addr:city": "Rotterdam", "addr:housenumber": "1", "addr:postcode": "3076DA", "addr:street": "Bierens de Haanweg", "amenity": "place_of_worship", "denomination": "apostolic", "name": "Pinkstergemeenten Het Morgenlicht", "religion": "christian"}}, {"type": "Feature", "geometry": {"type": "Point", "coordinates": [5.9892555, 51.2480647]}, "properties": {"osm_id": 920063639, "osm_type": "node", "amenity": "place_of_worship", "denomination": "roman_catholic", "historic": "wayside_cross", "religion": "christian"}}, {"type": "Feature", "geometry": {"type": "Point", "coordinates": [4.9060509, 52.0825201]}, "properties": {"osm_id": 930164771, "osm_type": "node", "amenity": "place_of_worship", "denomination": "protestant", "name": "De Rots", "religion": "christian", "wheelchair": "limited"}}, {"type": "Feature", "geometry": {"type": "Point", "coordinates": [4.2369218, 51.9287661]}, "properties": {"osm_id": 955001965, "osm_type": "node", "amenity": "place_of_worship", "denomination": "protestant", "name": "Koningshof", "religion": "christian", "source": "www.reliwiki.nl", "website": "https://pknmaassluis.nl/"}}, {"type": "Feature", "geometry": {"type": "Point", "coordinates": [4.7767489, 52.1657584]}, "properties": {"osm_id": 960599855, "osm_type": "node", "amenity": "place_of_worship", "denomination": "protestant", "name": "CGK Nieuwkoop", "religion": "christian"}}, {"type": "Feature", "geometry": {"type": "Point", "coordinates": [5.5920557, 52.2581059]}, "properties": {"osm_id": 963490678, "osm_type": "node", "addr:city": "Putten", "addr:housenumber": "2", "addr:postcode": "3882JJ", "addr:street": "Arendstraat", "amenity": "place_of_worship", "denomination": "protestant", "name": "De Arendshof", "religion": "christian", "source": "BAG", "source:date": "2014-06-03"}}, {"type": "Feature", "geometry": {"type": "Point", "coordinates": [5.2418839, 52.086963]}, "properties": {"osm_id": 1020028540, "osm_type": "node", "addr:city": "Zeist", "addr:housenumber": "30", "addr:postcode": "3701JX", "addr:street": "Weeshuislaan", "amenity": "place_of_worship", "denomination": "salvation_army", "name": "Korps Zeist", "religion": "christian", "source": "BAG", "source:date": "2021-12-28", "website": "https://www.legerdesheils.nl/locatie/korpszeist"}}, {"type": "Feature", "geometry": {"type": "Point", "coordinates": [4.9245472, 52.3617331]}, "properties": {"osm_id": 1028073876, "osm_type": "node", "amenity": "place_of_worship", "denomination": "protestant", "name": "Muiderkerk", "note": "Protestantse Kerkgemeente Amsterdam-Oost (PKAO)", "religion": "christian", "source": "survey", "website": "https://www.muiderkerk.nl/", "wheelchair": "yes", "wikidata": "Q2836408", "wikimedia_commons": "Category:Muiderkerk"}}, {"type": "Feature", "geometry": {"type": "Point", "coordinates": [4.6758956, 51.813001]}, "properties": {"osm_id": 1066485822, "osm_type": "node", "amenity": "place_of_worship", "denomination": "salvation_army", "name": "Kerkzaal Leger des Heils", "religion": "christian"}}, {"type": "Feature", "geometry": {"type": "Point", "coordinates": [4.7978174, 52.3580788]}, "properties": {"osm_id": 1083601386, "osm_type": "node", "addr:city": "Amsterdam", "addr:country": "NL", "addr:housenumber": "68", "addr:postcode": "1069DS", "addr:street": "Tussen Meer", "alt_name": "protestantse wijkgemeente Osdorp", "amenity": "place_of_worship", "denomination": "protestant", "name": "Opgang", "note": "part of new building (2009-)", "religion": "christian", "source": "internet, survey", "website": "https://www.osdorpsloten.nl/locaties/locatie-de-opgang"}}, {"type": "Feature", "geometry": {"type": "Point", "coordinates": [4.7594933, 52.6549977]}, "properties": {"osm_id": 1116769892, "osm_type": "node", "addr:city": "Alkmaar", "addr:country": "NL", "addr:housenumber": "60", "addr:street": "Kajakstraat", "amenity": "place_of_worship", "check_date": "2025-04-20", "denomination": "roman_catholic", "name": "Mariakerk", "religion": "christian"}}, {"type": "Feature", "geometry": {"type": "Point", "coordinates": [4.6724873, 51.6775393]}, "properties": {"osm_id": 1131631912, "osm_type": "node", "amenity": "place_of_worship", "denomination": "roman_catholic", "historic": "wayside_shrine", "name": "De Vrouwe van de Moerdijk", "religion": "christian"}}, {"type": "Feature", "geometry": {"type": "Point", "coordinates": [6.6759138, 53.0852753]}, "properties": {"osm_id": 1158271200, "osm_type": "node", "amenity": "place_of_worship", "denomination": "protestant", "name": "Ontmoetingskerk", "religion": "christian"}}, {"type": "Feature", "geometry": {"type": "Point", "coordinates": [4.6351983, 52.3793547]}, "properties": {"osm_id": 1195986961, "osm_type": "node", "addr:city": "Haarlem", "addr:housenumber": "24", "addr:postcode": "2011HV", "addr:street": "Frankestraat", "amenity": "place_of_worship", "denomination": "mennonite", "name": "Vereenigde Doopsgezinde Gemeente Haarlem", "religion": "christian", "source": "BAG", "source:date": "2014-02-11", "toilets:wheelchair": "yes", "wheelchair": "yes"}}, {"type": "Feature", "geometry": {"type": "Point", "coordinates": [4.6275394, 52.380345]}, "properties": {"osm_id": 1210760340, "osm_type": "node", "amenity": "place_of_worship", "name": "Remonstrantse Kerk", "religion": "christian", "wheelchair": "no", "wikidata": "Q1899975", "wikimedia_commons": "Category:Remonstrantse Kerk, Haarlem"}}, {"type": "Feature", "geometry": {"type": "Point", "coordinates": [4.1285498, 51.8366265]}, "properties": {"osm_id": 1215770777, "osm_type": "node", "addr:city": "Hellevoetsluis", "addr:housenumber": "4", "addr:postcode": "3222CD", "addr:street": "Cornelis van Kleiburgstraat", "amenity": "place_of_worship", "denomination": "protestant", "name": "Petrakerk", "religion": "christian"}}, {"type": "Feature", "geometry": {"type": "Point", "coordinates": [6.5037546, 53.2153596]}, "properties": {"osm_id": 1219215924, "osm_type": "node", "addr:city": "Groningen", "addr:country": "NL", "addr:housenumber": "5", "addr:postcode": "9745BT", "addr:street": "Barkstraat", "amenity": "place_of_worship", "denomination": "protestant", "email": "scriba@pghoogkerk.nl", "name": "Elim", "religion": "christian", "website": "https://www.pghoogkerk.nl/"}}, {"type": "Feature", "geometry": {"type": "Point", "coordinates": [6.1117682, 51.4674557]}, "properties": {"osm_id": 1242365334, "osm_type": "node", "amenity": "place_of_worship", "denomination": "roman_catholic", "name": "Vredeskapel", "religion": "christian"}}, {"type": "Feature", "geometry": {"type": "Point", "coordinates": [6.0001635, 51.4152678]}, "properties": {"osm_id": 1248521359, "osm_type": "node", "amenity": "place_of_worship", "denomination": "roman_catholic", "name": "Heilige Theresia van het Kind Jezus", "religion": "christian"}}, {"type": "Feature", "geometry": {"type": "Point", "coordinates": [4.7956985, 52.3439624]}, "properties": {"osm_id": 1271567686, "osm_type": "node", "addr:city": "Amsterdam", "addr:country": "NL", "addr:housenumber": "34", "addr:postcode": "1066EW", "addr:street": "Langsom", "alt_name": "Christus Afgezantenkerk", "amenity": "place_of_worship", "denomination": "protestant", "name": "Christus’ Afgezanten Kerk", "name:id": "Gereja Utusan Kristus", "name:nl": "Christus’ Afgezanten Kerk", "religion": "christian", "website": "https://www.guk.nl/"}}, {"type": "Feature", "geometry": {"type": "Point", "coordinates": [6.0136324, 51.4181347]}, "properties": {"osm_id": 1280689325, "osm_type": "node", "amenity": "place_of_worship", "denomination": "roman_catholic", "religion": "christian"}}, {"type": "Feature", "geometry": {"type": "Point", "coordinates": [4.9336399, 52.3530371]}, "properties": {"osm_id": 1286619371, "osm_type": "node", "amenity": "place_of_worship", "check_date": "2026-02-03", "denomination": "roman_catholic", "name": "Hofkerk", "old_name": "Martelaren van Gorcum", "religion": "christian", "website": "https://hofkerk.amsterdam", "wheelchair": "limited", "wikidata": "Q2104635", "wikimedia_commons": "Category:Martelaren van Gorcumkerk (Amsterdam)", "wikipedia": "nl:Hofkerk (Amsterdam)"}}, {"type": "Feature", "geometry": {"type": "Point", "coordinates": [6.3496517, 53.1264346]}, "properties": {"osm_id": 1286901423, "osm_type": "node", "addr:city": "Zevenhuizen", "addr:housenumber": "58", "addr:postcode": "9354AR", "addr:street": "Hoofddiep", "amenity": "place_of_worship", "denomination": "protestant", "name": "Het Anker", "phone": "+31 594 631 447", "religion": "christian", "source": "BAG", "source:date": "2014-03-24"}}, {"type": "Feature", "geometry": {"type": "Point", "coordinates": [6.7192421, 52.7909919]}, "properties": {"osm_id": 1291026586, "osm_type": "node", "addr:city": "Aalden", "addr:housenumber": "16", "addr:postcode": "7854PG", "addr:street": "Kerkstraat", "amenity": "place_of_worship", "denomination": "protestant", "email": "webmaster@gerefkerkzweeloo.nl", "name": "De Drieklank", "phone": "+31 591 371 538", "religion": "christian", "source": "BAG", "source:date": "2021-09-23", "website": "https://www.gerefkerkzweeloo.nl/"}}, {"type": "Feature", "geometry": {"type": "Point", "coordinates": [5.9809062, 51.4096799]}, "properties": {"osm_id": 1297006873, "osm_type": "node", "amenity": "place_of_worship", "denomination": "roman_catholic", "name": "kapel", "religion": "christian"}}, {"type": "Feature", "geometry": {"type": "Point", "coordinates": [6.3917903, 53.1618407]}, "properties": {"osm_id": 1315477709, "osm_type": "node", "addr:city": "Leek", "addr:housenumber": "44", "addr:postcode": "9351AN", "addr:street": "De Dam", "amenity": "place_of_worship", "denomination": "protestant", "email": "scribaat@pglo.nl", "name": "Nienoordkapel", "phone": "+31 594 515 822", "religion": "christian", "source": "BAG", "source:date": "2014-03-24", "website": "https://www.pglo.nl/"}}, {"type": "Feature", "geometry": {"type": "Point", "coordinates": [6.676161, 52.3793539]}, "properties": {"osm_id": 1325143014, "osm_type": "node", "addr:city": "Almelo", "addr:housenumber": "53", "addr:postcode": "7608KH", "addr:street": "Binnenhof", "amenity": "place_of_worship", "name": "Protestantse Gemeente NOACH", "religion": "christian", "source": "BAG", "source:date": "2014-09-08"}}, {"type": "Feature", "geometry": {"type": "Point", "coordinates": [5.1374316, 51.8790834]}, "properties": {"osm_id": 1328489173, "osm_type": "node", "amenity": "place_of_worship", "denomination": "reformed", "denomination:nl": "Hervormd", "name": "Hervormde Kerk", "religion": "christian"}}, {"type": "Feature", "geometry": {"type": "Point", "coordinates": [5.9007278, 51.5449414]}, "properties": {"osm_id": 1355084940, "osm_type": "node", "amenity": "place_of_worship", "historic": "yes", "name": "Schieëperskruus", "religion": "christian", "website": "https://www.hartvanlimburg.nl/nl/locatie/schieeperskruus"}}, {"type": "Feature", "geometry": {"type": "Point", "coordinates": [4.6778231, 51.4420803]}, "properties": {"osm_id": 1372392693, "osm_type": "node", "amenity": "place_of_worship", "name": "Sint-Constantinus kapel", "religion": "christian"}}, {"type": "Feature", "geometry": {"type": "Point", "coordinates": [5.8656339, 52.7100512]}, "properties": {"osm_id": 1421840478, "osm_type": "node", "addr:city": "Marknesse", "addr:housenumber": "30", "addr:postcode": "8316AE", "addr:street": "G Lokkenstraat", "amenity": "place_of_worship", "denomination": "roman_catholic", "name": "R.K. Emmaüsparochie Onze Lieve Vrouwe Sterre der Zee kerk", "religion": "christian", "source": "BAG", "source:date": "2014-02-11"}}, {"type": "Feature", "geometry": {"type": "Point", "coordinates": [4.299594, 52.048449]}, "properties": {"osm_id": 1444915615, "osm_type": "node", "amenity": "place_of_worship", "denomination": "roman_catholic", "description": "Voormalige Onze Lieve Vrouw Allerheiligst Sacrament", "note": "disused catholic church??", "religion": "christian"}}, {"type": "Feature", "geometry": {"type": "Point", "coordinates": [4.4720022, 51.9266646]}, "properties": {"osm_id": 1446537703, "osm_type": "node", "amenity": "place_of_worship", "check_date": "2026-05-30", "denomination": "baptist", "name": "Dr. J. E. Feisserkapel", "religion": "christian", "url": "www.baptisten-rdam.nl"}}, {"type": "Feature", "geometry": {"type": "Point", "coordinates": [4.3459689, 51.8261522]}, "properties": {"osm_id": 1447488468, "osm_type": "node", "addr:street": "Dorpsstraat", "amenity": "place_of_worship", "denomination": "protestant", "name": "Protestantse gemeente Hekelingen-Maaswijk", "religion": "christian"}}, {"type": "Feature", "geometry": {"type": "Point", "coordinates": [4.8845416, 52.3731192]}, "properties": {"osm_id": 1456331226, "osm_type": "node", "addr:city": "Amsterdam", "addr:housenumber": "220", "addr:postcode": "1016DZ", "addr:street": "Keizersgracht", "amenity": "place_of_worship", "check_date": "2026-05-10", "denomination": "syriac_orthodox", "name": "Moeder Godskerk", "religion": "christian", "source": "BAG", "source:date": "2014-02-11", "website": "https://olvkerk.nl/en/liturgy/mass-times"}}, {"type": "Feature", "geometry": {"type": "Point", "coordinates": [5.6085631, 52.2581045]}, "properties": {"osm_id": 1460018005, "osm_type": "node", "amenity": "place_of_worship", "denomination": "jehovahs_witness", "name": "Koninkrijkszaal van Jehovah's Getuigen", "religion": "christian"}}, {"type": "Feature", "geometry": {"type": "Point", "coordinates": [5.6226458, 52.3029241]}, "properties": {"osm_id": 1474038562, "osm_type": "node", "amenity": "place_of_worship", "denomination": "PKN (hervomd)", "name": "Nieuwe Kerk", "religion": "christian"}}, {"type": "Feature", "geometry": {"type": "Point", "coordinates": [4.2836694, 52.1100406]}, "properties": {"osm_id": 1475154377, "osm_type": "node", "amenity": "place_of_worship", "architect": "A.J. Kropholler", "building": "chapel", "denomination": "roman_catholic", "description": "chapel and scale replica of the Lourdes Grotto", "name": "Lourdeskapel", "religion": "christian", "start_date": "1913", "wikidata": "Q2130468", "wikimedia_commons": "Category:Lourdesgrot (Scheveningen)", "wikipedia": "nl:Lourdeskapel (Scheveningen)"}}, {"type": "Feature", "geometry": {"type": "Point", "coordinates": [6.7485441, 53.1517752]}, "properties": {"osm_id": 1514280580, "osm_type": "node", "addr:city": "Hoogezand", "addr:housenumber": "40", "addr:postcode": "9602TJ", "addr:street": "de Savornin Lohmanlaan", "amenity": "place_of_worship", "contact:email": "info@nak-gorecht.nl", "contact:website": "http://www.nak-gorecht.nl/", "denomination": "protestant", "name": "Nieuw-Apostolische Kerk", "religion": "christian", "source": "BAG", "source:date": "2014-08-03"}}, {"type": "Feature", "geometry": {"type": "Point", "coordinates": [6.7498235, 53.1508193]}, "properties": {"osm_id": 1514280636, "osm_type": "node", "addr:city": "Hoogezand", "addr:housenumber": "1a", "addr:postcode": "9602KZ", "addr:street": "Mars", "amenity": "place_of_worship", "contact:website": "https://www.vbgh.nl", "denomination": "protestant", "name": "Vrije Baptistengemeente De Rank", "religion": "christian", "source": "BAG", "source:date": "2014-08-03"}}, {"type": "Feature", "geometry": {"type": "Point", "coordinates": [5.9089308, 50.9524171]}, "properties": {"osm_id": 1515048758, "osm_type": "node", "amenity": "place_of_worship", "denomination": "roman_catholic", "name": "Mariakapel (Fatimagrot)", "religion": "christian", "website": "https://www.kerkgebouwen-in-limburg.nl/view.jsp?content=8454", "wheelchair": "yes", "wikidata": "Q19757858", "wikipedia": "nl:Fatimagrot"}}, {"type": "Feature", "geometry": {"type": "Point", "coordinates": [4.6336727, 51.8074864]}, "properties": {"osm_id": 1519222602, "osm_type": "node", "amenity": "place_of_worship", "denomination": "protestant", "name": "Nijhoff kerk", "religion": "christian"}}, {"type": "Feature", "geometry": {"type": "Point", "coordinates": [5.8137275, 52.9388296]}, "properties": {"osm_id": 1521214080, "osm_type": "node", "addr:city": "Ouwsterhaule", "addr:housenumber": "27", "addr:street": "Jetze Veldstraweg", "amenity": "place_of_worship", "denomination": "protestant", "name": "Hervormde kerk", "religion": "christian", "wheelchair": "yes"}}, {"type": "Feature", "geometry": {"type": "Point", "coordinates": [5.02614, 52.6799904]}, "properties": {"osm_id": 1535364863, "osm_type": "node", "amenity": "place_of_worship", "denomination": "protestant", "name": "Protestantse Kerk", "religion": "christian"}}, {"type": "Feature", "geometry": {"type": "Point", "coordinates": [5.5246337, 53.0582503]}, "properties": {"osm_id": 1560868444, "osm_type": "node", "amenity": "place_of_worship", "name": "Koninkrijkzaal Jehovah's Getuigen", "religion": "christian"}}, {"type": "Feature", "geometry": {"type": "Point", "coordinates": [4.3905202, 51.8564827]}, "properties": {"osm_id": 1565502156, "osm_type": "node", "amenity": "place_of_worship", "denomination": "protestant", "name": "De Haven", "religion": "christian"}}, {"type": "Feature", "geometry": {"type": "Point", "coordinates": [4.3882728, 51.8563741]}, "properties": {"osm_id": 1565502159, "osm_type": "node", "amenity": "place_of_worship", "denomination": "protestant", "name": "De kapel", "religion": "christian"}}, {"type": "Feature", "geometry": {"type": "Point", "coordinates": [4.3904117, 51.8609035]}, "properties": {"osm_id": 1565502168, "osm_type": "node", "amenity": "place_of_worship", "denomination": "protestant", "name": "Groene Kruiskerk", "religion": "christian"}}, {"type": "Feature", "geometry": {"type": "Point", "coordinates": [4.2471052, 51.9033629]}, "properties": {"osm_id": 1580050541, "osm_type": "node", "amenity": "place_of_worship", "denomination": "roman_catholic", "name": "Sint-Jozefkerk", "religion": "christian", "wikidata": "Q104430575"}}, {"type": "Feature", "geometry": {"type": "Point", "coordinates": [4.3845507, 51.8852776]}, "properties": {"osm_id": 1588781646, "osm_type": "node", "amenity": "place_of_worship", "denomination": "baptist", "name": "De Heuvel", "religion": "christian", "wikidata": "Q104430222"}}, {"type": "Feature", "geometry": {"type": "Point", "coordinates": [4.3873143, 51.8913103]}, "properties": {"osm_id": 1588781716, "osm_type": "node", "amenity": "place_of_worship", "denomination": "protestant", "name": "Jeugdgebouw GK", "religion": "christian"}}, {"type": "Feature", "geometry": {"type": "Point", "coordinates": [4.7185768, 51.8025271]}, "properties": {"osm_id": 1595436058, "osm_type": "node", "amenity": "place_of_worship", "denomination": "protestant", "name": "Huis Bij De Bron", "religion": "christian", "website": "https://www.pkn-stadspolders.nl", "wheelchair": "yes"}}, {"type": "Feature", "geometry": {"type": "Point", "coordinates": [4.9031963, 52.368262]}, "properties": {"osm_id": 1611202845, "osm_type": "node", "addr:city": "Amsterdam", "addr:housenumber": "207", "addr:postcode": "1011PG", "addr:street": "Waterlooplein", "alt_name": "Mozes & Aaron", "amenity": "place_of_worship", "check_date": "2025-02-06", "denomination": "roman_catholic", "name": "Mozes en Aäronkerk", "name:es": "Iglesia de Moises y Aaron", "name:nl": "Mozes en Aäronkerk", "religion": "christian", "website": "https://www.santegidio.nl/amsterdam", "wheelchair": "no", "wikidata": "Q1125814", "wikimedia_commons": "Category:Mozes en Aäronkerk (Amsterdam)", "wikipedia": "nl:Mozes en Aäronkerk"}}, {"type": "Feature", "geometry": {"type": "Point", "coordinates": [6.9217882, 53.3324179]}, "properties": {"osm_id": 1612691271, "osm_type": "node", "amenity": "place_of_worship", "denomination": "baptist", "name": "Baptistengemeente \"Havenlicht\"", "religion": "christian"}}, {"type": "Feature", "geometry": {"type": "Point", "coordinates": [7.0406166, 52.7231685]}, "properties": {"osm_id": 1638489187, "osm_type": "node", "addr:city": "Zwartemeer", "addr:housenumber": "33", "addr:postcode": "7894EB", "addr:street": "Verlengde van Echtenskanaal NZ", "amenity": "place_of_worship", "denomination": "protestant", "name": "Gereformeerde Kerk", "religion": "christian", "source": "BAG", "source:date": "2014-03-24"}}, {"type": "Feature", "geometry": {"type": "Point", "coordinates": [5.876151, 50.8523913]}, "properties": {"osm_id": 1642766379, "osm_type": "node", "amenity": "place_of_worship", "historic": "wayside_shrine", "name": "Bevrijdingskapel", "opening_hours": "24/7", "religion": "christian", "wheelchair": "yes"}}, {"type": "Feature", "geometry": {"type": "Point", "coordinates": [4.4661439, 51.9590668]}, "properties": {"osm_id": 1687328796, "osm_type": "node", "amenity": "place_of_worship", "check_date": "2025-06-04", "denomination": "jehovahs_witness", "name": "Koninkrijkszaal", "religion": "christian", "wikidata": "Q104428469"}}, {"type": "Feature", "geometry": {"type": "Point", "coordinates": [4.7712845, 51.8198264]}, "properties": {"osm_id": 1702628845, "osm_type": "node", "addr:city": "Sliedrecht", "addr:country": "NL", "addr:housenumber": "6", "addr:postcode": "3361VT", "addr:street": "Middeldiepstraat", "amenity": "place_of_worship", "denomination": "protestant", "name": "Gereformeerde Kerk", "religion": "christian", "website": "https://www.gksliedrecht.nl"}}, {"type": "Feature", "geometry": {"type": "Point", "coordinates": [4.9371822, 52.3636127]}, "properties": {"osm_id": 1703287066, "osm_type": "node", "addr:city": "Amsterdam", "addr:housenumber": "118", "addr:street": "Javastraat", "amenity": "place_of_worship", "check_date": "2026-03-02", "denomination": "protestant", "name": "Elthetokerk", "religion": "christian", "toilets": "yes", "toilets:menstrual_products": "limited", "website": "https://www.elthetokerkamsterdam.nl/", "wheelchair": "limited", "wikidata": "Q14850572", "wikimedia_commons": "Category:Elthetokerk (Amsterdam)"}}, {"type": "Feature", "geometry": {"type": "Point", "coordinates": [5.0859444, 51.5532296]}, "properties": {"osm_id": 1707806228, "osm_type": "node", "amenity": "place_of_worship", "name": "Visitatiekapel", "religion": "christian", "url": "https://reliwiki.nl/index.php/Tilburg,_Bisschop_Zwijsenstraat_7_-_Visitatiekapel"}}, {"type": "Feature", "geometry": {"type": "Point", "coordinates": [5.9193863, 52.9785404]}, "properties": {"osm_id": 1709600501, "osm_type": "node", "amenity": "place_of_worship", "name": "Rotondekerk", "religion": "christian", "wikidata": "Q2717375"}}, {"type": "Feature", "geometry": {"type": "Point", "coordinates": [5.9030645, 50.9177156]}, "properties": {"osm_id": 1714853508, "osm_type": "node", "amenity": "place_of_worship", "building": "chapel", "denomination": "roman_catholic", "name": "Mariakapel Terschuren", "religion": "christian"}}, {"type": "Feature", "geometry": {"type": "Point", "coordinates": [6.3142988, 53.0379218]}, "properties": {"osm_id": 1722814356, "osm_type": "node", "amenity": "place_of_worship", "denomination": "protestant", "name": "Hervormde Gemeente Donkerbroek - Haule", "religion": "christian"}}, {"type": "Feature", "geometry": {"type": "Point", "coordinates": [4.7536131, 52.6695001]}, "properties": {"osm_id": 1739192657, "osm_type": "node", "addr:city": "Koedijk", "addr:housenumber": "5", "addr:postcode": "1831BJ", "addr:street": "Kerkelaan", "amenity": "place_of_worship", "denomination": "protestant", "name": "Hervormde Kerk", "religion": "christian"}}, {"type": "Feature", "geometry": {"type": "Point", "coordinates": [6.8487525, 52.4386395]}, "properties": {"osm_id": 1747852412, "osm_type": "node", "amenity": "place_of_worship", "check_date": "2024-06-24", "denomination": "roman_catholic", "name": "Maria, bron van leven", "name:la": "Maria, fons vitae", "name:nl": "Maria, bron van leven", "place_of_worship:type": "shrine", "religion": "christian"}}, {"type": "Feature", "geometry": {"type": "Point", "coordinates": [4.3547919, 52.0122654]}, "properties": {"osm_id": 1779791716, "osm_type": "node", "amenity": "place_of_worship", "denomination": "protestant", "heritage": "2", "heritage:operator": "rce", "name": "Waalse Kerk", "ref:rce": "12028", "religion": "christian", "wheelchair": "limited", "wikidata": "Q2737367", "wikipedia": "nl:Waalse kerk (Delft)"}}, {"type": "Feature", "geometry": {"type": "Point", "coordinates": [6.6569983, 52.3443139]}, "properties": {"osm_id": 1802010837, "osm_type": "node", "amenity": "place_of_worship", "check_date": "2026-04-14", "denomination": "roman_catholic", "name": "Elisa parochie", "religion": "christian"}}, {"type": "Feature", "geometry": {"type": "Point", "coordinates": [6.6549362, 52.3429621]}, "properties": {"osm_id": 1802010838, "osm_type": "node", "amenity": "place_of_worship", "denomination": "baptist", "name": "de bron", "religion": "christian"}}, {"type": "Feature", "geometry": {"type": "Point", "coordinates": [5.7930018, 53.1973989]}, "properties": {"osm_id": 1820945324, "osm_type": "node", "addr:city": "Leeuwarden", "addr:housenumber": "3", "addr:postcode": "8911AE", "addr:street": "Sophialaan", "amenity": "place_of_worship", "check_date": "2025-06-29", "denomination": "mormon", "name": "Kerk van Jezus Christus van de Heiligen der Laatste Dagen", "religion": "christian", "source": "BAG", "source:date": "2014-09-08"}}, {"type": "Feature", "geometry": {"type": "Point", "coordinates": [4.9806504, 52.3158345]}, "properties": {"osm_id": 1821404467, "osm_type": "node", "amenity": "place_of_worship", "check_date": "2025-05-11", "denomination": "pentecostal", "denomination:nl": "Pinkstergeemeente", "name": "Lighthouse Chapel", "religion": "christian"}}, {"type": "Feature", "geometry": {"type": "Point", "coordinates": [4.8038535, 52.7151997]}, "properties": {"osm_id": 1864268089, "osm_type": "node", "amenity": "place_of_worship", "denomination": "Oudkarspel", "name": "Allemanskerk", "religion": "christian", "wikidata": "Q17412671", "wikipedia": "nl:Allemanskerk"}}, {"type": "Feature", "geometry": {"type": "Point", "coordinates": [4.4766383, 51.9086405]}, "properties": {"osm_id": 1881711107, "osm_type": "node", "amenity": "place_of_worship", "name": "Zweedse kerk", "name:en": "Swedish church", "name:nl": "Zweedse kerk", "name:sv": "Svenska kyrkan", "religion": "christian"}}, {"type": "Feature", "geometry": {"type": "Point", "coordinates": [6.3927763, 53.0716694]}, "properties": {"osm_id": 1902746052, "osm_type": "node", "addr:city": "Een", "addr:housenumber": "1", "addr:postcode": "9342TJ", "addr:street": "Haulerwijksterweg", "amenity": "place_of_worship", "denomination": "protestant", "name": "Hervormde Gemeente", "religion": "christian", "source": "BAG", "source:date": "2014-03-24"}}, {"type": "Feature", "geometry": {"type": "Point", "coordinates": [4.6316789, 52.619594]}, "properties": {"osm_id": 1909984909, "osm_type": "node", "addr:city": "Egmond aan Zee", "addr:country": "NL", "addr:housenumber": "12", "addr:postcode": "1931BR", "addr:street": "Wilhelminastraat", "amenity": "place_of_worship", "denomination": "roman_catholic", "religion": "christian", "source": "BAG", "source:date": "2014-03-24"}}, {"type": "Feature", "geometry": {"type": "Point", "coordinates": [6.8893917, 52.7995591]}, "properties": {"osm_id": 1928999811, "osm_type": "node", "addr:city": "Emmen", "addr:housenumber": "205", "addr:postcode": "7815XE", "addr:street": "Meerstraat", "amenity": "place_of_worship", "name": "Apostolisch Genootschap", "religion": "christian", "source": "BAG", "source:date": "2013-11-26"}}, {"type": "Feature", "geometry": {"type": "Point", "coordinates": [6.1675256, 53.1811027]}, "properties": {"osm_id": 1929115216, "osm_type": "node", "amenity": "place_of_worship", "denomination": "protestant", "name": "Gereformeerde kerk Surhuisterveen", "religion": "christian"}}, {"type": "Feature", "geometry": {"type": "Point", "coordinates": [4.2429737, 51.7379994]}, "properties": {"osm_id": 1945779956, "osm_type": "node", "amenity": "place_of_worship", "denomination": "protestant", "name": "Ichtuskerk", "religion": "christian"}}, {"type": "Feature", "geometry": {"type": "Point", "coordinates": [6.341978, 53.2205302]}, "properties": {"osm_id": 1962571417, "osm_type": "node", "addr:city": "Oldekerk", "addr:housenumber": "9", "addr:postcode": "9821PA", "addr:street": "Eekebuursterweg", "amenity": "place_of_worship", "name": "Ichthuskerk", "religion": "christian", "source": "BAG", "source:date": "2014-03-24"}}, {"type": "Feature", "geometry": {"type": "Point", "coordinates": [5.7688931, 51.1711348]}, "properties": {"osm_id": 1975693414, "osm_type": "node", "amenity": "place_of_worship", "denomination": "roman_catholic", "historic": "wayside_cross", "name": "Luyskruis", "religion": "christian"}}, {"type": "Feature", "geometry": {"type": "Point", "coordinates": [5.7500708, 52.2478286]}, "properties": {"osm_id": 1988438752, "osm_type": "node", "addr:city": "Ermelo", "addr:housenumber": "214", "addr:postcode": "3852NP", "addr:street": "Paleisweg", "amenity": "place_of_worship", "name": "Gereformeerde Gemeenten in Nederland De Beek-Uddel", "religion": "christian"}}, {"type": "Feature", "geometry": {"type": "Point", "coordinates": [4.6534332, 51.8446953]}, "properties": {"osm_id": 1988533839, "osm_type": "node", "addr:city": "Hendrik-Ido-Ambacht", "addr:housenumber": "214", "addr:postcode": "3341BP", "addr:street": "Onderdijkse Rijweg", "amenity": "place_of_worship", "denomination": "Oud Gereformeerde Gemeente", "name": "Oud Gereformeerde Gemeente", "religion": "christian", "source": "BAG", "source:date": "2014-03-24"}}, {"type": "Feature", "geometry": {"type": "Point", "coordinates": [4.7301299, 51.4887793]}, "properties": {"osm_id": 1989821698, "osm_type": "node", "amenity": "place_of_worship", "building": "chapel", "name": "Kapel Onze Lieve Vrouw van de Mosten", "religion": "christian"}}, {"type": "Feature", "geometry": {"type": "Point", "coordinates": [4.7758039, 51.4962623]}, "properties": {"osm_id": 2008840811, "osm_type": "node", "amenity": "place_of_worship", "denomination": "catholic", "name": "Kapucijnen Kloosterkerk", "religion": "christian", "website": "https://meersel-dreef.be/info/bezienswaardigheden/kerk%20en%20klooster.html"}}, {"type": "Feature", "geometry": {"type": "Point", "coordinates": [6.0273043, 52.0054657]}, "properties": {"osm_id": 2015263668, "osm_type": "node", "addr:city": "Rheden", "addr:housenumber": "47", "addr:postcode": "6991CA", "addr:street": "Mauritiusstraat", "amenity": "place_of_worship", "name": "Vrije Evangelische Christengemeente", "religion": "christian", "source": "BAG;local knowledge", "source:date": "2014-05-07;2018-09-27"}}, {"type": "Feature", "geometry": {"type": "Point", "coordinates": [6.5316086, 53.2314022]}, "properties": {"osm_id": 2027978233, "osm_type": "node", "addr:city": "Groningen", "addr:housenumber": "221", "addr:postcode": "9743AE", "addr:street": "Friesestraatweg", "amenity": "place_of_worship", "check_date": "2023-09-30", "denomination": "Vrije Baptisten", "name": "De Stadskerk", "religion": "christian", "source": "BAG", "source:date": "2014-03-24", "toilets:wheelchair": "no", "website": "https://www.destadskerk.nl/", "wheelchair": "yes"}}, {"type": "Feature", "geometry": {"type": "Point", "coordinates": [5.7410335, 51.1748396]}, "properties": {"osm_id": 2059720710, "osm_type": "node", "amenity": "place_of_worship", "denomination": "roman_catholic", "historic": "wayside_cross", "religion": "christian"}}, {"type": "Feature", "geometry": {"type": "Point", "coordinates": [4.722655, 52.7427842]}, "properties": {"osm_id": 2076966401, "osm_type": "node", "addr:city": "Sint Maarten", "addr:housenumber": "29", "addr:postcode": "1744JB", "addr:street": "Surmerhuizerweg", "amenity": "place_of_worship", "denomination": "Nederlands Hervormd", "name": "Hervormde Kerk", "religion": "christian", "source": "BAG", "source:date": "2014-03-24"}}, {"type": "Feature", "geometry": {"type": "Point", "coordinates": [4.7548324, 51.6747262]}, "properties": {"osm_id": 2093244477, "osm_type": "node", "amenity": "place_of_worship", "denomination": "roman_catholic", "name": "Middelares aller genade", "religion": "christian"}}, {"type": "Feature", "geometry": {"type": "Point", "coordinates": [4.6399052, 52.3060254]}, "properties": {"osm_id": 2108373672, "osm_type": "node", "amenity": "place_of_worship", "denomination": "protestant", "name": "Cross Culture Calvary Chapel", "religion": "christian"}}, {"type": "Feature", "geometry": {"type": "Point", "coordinates": [4.4283216, 51.9354037]}, "properties": {"osm_id": 2140126846, "osm_type": "node", "amenity": "place_of_worship", "denomination": "roman_catholic", "name": "O.L.V. Altijddurende Bijstand", "religion": "christian", "wikidata": "Q17190583", "wikipedia": "nl:Onze-Lieve-Vrouw van Altijddurende Bijstandkerk (Overschie)"}}, {"type": "Feature", "geometry": {"type": "Point", "coordinates": [6.2974085, 51.9082027]}, "properties": {"osm_id": 2151065855, "osm_type": "node", "amenity": "place_of_worship", "denomination": "roman_catholic", "name": "Mariakapelletje", "religion": "christian"}}, {"type": "Feature", "geometry": {"type": "Point", "coordinates": [5.9649652, 50.7793049]}, "properties": {"osm_id": 2249221491, "osm_type": "node", "amenity": "place_of_worship", "denomination": "roman_catholic", "name": "Mariagrot", "religion": "christian", "wikimedia_commons": "File:Kalvarienberg Rugweg, Vijlenerbos.jpg"}}, {"type": "Feature", "geometry": {"type": "Point", "coordinates": [4.9341123, 52.392239]}, "properties": {"osm_id": 2256691901, "osm_type": "node", "alt_name": "Meerpadkerkje", "amenity": "place_of_worship", "denomination": "mennonite", "description": "kleinste zaalkerkje Amsterdam", "name": "Meerpadkerk", "religion": "christian", "website": "https://www.vdga.nl", "wikidata": "Q17308550", "wikimedia_commons": "Category:Doopsgezinde Gemeente, Amsterdam-Noord", "wikipedia": "nl:Meerpadkerkje"}}, {"type": "Feature", "geometry": {"type": "Point", "coordinates": [4.6273129, 52.6187418]}, "properties": {"osm_id": 2268162421, "osm_type": "node", "addr:city": "Egmond aan Zee", "addr:housenumber": "2", "addr:postcode": "1931EL", "addr:street": "Trompstraat", "amenity": "place_of_worship", "name": "Protestantse Kerk", "religion": "christian", "source": "BAG", "source:date": "2014-03-24"}}, {"type": "Feature", "geometry": {"type": "Point", "coordinates": [4.6488421, 52.6040661]}, "properties": {"osm_id": 2268178245, "osm_type": "node", "amenity": "place_of_worship", "denomination": "roman_catholic", "name": "Sint Lioba-klooster", "religion": "christian", "wikipedia": "nl:Hildegard Michaelis#Kloosterstichting en -atelier"}}, {"type": "Feature", "geometry": {"type": "Point", "coordinates": [4.7011941, 52.6679188]}, "properties": {"osm_id": 2268948068, "osm_type": "node", "addr:city": "Bergen (NH)", "addr:housenumber": "22", "addr:postcode": "1861KW", "addr:street": "Dorpsstraat", "amenity": "place_of_worship", "denomination": "roman_catholic", "name": "Petrus en Pauluskerk", "religion": "christian", "service_times": "Su 09:30; Fr 09:30; Sa[2] 17:00; Sa[4] 17:00", "source": "BAG", "source:date": "2014-03-24", "website": "https://rkparochiebergennh.nl/", "wikidata": "Q137796295"}}, {"type": "Feature", "geometry": {"type": "Point", "coordinates": [5.7733538, 52.1008001]}, "properties": {"osm_id": 2300231117, "osm_type": "node", "addr:city": "Otterlo", "addr:housenumber": "8", "addr:postcode": "6731BB", "addr:street": "Kerklaan", "amenity": "place_of_worship", "religion": "christian", "source": "BAG", "source:date": "2014-03-24"}}, {"type": "Feature", "geometry": {"type": "Point", "coordinates": [5.819063, 51.1526492]}, "properties": {"osm_id": 2315712316, "osm_type": "node", "amenity": "place_of_worship", "building": "chapel", "religion": "christian"}}, {"type": "Feature", "geometry": {"type": "Point", "coordinates": [5.7590421, 51.1770568]}, "properties": {"osm_id": 2320694224, "osm_type": "node", "amenity": "place_of_worship", "denomination": "roman_catholic", "historic": "wayside_cross", "religion": "christian"}}, {"type": "Feature", "geometry": {"type": "Point", "coordinates": [4.9532212, 51.6762556]}, "properties": {"osm_id": 2348238517, "osm_type": "node", "amenity": "place_of_worship", "denomination": "roman_catholic", "name": "Kapel", "religion": "christian"}}, {"type": "Feature", "geometry": {"type": "Point", "coordinates": [5.7396198, 51.1885879]}, "properties": {"osm_id": 2364260073, "osm_type": "node", "amenity": "place_of_worship", "denomination": "roman_catholic", "man_made": "cross", "religion": "christian"}}, {"type": "Feature", "geometry": {"type": "Point", "coordinates": [5.804048, 51.1319342]}, "properties": {"osm_id": 2382803973, "osm_type": "node", "amenity": "place_of_worship", "denomination": "roman_catholic", "historic": "wayside_cross", "religion": "christian"}}, {"type": "Feature", "geometry": {"type": "Point", "coordinates": [5.7580671, 51.1894509]}, "properties": {"osm_id": 2388383015, "osm_type": "node", "addr:street": "Isidoorstraat", "amenity": "place_of_worship", "man_made": "cross", "religion": "christian"}}, {"type": "Feature", "geometry": {"type": "Point", "coordinates": [5.7458985, 51.1935456]}, "properties": {"osm_id": 2388383016, "osm_type": "node", "amenity": "place_of_worship", "man_made": "cross", "religion": "christian"}}, {"type": "Feature", "geometry": {"type": "Point", "coordinates": [5.7391228, 51.2006957]}, "properties": {"osm_id": 2392010970, "osm_type": "node", "amenity": "place_of_worship", "denomination": "roman_catholic", "man_made": "cross", "religion": "christian"}}, {"type": "Feature", "geometry": {"type": "Point", "coordinates": [5.7668564, 51.211338]}, "properties": {"osm_id": 2392010977, "osm_type": "node", "amenity": "place_of_worship", "man_made": "cross", "religion": "christian"}}, {"type": "Feature", "geometry": {"type": "Point", "coordinates": [5.7331472, 51.1967252]}, "properties": {"osm_id": 2392018752, "osm_type": "node", "amenity": "place_of_worship", "building": "chapel", "religion": "christian"}}, {"type": "Feature", "geometry": {"type": "Point", "coordinates": [5.7896793, 51.2145624]}, "properties": {"osm_id": 2398448366, "osm_type": "node", "amenity": "place_of_worship", "man_made": "cross", "religion": "christian"}}, {"type": "Feature", "geometry": {"type": "Point", "coordinates": [5.7158463, 51.1928128]}, "properties": {"osm_id": 2406858575, "osm_type": "node", "amenity": "place_of_worship", "man_made": "cross", "religion": "christian"}}, {"type": "Feature", "geometry": {"type": "Point", "coordinates": [5.6734114, 51.1937343]}, "properties": {"osm_id": 2408091483, "osm_type": "node", "amenity": "place_of_worship", "name": "Zevesprungkapel", "religion": "christian"}}, {"type": "Feature", "geometry": {"type": "Point", "coordinates": [5.8248192, 51.3755142]}, "properties": {"osm_id": 2408761304, "osm_type": "node", "addr:city": "Heusden", "addr:housenumber": "7", "addr:postcode": "5725RT", "addr:street": "Gruttoweg", "amenity": "place_of_worship", "denomination": "orthodox", "name": "The Nativity of the Mother of God Convent, Asten, the Netherlands", "religion": "christian", "website": "https://www.orthodoxasten.nl"}}, {"type": "Feature", "geometry": {"type": "Point", "coordinates": [5.8079447, 51.0102889]}, "properties": {"osm_id": 2411049314, "osm_type": "node", "amenity": "place_of_worship", "name": "Mariakapel", "religion": "christian"}}, {"type": "Feature", "geometry": {"type": "Point", "coordinates": [5.8256263, 50.9949624]}, "properties": {"osm_id": 2416403559, "osm_type": "node", "amenity": "place_of_worship", "religion": "christian"}}, {"type": "Feature", "geometry": {"type": "Point", "coordinates": [5.7244223, 51.1961579]}, "properties": {"osm_id": 2487896366, "osm_type": "node", "amenity": "place_of_worship", "building": "cross", "denomination": "roman_catholic", "name": "Vervedoorkeskruûs", "religion": "christian"}}, {"type": "Feature", "geometry": {"type": "Point", "coordinates": [4.3523912, 52.0285088]}, "properties": {"osm_id": 2489160616, "osm_type": "node", "addr:city": "Rijswijk", "addr:housenumber": "80", "addr:postcode": "2289BR", "addr:street": "Zuiderweg", "amenity": "place_of_worship", "denomination": "pentecostal", "name": "Evangeliegemeente De Deur", "phone": "+31 6 38713964", "religion": "christian", "website": "https://www.dedeur.net/", "wheelchair": "yes"}}, {"type": "Feature", "geometry": {"type": "Point", "coordinates": [5.1609596, 51.5044633]}, "properties": {"osm_id": 2492173322, "osm_type": "node", "amenity": "place_of_worship", "building": "chapel", "denomination": "roman_catholic", "name": "Mariakappelletje", "religion": "christian"}}, {"type": "Feature", "geometry": {"type": "Point", "coordinates": [5.2315068, 51.5777657]}, "properties": {"osm_id": 2499984872, "osm_type": "node", "amenity": "place_of_worship", "building": "chapel", "name": "Mariakapel", "religion": "christian"}}, {"type": "Feature", "geometry": {"type": "Point", "coordinates": [5.8843172, 51.0411248]}, "properties": {"osm_id": 2501713191, "osm_type": "node", "amenity": "place_of_worship", "building": "chapel", "name": "Kapelle", "religion": "christian"}}, {"type": "Feature", "geometry": {"type": "Point", "coordinates": [4.4713732, 51.9201507]}, "properties": {"osm_id": 2502444201, "osm_type": "node", "addr:city": "Rotterdam", "addr:country": "NL", "addr:housenumber": "10", "addr:postcode": "3014GM", "addr:street": "Westersingel", "amenity": "place_of_worship", "check_date": "2025-12-02", "denomination": "protestant", "name": "Stichting Chinese Christelijke Gemeente", "religion": "christian", "website": "https://www.chinesekerk.nl"}}, {"type": "Feature", "geometry": {"type": "Point", "coordinates": [5.8714542, 51.123065]}, "properties": {"osm_id": 2503725584, "osm_type": "node", "amenity": "place_of_worship", "building": "chapel", "religion": "christian"}}, {"type": "Feature", "geometry": {"type": "Point", "coordinates": [6.9860651, 52.3148921]}, "properties": {"osm_id": 2525649568, "osm_type": "node", "amenity": "place_of_worship", "denomination": "roman_catholic", "historic": "wayside_shrine", "name": "Lourdesgrot", "place_of_worship": "lourdes_grotto", "religion": "christian"}}, {"type": "Feature", "geometry": {"type": "Point", "coordinates": [4.6581776, 52.4934375]}, "properties": {"osm_id": 2538413013, "osm_type": "node", "addr:city": "Beverwijk", "addr:housenumber": "1", "addr:street": "Hilbersplein", "amenity": "place_of_worship", "denomination": "roman_catholic", "name": "Regina Caeli", "religion": "christian", "wheelchair": "yes"}}, {"type": "Feature", "geometry": {"type": "Point", "coordinates": [6.8895947, 52.2555303]}, "properties": {"osm_id": 2544284347, "osm_type": "node", "amenity": "place_of_worship", "denomination": "roman_catholic", "historic": "wayside_shrine", "religion": "christian"}}, {"type": "Feature", "geometry": {"type": "Point", "coordinates": [4.2716903, 52.1048082]}, "properties": {"osm_id": 2590933648, "osm_type": "node", "addr:city": "'s-Gravenhage", "addr:housenumber": "27", "addr:postcode": "2584RG", "addr:street": "Adriaan Coenenstraat", "amenity": "place_of_worship", "fixme": "2026-05-02: Zit deze POI nog hier? website dood, mogelijk nieuwe website (https://www.jilstichtingnetherlands.org/jil-den-haag) heeft ander adres en telefoonnummer.", "name": "Jesus Is Lord Church - Den Haag", "opening_hours": "Sa-Su", "phone": "+43 316 47045412", "religion": "christian", "source": "BAG", "source:date": "2017-11-08", "was:website": "https://www.jilnetherlands.org/"}}, {"type": "Feature", "geometry": {"type": "Point", "coordinates": [5.1045091, 52.1036644]}, "properties": {"osm_id": 2605844632, "osm_type": "node", "addr:city": "Utrecht", "addr:housenumber": "199", "addr:postcode": "3552CT", "addr:street": "Boerhaaveplein", "amenity": "place_of_worship", "check_date": "2023-08-25", "denomination": "roman_catholic", "name": "Nicolaas-Monica kerk", "religion": "christian", "source": "BAG", "source:date": "2014-01-22", "toilets:wheelchair": "yes", "wheelchair": "limited", "wheelchair:description": "Drempel 4 cm.\r\nToilet 2 x 2 m. Toiletdeur draait naar binnen."}}, {"type": "Feature", "geometry": {"type": "Point", "coordinates": [4.4718508, 52.0634088]}, "properties": {"osm_id": 2607128189, "osm_type": "node", "addr:city": "Zoetermeer", "addr:housenumber": "5", "addr:postcode": "2717ZA", "addr:street": "Piet Bakkerhove", "amenity": "place_of_worship", "name": "UKGR Evangelisch Centrum", "religion": "christian", "source": "BAG", "source:date": "2013-11-26"}}, {"type": "Feature", "geometry": {"type": "Point", "coordinates": [4.4910822, 51.923539]}, "properties": {"osm_id": 2610274303, "osm_type": "node", "addr:city": "Rotterdam", "addr:housenumber": "7A", "addr:postcode": "3011RB", "addr:street": "Bredestraat", "amenity": "place_of_worship", "denomination": "jehovahs_witness", "name": "Koninkrijkszaal", "religion": "christian", "source": "BAG", "source:date": "2013-11-26"}}, {"type": "Feature", "geometry": {"type": "Point", "coordinates": [4.8242228, 52.376171]}, "properties": {"osm_id": 2619641563, "osm_type": "node", "addr:city": "Amsterdam", "addr:housenumber": "133", "addr:postcode": "1064CE", "addr:street": "Louis Couperusstraat", "amenity": "place_of_worship", "denomination": "protestant", "name": "De Ontmoeting", "religion": "christian", "website": "http://www.deontmoeting-pka.nl", "wheelchair": "no"}}, {"type": "Feature", "geometry": {"type": "Point", "coordinates": [5.0158451, 51.5054477]}, "properties": {"osm_id": 2620060978, "osm_type": "node", "amenity": "place_of_worship", "check_date": "2023-11-14", "name": "Mariagrot", "religion": "christian", "website": "https://www.mariakapellen.nl/riel_nb.htm"}}, {"type": "Feature", "geometry": {"type": "Point", "coordinates": [6.9042808, 52.7958646]}, "properties": {"osm_id": 2629720826, "osm_type": "node", "addr:city": "Emmen", "addr:housenumber": "30", "addr:postcode": "7822AD", "addr:street": "Oude Roswinkelerweg", "amenity": "place_of_worship", "denomination": "reformed", "religion": "christian", "source": "BAG", "source:date": "2013-11-26"}}, {"type": "Feature", "geometry": {"type": "Point", "coordinates": [6.3086885, 52.0511634]}, "properties": {"osm_id": 2629801913, "osm_type": "node", "addr:city": "Hengelo (Gld)", "addr:housenumber": "9", "addr:postcode": "7255AT", "addr:street": "Banninkstraat", "amenity": "place_of_worship", "denomination": "protestant", "name": "De vrijzinnige geloofsgemeenschap", "religion": "christian", "source": "BAG", "source:date": "2013-11-26", "website": "http://www.vrijzinnighengelogld.nl"}}, {"type": "Feature", "geometry": {"type": "Point", "coordinates": [6.8952772, 52.7904697]}, "properties": {"osm_id": 2630173316, "osm_type": "node", "addr:city": "Emmen", "addr:housenumber": "2", "addr:postcode": "7815XG", "addr:street": "Meerstraat", "amenity": "place_of_worship", "denomination": "roman_catholic", "religion": "christian", "source": "BAG", "source:date": "2013-11-26", "website": "https://www.degoedeherderparochie.nl"}}, {"type": "Feature", "geometry": {"type": "Point", "coordinates": [6.9320855, 52.7995525]}, "properties": {"osm_id": 2630869867, "osm_type": "node", "addr:city": "Emmen", "addr:housenumber": "4", "addr:postcode": "7823VS", "addr:street": "Korte Vest", "amenity": "place_of_worship", "name": "Koninkrijkszaal van Jehovah's Getuigen Emmen - Emmerdennen", "religion": "christian", "source": "BAG", "source:date": "2013-11-26"}}, {"type": "Feature", "geometry": {"type": "Point", "coordinates": [6.9384925, 52.793204]}, "properties": {"osm_id": 2631050074, "osm_type": "node", "addr:city": "Emmen", "addr:housenumber": "400", "addr:postcode": "7823NS", "addr:street": "Het Waal", "amenity": "place_of_worship", "denomination": "protestant", "religion": "christian", "source": "BAG", "source:date": "2013-11-26", "website": "https://www.pgemmenoost.nl"}}, {"type": "Feature", "geometry": {"type": "Point", "coordinates": [6.9341359, 52.7811991]}, "properties": {"osm_id": 2632253108, "osm_type": "node", "addr:city": "Emmen", "addr:housenumber": "2", "addr:postcode": "7824JG", "addr:street": "Kerspellaan", "amenity": "place_of_worship", "name": "Het Baken", "religion": "christian", "source": "BAG", "source:date": "2014-01-22"}}, {"type": "Feature", "geometry": {"type": "Point", "coordinates": [6.8992021, 52.7834812]}, "properties": {"osm_id": 2632338128, "osm_type": "node", "addr:city": "Emmen", "addr:housenumber": "14", "addr:postcode": "7811HB", "addr:street": "Sterrenkamp", "amenity": "place_of_worship", "denomination": "nondenominational", "name": "Bethelkerk", "operator": "Evangelische Gemeente Emmen", "religion": "christian", "source": "BAG", "source:date": "2014-01-22", "website": "https://www.evangelisch-emmen.nl"}}, {"type": "Feature", "geometry": {"type": "Point", "coordinates": [6.8979889, 52.7831191]}, "properties": {"osm_id": 2632338600, "osm_type": "node", "addr:city": "Emmen", "addr:housenumber": "63", "addr:postcode": "7811HC", "addr:street": "Kapelstraat", "amenity": "place_of_worship", "denomination": "protestant", "name": "De Kapel", "religion": "christian", "source": "BAG", "source:date": "2014-01-22", "website": "https://www.kapelemmen.nl/"}}, {"type": "Feature", "geometry": {"type": "Point", "coordinates": [5.0928889, 52.1040998]}, "properties": {"osm_id": 2632908923, "osm_type": "node", "addr:city": "Utrecht", "addr:housenumber": "34", "addr:postcode": "3551GW", "addr:street": "Hyacintstraat", "amenity": "place_of_worship", "check_date": "2024-07-21", "name": "De Studentenkerk", "religion": "christian", "source": "BAG", "source:date": "2014-01-22"}}, {"type": "Feature", "geometry": {"type": "Point", "coordinates": [6.883605, 52.7735678]}, "properties": {"osm_id": 2634011901, "osm_type": "node", "addr:city": "Emmen", "addr:housenumber": "77", "addr:postcode": "7812AA", "addr:street": "Noordbargerstraat", "amenity": "place_of_worship", "denomination": "jehovahs_witness", "name": "Wachttoren-, Bijbel en Traktaatgenootschap", "name:da": "Vagttårnets Bibel og Traktatselskab", "name:en": "Watchtower Bible and Tract Society", "name:nl": "Wachttoren-, Bijbel en Traktaatgenootschap", "religion": "christian", "source": "BAG;local knowledge;survey", "source:date": "2014-01-22"}}, {"type": "Feature", "geometry": {"type": "Point", "coordinates": [5.1091317, 52.0962236]}, "properties": {"osm_id": 2634057776, "osm_type": "node", "addr:city": "Utrecht", "addr:housenumber": "7", "addr:postcode": "3513CA", "addr:street": "Herenweg", "amenity": "place_of_worship", "name": "Hersteld Apostolische Zendingkerk", "religion": "christian", "source": "BAG", "source:date": "2014-01-22", "website": "https://www.hazknederland.org/"}}, {"type": "Feature", "geometry": {"type": "Point", "coordinates": [6.8887227, 52.7670847]}, "properties": {"osm_id": 2634065833, "osm_type": "node", "addr:city": "Emmen", "addr:country": "NL", "addr:housenumber": "199", "addr:postcode": "7812MD", "addr:street": "Mantingerbrink", "amenity": "place_of_worship", "denomination": "protestant", "religion": "christian", "source": "BAG", "source:date": "2014-01-22", "website": "https://emmen-zuid.nl"}}, {"type": "Feature", "geometry": {"type": "Point", "coordinates": [6.8775932, 52.7610095]}, "properties": {"osm_id": 2634135642, "osm_type": "node", "addr:city": "Emmen", "addr:housenumber": "2", "addr:postcode": "7812EA", "addr:street": "Hesselterbrink", "amenity": "place_of_worship", "denomination": "baptist", "email": "vragen@debronemmen.nl", "name": "De Bron", "phone": "+31 591 642 774", "religion": "christian", "source": "BAG", "source:date": "2014-01-22", "website": "https://debronemmen.nl/"}}, {"type": "Feature", "geometry": {"type": "Point", "coordinates": [6.4173524, 52.158807]}, "properties": {"osm_id": 2657742129, "osm_type": "node", "addr:city": "Lochem", "addr:housenumber": "10", "addr:postcode": "7241EJ", "addr:street": "Emmastraat", "amenity": "place_of_worship", "denomination": "remonstranste_kerk", "name": "In alles de Liefde", "religion": "christian", "source": "BAG", "source:date": "2014-02-05"}}, {"type": "Feature", "geometry": {"type": "Point", "coordinates": [6.4196688, 52.1610159]}, "properties": {"osm_id": 2657742147, "osm_type": "node", "addr:city": "Lochem", "addr:housenumber": "10", "addr:postcode": "7241DW", "addr:street": "Paul Krugerstraat", "amenity": "place_of_worship", "name": "Witte kerk", "religion": "christian", "source": "BAG", "source:date": "2014-02-05"}}, {"type": "Feature", "geometry": {"type": "Point", "coordinates": [6.4217125, 52.1602789]}, "properties": {"osm_id": 2657742789, "osm_type": "node", "addr:city": "Lochem", "addr:housenumber": "18", "addr:postcode": "7241ET", "addr:street": "Nieuweweg", "amenity": "place_of_worship", "denomination": "roman_catholic", "name": "H. Joseph kerk", "religion": "christian", "source": "BAG", "source:date": "2014-02-05"}}, {"type": "Feature", "geometry": {"type": "Point", "coordinates": [6.2625253, 51.9693035]},