{"type": "FeatureCollection", "features": [{"type": "Feature", "geometry": {"type": "Point", "coordinates": [4.4915347, 52.1650598]}, "properties": {"osm_id": 299240246, "osm_type": "node", "amenity": "kindergarten", "check_date": "2025-03-02", "name": "Mareland", "url": "www.vsmareland.nl"}}, {"type": "Feature", "geometry": {"type": "Point", "coordinates": [4.4685314, 52.1907553]}, "properties": {"osm_id": 304623674, "osm_type": "node", "amenity": "kindergarten", "isced:level": "0", "max_age": "4", "name": "Angela's Kroost", "website": "https://www.angelaskroost.nl"}}, {"type": "Feature", "geometry": {"type": "Point", "coordinates": [4.4796864, 52.1969434]}, "properties": {"osm_id": 304626605, "osm_type": "node", "amenity": "kindergarten", "name": "Het kindercircus", "website": "https://www.sko-oegstgeest.nl/locaties/het-kindercircus/"}}, {"type": "Feature", "geometry": {"type": "Point", "coordinates": [5.5468646, 51.4116255]}, "properties": {"osm_id": 305501081, "osm_type": "node", "addr:city": "Geldrop", "addr:housenumber": "2", "addr:postcode": "5663ST", "addr:street": "Gandalf", "amenity": "kindergarten", "name": "De Hobbit", "source": "BAG", "source:date": "2014-05-20"}}, {"type": "Feature", "geometry": {"type": "Point", "coordinates": [6.8855355, 52.6597316]}, "properties": {"osm_id": 339312997, "osm_type": "node", "amenity": "kindergarten"}}, {"type": "Feature", "geometry": {"type": "Point", "coordinates": [3.8797887, 51.5123537]}, "properties": {"osm_id": 344577123, "osm_type": "node", "addr:city": "Goes", "addr:housenumber": "17", "addr:postcode": "4463SH", "addr:street": "Kuyperlaan", "amenity": "kindergarten", "education": "kindergarten", "name": "Pippeloentje", "source": "BAG", "source:date": "2016-10-02"}}, {"type": "Feature", "geometry": {"type": "Point", "coordinates": [5.2310645, 52.0934385]}, "properties": {"osm_id": 370751498, "osm_type": "node", "addr:city": "Zeist", "addr:housenumber": "234", "addr:postcode": "3705BJ", "addr:street": "Oude Arnhemseweg", "amenity": "kindergarten", "name": "Kinderdagverblijf de Helden", "source": "BAG", "source:date": "2014-03-24"}}, {"type": "Feature", "geometry": {"type": "Point", "coordinates": [5.1134213, 52.0769116]}, "properties": {"osm_id": 385605103, "osm_type": "node", "amenity": "kindergarten", "name": "Kinderdagverblijf Waterpret", "operator": "Kindercentra Midden Nederland Kind & Co"}}, {"type": "Feature", "geometry": {"type": "Point", "coordinates": [5.1130711, 52.2425488]}, "properties": {"osm_id": 402329571, "osm_type": "node", "amenity": "kindergarten", "name": "Olleke Bolleke"}}, {"type": "Feature", "geometry": {"type": "Point", "coordinates": [5.5455041, 51.4642735]}, "properties": {"osm_id": 405274315, "osm_type": "node", "amenity": "kindergarten", "name": "Erica's"}}, {"type": "Feature", "geometry": {"type": "Point", "coordinates": [6.034424, 51.2275282]}, "properties": {"osm_id": 409128469, "osm_type": "node", "amenity": "kindergarten", "capacity": "20", "name": "Kiekeboe"}}, {"type": "Feature", "geometry": {"type": "Point", "coordinates": [5.8677472, 51.8709401]}, "properties": {"osm_id": 414020758, "osm_type": "node", "amenity": "kindergarten", "name": "kinderdagverblijf de Goudwinde"}}, {"type": "Feature", "geometry": {"type": "Point", "coordinates": [5.8686632, 51.8706938]}, "properties": {"osm_id": 414020759, "osm_type": "node", "amenity": "kindergarten", "check_date": "2026-03-06", "name": "Peuterspeelzaal Goudwinde"}}, {"type": "Feature", "geometry": {"type": "Point", "coordinates": [5.8433164, 51.87779]}, "properties": {"osm_id": 420808362, "osm_type": "node", "amenity": "kindergarten", "check_date": "2024-10-10", "name": "KION Kinderopvang Nijmegen", "source": "Lokale kennis", "toilets:wheelchair": "yes", "wheelchair": "yes"}}, {"type": "Feature", "geometry": {"type": "Point", "coordinates": [4.3706154, 51.6383386]}, "properties": {"osm_id": 500859395, "osm_type": "node", "amenity": "kindergarten", "description": "peuterspeelzaal", "education": "kindergarten", "name": "De Dobbelsteen"}}, {"type": "Feature", "geometry": {"type": "Point", "coordinates": [5.0935691, 52.0206736]}, "properties": {"osm_id": 507959322, "osm_type": "node", "addr:city": "Nieuwegein", "addr:housenumber": "15", "addr:postcode": "3432XZ", "addr:street": "Uddelerschans", "amenity": "kindergarten", "description": "peuterspeelzaal", "education": "kindergarten", "isced:level": "0", "name": "Waterwereld", "operator": "Stichting Kindercentra Midden Nederland Kind & Co", "source": "BAG", "source:date": "2014-08-08"}}, {"type": "Feature", "geometry": {"type": "Point", "coordinates": [5.1742152, 52.2690219]}, "properties": {"osm_id": 519655455, "osm_type": "node", "amenity": "kindergarten", "check_date": "2025-05-19", "name": "De Talamander, De Bolderwagen"}}, {"type": "Feature", "geometry": {"type": "Point", "coordinates": [5.0331377, 51.963579]}, "properties": {"osm_id": 549202523, "osm_type": "node", "addr:city": "Lexmond", "addr:housenumber": "46", "addr:postcode": "4128SZ", "addr:street": "Gregoriuslaan", "amenity": "kindergarten", "source": "BAG", "source:date": "2014-03-24"}}, {"type": "Feature", "geometry": {"type": "Point", "coordinates": [5.9463004, 52.179051]}, "properties": {"osm_id": 565181321, "osm_type": "node", "addr:city": "Apeldoorn", "addr:housenumber": "10", "addr:street": "Zuster Meyboomlaan", "amenity": "kindergarten", "email": "imme@prokino.nl", "name": "De Imme", "operator": "Prokino", "phone": "+31 55 533 4147", "website": "https://www.prokino.nl/"}}, {"type": "Feature", "geometry": {"type": "Point", "coordinates": [5.9221988, 52.9653258]}, "properties": {"osm_id": 570138266, "osm_type": "node", "addr:city": "Heerenveen", "addr:housenumber": "1", "addr:postcode": "8441DR", "addr:street": "Cyclamenstraat", "amenity": "kindergarten", "name": "Buitenschoolse opvang De bijenkorf", "source": "BAG", "source:date": "2014-03-24", "website": "https://www.kinderwoud.nl/"}}, {"type": "Feature", "geometry": {"type": "Point", "coordinates": [6.1377295, 52.7858998]}, "properties": {"osm_id": 599816946, "osm_type": "node", "amenity": "kindergarten"}}, {"type": "Feature", "geometry": {"type": "Point", "coordinates": [4.4111191, 52.145638]}, "properties": {"osm_id": 601053019, "osm_type": "node", "amenity": "kindergarten", "check_date": "2023-09-11", "name": "Dol-Fijn"}}, {"type": "Feature", "geometry": {"type": "Point", "coordinates": [5.1176048, 52.0786643]}, "properties": {"osm_id": 768136015, "osm_type": "node", "addr:city": "Utrecht", "addr:housenumber": "176", "addr:postcode": "3521GH", "addr:street": "Vondellaan", "amenity": "kindergarten", "check_date": "2026-02-20", "name": "KDV Het Palet", "note": "Huisnummer onzeker, niet aangegeven", "operator": "Ludens"}}, {"type": "Feature", "geometry": {"type": "Point", "coordinates": [5.2336774, 52.0470021]}, "properties": {"osm_id": 795225034, "osm_type": "node", "addr:city": "Odijk", "addr:housenumber": "4", "addr:postcode": "3984MA", "addr:street": "Rijneiland", "amenity": "kindergarten", "name": "Peuterspeelzaal Grutje", "source": "BAG", "source:date": "2014-05-25"}}, {"type": "Feature", "geometry": {"type": "Point", "coordinates": [5.2335995, 52.0470149]}, "properties": {"osm_id": 795225045, "osm_type": "node", "addr:city": "Odijk", "addr:housenumber": "3", "addr:postcode": "3984MA", "addr:street": "Rijneiland", "amenity": "kindergarten", "name": "Kinderopvang Humanitas", "source": "BAG", "source:date": "2014-05-25"}}, {"type": "Feature", "geometry": {"type": "Point", "coordinates": [5.0829275, 52.8438126]}, "properties": {"osm_id": 860452836, "osm_type": "node", "amenity": "kindergarten", "name": "'t Hummelhonk", "website": "http://www.peuterspeelzalen-wieringermeer.nl/hummelhonk-kreileroord_en.html"}}, {"type": "Feature", "geometry": {"type": "Point", "coordinates": [4.553304, 51.8782888]}, "properties": {"osm_id": 915458110, "osm_type": "node", "addr:city": "Rotterdam", "addr:country": "NL", "addr:housenumber": "10", "addr:postcode": "3079JJ", "addr:street": "Herenoord", "amenity": "kindergarten", "name": "Peuterspeelzaal Dikkie Dik", "source": "BAG", "source:date": "2014-03-24"}}, {"type": "Feature", "geometry": {"type": "Point", "coordinates": [4.5322999, 51.855012]}, "properties": {"osm_id": 915516138, "osm_type": "node", "addr:city": "Barendrecht", "addr:country": "NL", "addr:housenumber": "24", "addr:postcode": "2992CL", "addr:street": "Paddeweg", "amenity": "kindergarten", "email": "wiedeweipaddewei@kibeo.nl", "name": "Wiedewei Paddewei Barendrecht", "operator": "Stichting Kinderopvang Barendrecht", "phone": "+31 180 616 729", "website": "https://wiedewei.nl/vestigingen/wiedewei-paddewei-barendrecht/"}}, {"type": "Feature", "geometry": {"type": "Point", "coordinates": [5.1837384, 52.2294315]}, "properties": {"osm_id": 918952401, "osm_type": "node", "amenity": "kindergarten", "name": "Geuzengrut"}}, {"type": "Feature", "geometry": {"type": "Point", "coordinates": [6.2442009, 53.101859]}, "properties": {"osm_id": 960212222, "osm_type": "node", "amenity": "kindergarten", "name": "It Bijehûs"}}, {"type": "Feature", "geometry": {"type": "Point", "coordinates": [6.8242577, 52.2611091]}, "properties": {"osm_id": 987743555, "osm_type": "node", "addr:city": "Hengelo", "addr:housenumber": "200", "addr:postcode": "7552HE", "addr:street": "P.C. Hooftlaan", "amenity": "kindergarten", "brand": "Partou", "brand:website": "https://partou.nl/", "brand:wikidata": "Q126717450", "brand:wikipedia": "nl:Partou", "description": "Kinderdagverblijf, BSO", "name": "Partou De Akker", "source": "BAG", "source:date": "2014-03-24", "website": "https://partou.nl/kinderopvang/hengelo/kinderdagverblijf-pc-hooftlaan-200"}}, {"type": "Feature", "geometry": {"type": "Point", "coordinates": [4.9657871, 52.2994936]}, "properties": {"osm_id": 1043836487, "osm_type": "node", "amenity": "kindergarten", "name": "Amikitoj"}}, {"type": "Feature", "geometry": {"type": "Point", "coordinates": [4.412299, 51.920089]}, "properties": {"osm_id": 1157207731, "osm_type": "node", "amenity": "kindergarten", "name": "De Triangel"}}, {"type": "Feature", "geometry": {"type": "Point", "coordinates": [4.38515, 52.0324049]}, "properties": {"osm_id": 1233458306, "osm_type": "node", "addr:city": "'s-Gravenhage", "addr:housenumber": "143", "addr:postcode": "2498BW", "addr:street": "Oeverwallaan", "amenity": "kindergarten", "name": "Triodus bso Schatjager"}}, {"type": "Feature", "geometry": {"type": "Point", "coordinates": [5.4963157, 51.4709359]}, "properties": {"osm_id": 1251729087, "osm_type": "node", "amenity": "kindergarten", "name": "Kinderdagverblijf Billies"}}, {"type": "Feature", "geometry": {"type": "Point", "coordinates": [4.3759072, 51.9919179]}, "properties": {"osm_id": 1263509674, "osm_type": "node", "amenity": "kindergarten", "name": "Plukkebol", "website": "https://www.plukkebol.nl/"}}, {"type": "Feature", "geometry": {"type": "Point", "coordinates": [4.3790113, 52.0008292]}, "properties": {"osm_id": 1263509677, "osm_type": "node", "addr:city": "Delft", "addr:housenumber": "2", "addr:postcode": "2628ZE", "addr:street": "Van Embdenstraat", "amenity": "kindergarten", "name": "Plukkebol", "source": "BAG", "source:date": "2013-11-26"}}, {"type": "Feature", "geometry": {"type": "Point", "coordinates": [5.1169989, 52.0713002]}, "properties": {"osm_id": 1276895250, "osm_type": "node", "amenity": "kindergarten", "name": "De Jutter"}}, {"type": "Feature", "geometry": {"type": "Point", "coordinates": [5.486305, 51.3964397]}, "properties": {"osm_id": 1280214729, "osm_type": "node", "amenity": "kindergarten", "name": "De Pracht"}}, {"type": "Feature", "geometry": {"type": "Point", "coordinates": [4.4822466, 52.1682357]}, "properties": {"osm_id": 1308562677, "osm_type": "node", "amenity": "kindergarten", "isced:level": "0", "max_age": "4", "min_age": "2 month", "name": "Sterre", "operator": "Flowerkids", "url": "www.flowerkids.nl"}}, {"type": "Feature", "geometry": {"type": "Point", "coordinates": [4.4734013, 52.1732371]}, "properties": {"osm_id": 1308562679, "osm_type": "node", "amenity": "kindergarten", "isced:level": "0", "max_age": "4", "min_age": "2 month", "name": "Pimmetje", "url": "www.kinderdagverblijfpimmetje.nl"}}, {"type": "Feature", "geometry": {"type": "Point", "coordinates": [4.505645, 52.1551433]}, "properties": {"osm_id": 1308562690, "osm_type": "node", "amenity": "kindergarten", "isced": "0", "max_age": "4", "min_age": "0", "name": "Madelief", "operator": "Flowerkids", "url": "https://www.flowerkids.nl", "website": "https://www.flowerkids.nl/vestigingen/leiden-madelief/"}}, {"type": "Feature", "geometry": {"type": "Point", "coordinates": [6.0537711, 50.9164585]}, "properties": {"osm_id": 1311768416, "osm_type": "node", "amenity": "kindergarten", "name": "Kinderdagverblijft Hummeltje"}}, {"type": "Feature", "geometry": {"type": "Point", "coordinates": [4.5667945, 51.9185344]}, "properties": {"osm_id": 1313075623, "osm_type": "node", "addr:city": "Capelle aan den IJssel", "addr:housenumber": "84-86", "addr:postcode": "2901GL", "addr:street": "Puccinistraat", "amenity": "kindergarten", "email": "beestenboel.alm@ijsselkids.nl", "name": "Kinderdagverblijf Beestenboel", "operator": "IJsselkids", "phone": "+31 10 202 4946"}}, {"type": "Feature", "geometry": {"type": "Point", "coordinates": [5.4313898, 51.6153239]}, "properties": {"osm_id": 1313203467, "osm_type": "node", "amenity": "kindergarten"}}, {"type": "Feature", "geometry": {"type": "Point", "coordinates": [4.4670315, 52.1843914]}, "properties": {"osm_id": 1324173963, "osm_type": "node", "amenity": "kindergarten", "email": "info@kindergarden.nl", "isced:level": "0", "max_age": "4", "min_age": "2 months", "operator": "Kindergarden", "website": "https://www.kindergarden.nl"}}, {"type": "Feature", "geometry": {"type": "Point", "coordinates": [4.4790653, 51.8258803]}, "properties": {"osm_id": 1334476938, "osm_type": "node", "amenity": "kindergarten", "name": "Hompeltje Pompeltje"}}, {"type": "Feature", "geometry": {"type": "Point", "coordinates": [4.8267575, 52.2342925]}, "properties": {"osm_id": 1346343679, "osm_type": "node", "amenity": "kindergarten", "name": "Borus"}}, {"type": "Feature", "geometry": {"type": "Point", "coordinates": [4.8158512, 52.2333596]}, "properties": {"osm_id": 1351028649, "osm_type": "node", "amenity": "kindergarten", "name": "De Piraat"}}, {"type": "Feature", "geometry": {"type": "Point", "coordinates": [5.2341205, 52.0959053]}, "properties": {"osm_id": 1352637111, "osm_type": "node", "addr:city": "Zeist", "addr:housenumber": "134", "addr:postcode": "3705CJ", "addr:street": "Burgemeester Patijnlaan", "amenity": "kindergarten", "check_date": "2025-06-20", "name": "Kiekeboe KleineKasteel", "phone": "+31 30 695 9550", "source": "BAG", "source:date": "2014-03-24", "website": "https://www.kiekeboe-kinderopvang.nl/locaties/9/kleinekasteel-zeist"}}, {"type": "Feature", "geometry": {"type": "Point", "coordinates": [4.3536696, 52.0055633]}, "properties": {"osm_id": 1368288042, "osm_type": "node", "addr:city": "Delft", "addr:housenumber": "65", "addr:postcode": "2613RW", "addr:street": "Raamstraat", "amenity": "kindergarten", "brand": "Partou", "brand:website": "https://partou.nl/", "brand:wikidata": "Q126717450", "brand:wikipedia": "nl:Partou", "check_date": "2023-04-19", "name": "Partou", "source": "BAG", "source:date": "2013-11-26", "website": "https://partou.nl/kinderopvang/delft/kinderdagverblijf-raamstraat-65"}}, {"type": "Feature", "geometry": {"type": "Point", "coordinates": [5.4623011, 51.5687848]}, "properties": {"osm_id": 1396048998, "osm_type": "node", "amenity": "kindergarten", "name": "Dommeltoren"}}, {"type": "Feature", "geometry": {"type": "Point", "coordinates": [5.8955748, 53.0472019]}, "properties": {"osm_id": 1398500492, "osm_type": "node", "amenity": "kindergarten"}}, {"type": "Feature", "geometry": {"type": "Point", "coordinates": [5.8201622, 50.8205922]}, "properties": {"osm_id": 1433298481, "osm_type": "node", "amenity": "kindergarten", "name": "Bim Bam"}}, {"type": "Feature", "geometry": {"type": "Point", "coordinates": [5.8160263, 50.8219884]}, "properties": {"osm_id": 1433298494, "osm_type": "node", "amenity": "kindergarten", "name": "Kom Kinderopvang Margraten"}}, {"type": "Feature", "geometry": {"type": "Point", "coordinates": [4.3415601, 51.8340364]}, "properties": {"osm_id": 1440126374, "osm_type": "node", "amenity": "kindergarten", "name": "KBS De Wegwijzer"}}, {"type": "Feature", "geometry": {"type": "Point", "coordinates": [4.3274804, 52.0090945]}, "properties": {"osm_id": 1448094746, "osm_type": "node", "addr:city": "Delft", "addr:housenumber": "107", "addr:postcode": "2614SH", "addr:street": "Kristalweg", "amenity": "kindergarten", "name": "Zeeparel", "operator": "Partou", "operator:type": "private", "operator:website": "https://partou.nl", "phone": "+31 15 261 1071", "source": "survey", "website": "https://partou.nl/kinderopvang/delft/bso-kristalweg-107"}}, {"type": "Feature", "geometry": {"type": "Point", "coordinates": [5.4593615, 51.4318336]}, "properties": {"osm_id": 1468433475, "osm_type": "node", "amenity": "kindergarten", "name": "De Bengelberg"}}, {"type": "Feature", "geometry": {"type": "Point", "coordinates": [5.6195677, 52.3038042]}, "properties": {"osm_id": 1474038517, "osm_type": "node", "amenity": "kindergarten", "name": "Het Spelhuis"}}, {"type": "Feature", "geometry": {"type": "Point", "coordinates": [4.4539286, 51.905953]}, "properties": {"osm_id": 1482575937, "osm_type": "node", "addr:city": "Rotterdam", "addr:housenumber": "42", "addr:postcode": "3024TG", "addr:street": "Coolhavenstraat", "amenity": "kindergarten", "source": "BAG", "source:date": "2014-03-24"}}, {"type": "Feature", "geometry": {"type": "Point", "coordinates": [5.6530942, 51.9833316]}, "properties": {"osm_id": 1537836481, "osm_type": "node", "amenity": "kindergarten", "name": "KDV De Dijkgraaf"}}, {"type": "Feature", "geometry": {"type": "Point", "coordinates": [4.8839668, 52.3812427]}, "properties": {"osm_id": 1581224526, "osm_type": "node", "amenity": "kindergarten", "check_date": "2026-04-24", "name": "Jor & Daan", "wheelchair": "no"}}, {"type": "Feature", "geometry": {"type": "Point", "coordinates": [4.8847876, 52.3779271]}, "properties": {"osm_id": 1581224529, "osm_type": "node", "amenity": "kindergarten", "name": "Kresj Lindengracht"}}, {"type": "Feature", "geometry": {"type": "Point", "coordinates": [5.2390944, 52.0220923]}, "properties": {"osm_id": 1591343253, "osm_type": "node", "addr:city": "Werkhoven", "addr:housenumber": "7d", "addr:postcode": "3985LK", "addr:street": "De Curtis", "amenity": "kindergarten", "education": "kindergarten", "name": "Peuteropvang Dozijntje", "operator": "Kind &Co Ludens", "source": "BAG", "source:date": "2016-05-13", "website": "https://kindencoludens.nl/nl/locaties/peuteropvang-werkhoven-dozijntje"}}, {"type": "Feature", "geometry": {"type": "Point", "coordinates": [6.3343047, 53.0666065]}, "properties": {"osm_id": 1604093247, "osm_type": "node", "amenity": "kindergarten"}}, {"type": "Feature", "geometry": {"type": "Point", "coordinates": [5.0405142, 52.311177]}, "properties": {"osm_id": 1618267058, "osm_type": "node", "amenity": "kindergarten", "name": "KDV Hummeloord"}}, {"type": "Feature", "geometry": {"type": "Point", "coordinates": [4.9316202, 52.2143589]}, "properties": {"osm_id": 1636993817, "osm_type": "node", "amenity": "kindergarten", "name": "De Hummeltjes"}}, {"type": "Feature", "geometry": {"type": "Point", "coordinates": [5.1464581, 52.0724811]}, "properties": {"osm_id": 1640330096, "osm_type": "node", "addr:city": "Utrecht", "addr:housenumber": "139A", "addr:postcode": "3585LA", "addr:street": "Koningsweg", "amenity": "kindergarten", "name": "Club Basker Sport", "old_name": "BLOS", "source": "BAG", "source:date": "2013-11-26", "toilets:wheelchair": "no", "website": "https://www.basker.nl/utrecht/koningsweg-139/buitenschoolse-opvang", "wheelchair": "limited", "wheelchair:description": "Drempel ca 5 cm. Toiletdeur draait naar binnen."}}, {"type": "Feature", "geometry": {"type": "Point", "coordinates": [6.5496627, 53.132855]}, "properties": {"osm_id": 1657332032, "osm_type": "node", "amenity": "kindergarten"}}, {"type": "Feature", "geometry": {"type": "Point", "coordinates": [5.8419295, 51.9854254]}, "properties": {"osm_id": 1666325736, "osm_type": "node", "addr:city": "Oosterbeek", "addr:housenumber": "1", "addr:postcode": "6862CM", "addr:street": "Postpad", "amenity": "kindergarten", "isced:level": "0", "max_age": "4", "min_age": "2 month", "name": "CompaNanny", "source": "BAG", "source:date": "2014-08-13", "website": "https://www.compananny.com"}}, {"type": "Feature", "geometry": {"type": "Point", "coordinates": [6.3026853, 53.337648]}, "properties": {"osm_id": 1668353395, "osm_type": "node", "addr:city": "Zoutkamp", "addr:housenumber": "1", "addr:postcode": "9974SG", "addr:street": "Wilhelminastraat", "amenity": "kindergarten", "name": "Pinokkio Peuterspeelzaal"}}, {"type": "Feature", "geometry": {"type": "Point", "coordinates": [6.537556, 52.7231107]}, "properties": {"osm_id": 1711841499, "osm_type": "node", "amenity": "kindergarten"}}, {"type": "Feature", "geometry": {"type": "Point", "coordinates": [4.497714, 51.9043744]}, "properties": {"osm_id": 1716900872, "osm_type": "node", "addr:city": "Rotterdam", "addr:housenumber": "7", "addr:postcode": "3072JA", "addr:street": "Hillelaan", "amenity": "kindergarten", "name": "BSO Prinsjes en Prinsesjes", "source": "BAG", "source:date": "2017-09-26"}}, {"type": "Feature", "geometry": {"type": "Point", "coordinates": [4.9995117, 52.1756187]}, "properties": {"osm_id": 1717917170, "osm_type": "node", "amenity": "kindergarten", "name": "Kinderdagverblijf \"Petit Petit\""}}, {"type": "Feature", "geometry": {"type": "Point", "coordinates": [4.9975109, 52.1779133]}, "properties": {"osm_id": 1717917176, "osm_type": "node", "amenity": "kindergarten", "name": "Kinderdagverblijf \"De Klimboom\""}}, {"type": "Feature", "geometry": {"type": "Point", "coordinates": [5.0224176, 52.0804758]}, "properties": {"osm_id": 1721459799, "osm_type": "node", "amenity": "kindergarten", "check_date": "2024-10-22", "name": "gro-up kinderopvang"}}, {"type": "Feature", "geometry": {"type": "Point", "coordinates": [4.8314541, 52.2472957]}, "properties": {"osm_id": 1724471170, "osm_type": "node", "amenity": "kindergarten"}}, {"type": "Feature", "geometry": {"type": "Point", "coordinates": [4.8311377, 52.2475929]}, "properties": {"osm_id": 1737146154, "osm_type": "node", "amenity": "kindergarten"}}, {"type": "Feature", "geometry": {"type": "Point", "coordinates": [5.8525384, 51.7802802]}, "properties": {"osm_id": 1774502361, "osm_type": "node", "amenity": "kindergarten", "name": "De Klinkertjes"}}, {"type": "Feature", "geometry": {"type": "Point", "coordinates": [5.849427, 51.7804661]}, "properties": {"osm_id": 1774502416, "osm_type": "node", "addr:city": "Malden", "addr:housenumber": "17", "addr:postcode": "6581AC", "addr:street": "Broekkant", "amenity": "kindergarten", "name": "de Broekies", "note": "Ook BSO 'Fun4Kids' van Partou zit op deze locatie", "operator": "Partou", "operator:type": "private", "phone": "+31 24 358 5776", "source": "BAG", "source:date": "2014-07-27", "website": "https://partou.nl/kinderopvang/malden/bso-broekkant-17"}}, {"type": "Feature", "geometry": {"type": "Point", "coordinates": [5.0402926, 52.4519773]}, "properties": {"osm_id": 1790331102, "osm_type": "node", "amenity": "kindergarten", "name": "Peuterspeelzaal Pinokkio"}}, {"type": "Feature", "geometry": {"type": "Point", "coordinates": [4.3432806, 52.0033855]}, "properties": {"osm_id": 1795740849, "osm_type": "node", "addr:city": "Delft", "addr:housenumber": "2-4", "addr:postcode": "2614GT", "addr:street": "Kluizenaarsbocht", "amenity": "kindergarten", "check_date": "2024-11-11", "name": "Reki", "source": "survey", "website": "https://www.reki.nl/"}}, {"type": "Feature", "geometry": {"type": "Point", "coordinates": [6.6218247, 52.1360428]}, "properties": {"osm_id": 1802109901, "osm_type": "node", "addr:city": "Neede", "addr:housenumber": "27", "addr:postcode": "7161CK", "addr:street": "Meijersweg", "amenity": "kindergarten", "check_date": "2024-07-05", "name": "Kindercentrum Villa BonBini", "source": "BAG", "source:date": "2014-03-24"}}, {"type": "Feature", "geometry": {"type": "Point", "coordinates": [5.7215252, 51.8154913]}, "properties": {"osm_id": 1805044041, "osm_type": "node", "addr:city": "Wijchen", "addr:housenumber": "64", "addr:postcode": "6601BP", "addr:street": "Fazantstraat", "amenity": "kindergarten", "source": "BAG", "source:date": "2014-07-25"}}, {"type": "Feature", "geometry": {"type": "Point", "coordinates": [5.7275437, 51.8151744]}, "properties": {"osm_id": 1805044047, "osm_type": "node", "amenity": "kindergarten"}}, {"type": "Feature", "geometry": {"type": "Point", "coordinates": [5.737005, 51.8222332]}, "properties": {"osm_id": 1806160673, "osm_type": "node", "amenity": "kindergarten"}}, {"type": "Feature", "geometry": {"type": "Point", "coordinates": [5.8021024, 51.8314696]}, "properties": {"osm_id": 1810292293, "osm_type": "node", "addr:city": "Nijmegen", "addr:housenumber": "6006", "addr:postcode": "6545LX", "addr:street": "de Gildekamp", "amenity": "kindergarten", "name": "Kindercentrum Broekie", "phone": "+31 24 388 6731", "source": "BAG", "source:date": "2014-07-05"}}, {"type": "Feature", "geometry": {"type": "Point", "coordinates": [4.2959665, 52.0287858]}, "properties": {"osm_id": 1811686545, "osm_type": "node", "addr:city": "'s-Gravenhage", "addr:housenumber": "87f", "addr:postcode": "2548AL", "addr:street": "Oosteinde", "amenity": "kindergarten", "name": "Zo Kinderopvang & Bso", "source": "survey", "website": "http://www.zo-unltd.nl"}}, {"type": "Feature", "geometry": {"type": "Point", "coordinates": [5.1226582, 52.3272951]}, "properties": {"osm_id": 1824036842, "osm_type": "node", "amenity": "kindergarten"}}, {"type": "Feature", "geometry": {"type": "Point", "coordinates": [5.4845374, 51.4717489]}, "properties": {"osm_id": 1833040738, "osm_type": "node", "amenity": "kindergarten", "name": "Korein Kinderplein"}}, {"type": "Feature", "geometry": {"type": "Point", "coordinates": [5.4788006, 51.4707989]}, "properties": {"osm_id": 1833040756, "osm_type": "node", "amenity": "kindergarten", "name": "Kruimel Eindhoven"}}, {"type": "Feature", "geometry": {"type": "Point", "coordinates": [4.294892, 52.0359308]}, "properties": {"osm_id": 1838123193, "osm_type": "node", "addr:city": "Rijswijk", "addr:housenumber": "371", "addr:postcode": "2285GM", "addr:street": "Strijplaan", "amenity": "kindergarten", "name": "Kinderdagverblijf 't Strijpje", "source": "BAG", "source:date": "2014-02-11", "website": "https://www.strijpje.nl/"}}, {"type": "Feature", "geometry": {"type": "Point", "coordinates": [4.2972122, 52.0325019]}, "properties": {"osm_id": 1838123221, "osm_type": "node", "addr:city": "Rijswijk", "addr:housenumber": "103-105", "addr:postcode": "2285GJ", "addr:street": "Strijplaan", "amenity": "kindergarten", "name": "De Dwergenhut"}}, {"type": "Feature", "geometry": {"type": "Point", "coordinates": [5.480189, 51.4923709]}, "properties": {"osm_id": 1843583967, "osm_type": "node", "amenity": "kindergarten", "name": "Kinderdagverblijf De Bloemenkinderen", "phone": "+31 40 223 0081", "website": "http://www.debloemenkinderen.nl/"}}, {"type": "Feature", "geometry": {"type": "Point", "coordinates": [5.9981186, 52.2361091]}, "properties": {"osm_id": 1848255528, "osm_type": "node", "amenity": "kindergarten", "name": "Het Kroonpad"}}, {"type": "Feature", "geometry": {"type": "Point", "coordinates": [5.1693689, 52.2313819]}, "properties": {"osm_id": 1850015111, "osm_type": "node", "amenity": "kindergarten", "name": "Bink Buitenschoolse opvang Gigagroen"}}, {"type": "Feature", "geometry": {"type": "Point", "coordinates": [6.6260145, 52.3787658]}, "properties": {"osm_id": 1872512922, "osm_type": "node", "addr:city": "Aadorp", "addr:housenumber": "16", "addr:postcode": "7611BD", "addr:street": "Albardastraat", "amenity": "kindergarten", "name": "De Blokkendoos", "source": "BAG", "source:date": "2014-03-24"}}, {"type": "Feature", "geometry": {"type": "Point", "coordinates": [4.5856704, 51.9506887]}, "properties": {"osm_id": 1875253144, "osm_type": "node", "amenity": "kindergarten"}}, {"type": "Feature", "geometry": {"type": "Point", "coordinates": [5.0324285, 52.0771838]}, "properties": {"osm_id": 1887818833, "osm_type": "node", "addr:city": "De Meern", "addr:housenumber": "100", "addr:postcode": "3454EN", "addr:street": "Ten Veldestraat", "amenity": "kindergarten", "name": "Jojo", "source": "BAG", "source:date": "2014-03-24", "website": "https://www.kmnkindenco.nl/kdv/kinderdagverblijf-jojo/"}}, {"type": "Feature", "geometry": {"type": "Point", "coordinates": [4.8615739, 52.2963305]}, "properties": {"osm_id": 1905979304, "osm_type": "node", "amenity": "kindergarten", "name": "Jillz kinderdagverblijf"}}, {"type": "Feature", "geometry": {"type": "Point", "coordinates": [5.1973531, 52.065825]}, "properties": {"osm_id": 1920121280, "osm_type": "node", "addr:city": "Bunnik", "addr:housenumber": "4", "addr:postcode": "3981WC", "addr:street": "Huib van de Vechtlaan", "amenity": "kindergarten", "name": "Medisch kinderdagverblijf Prikkebeen", "phone": "+31 30 657 5020", "source": "BAG", "source:date": "2014-05-07", "website": "https://www.prikkebeen.com/", "wheelchair": "yes"}}, {"type": "Feature", "geometry": {"type": "Point", "coordinates": [4.7103313, 52.2618374]}, "properties": {"osm_id": 1927332684, "osm_type": "node", "addr:city": "Rijsenhout", "addr:housenumber": "28A", "addr:postcode": "1435LJ", "addr:street": "Pampusstraat", "amenity": "kindergarten", "name": "MiniKidz", "source": "BAG", "source:date": "2017-08-31", "website": "https://www.minikidz.nl/"}}, {"type": "Feature", "geometry": {"type": "Point", "coordinates": [5.1400194, 51.5832233]}, "properties": {"osm_id": 1930285619, "osm_type": "node", "amenity": "kindergarten", "check_date": "2023-07-04", "name": "peuterplaza"}}, {"type": "Feature", "geometry": {"type": "Point", "coordinates": [5.720956, 50.7788267]}, "properties": {"osm_id": 1933329761, "osm_type": "node", "addr:city": "Eijsden", "addr:housenumber": "42", "addr:postcode": "6245RE", "addr:street": "Kramsvogel", "amenity": "kindergarten", "name": "MIK BSO Oiga"}}, {"type": "Feature", "geometry": {"type": "Point", "coordinates": [4.8746711, 52.3087618]}, "properties": {"osm_id": 1935031689, "osm_type": "node", "addr:city": "Amstelveen", "addr:housenumber": "12", "addr:postcode": "1183JE", "addr:street": "Westelijk Halfrond", "amenity": "kindergarten", "name": "Blub Zegt De Vis"}}, {"type": "Feature", "geometry": {"type": "Point", "coordinates": [5.5183244, 52.3369082]}, "properties": {"osm_id": 1942975183, "osm_type": "node", "addr:city": "Zeewolde", "addr:housenumber": "43", "addr:postcode": "3893EB", "addr:street": "Jade", "amenity": "kindergarten", "brand": "Partou", "brand:website": "https://partou.nl", "brand:wikidata": "Q126717450", "brand:wikipedia": "nl:Partou", "description": "Kinderdagverblijf, BSO", "name": "Partou", "source": "BAG", "source:date": "2014-05-07", "website": "https://partou.nl/kinderopvang/zeewolde/kinderdagverblijf-jade-43/"}}, {"type": "Feature", "geometry": {"type": "Point", "coordinates": [5.7949559, 50.9489106]}, "properties": {"osm_id": 1945908483, "osm_type": "node", "amenity": "kindergarten", "level": "1", "name": "Maki Kinderopvang"}}, {"type": "Feature", "geometry": {"type": "Point", "coordinates": [4.6832302, 51.7876066]}, "properties": {"osm_id": 1947488808, "osm_type": "node", "addr:city": "Dordrecht", "addr:housenumber": "164", "addr:postcode": "3318VT", "addr:street": "Noorderkroonstraat", "amenity": "kindergarten", "name": "SDK Beregoed", "source": "BAG", "source:date": "2014-03-24"}}, {"type": "Feature", "geometry": {"type": "Point", "coordinates": [4.5537056, 52.258173]}, "properties": {"osm_id": 1962428230, "osm_type": "node", "amenity": "kindergarten", "name": "SKOL Kinderopvang", "url": "www.skolkinderopvang.nl"}}, {"type": "Feature", "geometry": {"type": "Point", "coordinates": [4.8745337, 52.3319053]}, "properties": {"osm_id": 1987306394, "osm_type": "node", "addr:city": "Amsterdam", "addr:housenumber": "663", "addr:postcode": "1082LG", "addr:street": "Arent Janszoon Ernststraat", "amenity": "kindergarten", "name": "Bambini BSO", "source": "BAG", "source:date": "2018-01-07", "website": "https://www.bambinikids.nl/", "wheelchair": "yes"}}, {"type": "Feature", "geometry": {"type": "Point", "coordinates": [5.1208754, 52.0646546]}, "properties": {"osm_id": 2008437292, "osm_type": "node", "addr:city": "Utrecht", "addr:housenumber": "49", "addr:postcode": "3525AR", "addr:street": "Camminghaplantsoen", "amenity": "kindergarten", "check_date": "2025-08-15", "name": "Kinderdagverblijf Schatkamer/BSO Schateiland", "operator": "KMN Kind & Co", "toilets:wheelchair": "yes", "website": "https://www.kmnkindenco.nl/kdv/kinderdagverblijf-schatkamer/", "wheelchair": "yes", "wheelchair:description": "Zware deurdrangers. Lift 1,1 x 2,1 m."}}, {"type": "Feature", "geometry": {"type": "Point", "coordinates": [5.9044918, 50.9280346]}, "properties": {"osm_id": 2012973369, "osm_type": "node", "amenity": "kindergarten"}}, {"type": "Feature", "geometry": {"type": "Point", "coordinates": [5.0983959, 52.0891371]}, "properties": {"osm_id": 2026864321, "osm_type": "node", "addr:city": "Utrecht", "addr:housenumber": "3", "addr:postcode": "3531EK", "addr:street": "Jan Pieterszoon Coenstraat", "amenity": "kindergarten", "name": "Kinderopvang Blos", "source": "BAG", "source:date": "2014-02-11", "website": "https://www.blos.nl/utrecht/jan-pieterszoon-coenstr-3/kinderdagverblijf"}}, {"type": "Feature", "geometry": {"type": "Point", "coordinates": [4.8279015, 52.6462128]}, "properties": {"osm_id": 2054172360, "osm_type": "node", "addr:city": "Heerhugowaard", "addr:housenumber": "13", "addr:postcode": "1705HW", "addr:street": "Henriëtte Henriquez Pimenteltuin", "amenity": "kindergarten", "name": "Kinddomein De Zeppelin", "operator": "Blosse", "operator:website": "https://www.blosse.nl", "operator:wikidata": "Q123248674", "phone": "+31 72 566 02 00", "source": "BAG", "source:date": "2014-05-07", "website": "https://www.dezeppelin.nl"}}, {"type": "Feature", "geometry": {"type": "Point", "coordinates": [4.909359, 52.5503861]}, "properties": {"osm_id": 2061345034, "osm_type": "node", "amenity": "kindergarten", "name": "De Speelhut"}}, {"type": "Feature", "geometry": {"type": "Point", "coordinates": [4.4792615, 52.1699456]}, "properties": {"osm_id": 2088165809, "osm_type": "node", "amenity": "kindergarten", "isced:level": "0", "max_age": "4", "min_age": "2 month", "name": "De Kattekop", "url": "www.dekattekop.nl"}}, {"type": "Feature", "geometry": {"type": "Point", "coordinates": [5.7044822, 50.8053732]}, "properties": {"osm_id": 2092887705, "osm_type": "node", "amenity": "kindergarten"}}, {"type": "Feature", "geometry": {"type": "Point", "coordinates": [5.7976929, 53.2038225]}, "properties": {"osm_id": 2102891309, "osm_type": "node", "addr:city": "Leeuwarden", "addr:housenumber": "50", "addr:postcode": "8911EN", "addr:street": "Jacobijnerkerkhof", "amenity": "kindergarten", "check_date": "2026-04-03", "name": "Sinne Jacobijnerkerkhof", "operator": "Sinne", "source": "BAG", "source:date": "2014-09-08", "website": "https://www.sinnekinderopvang.nl/vind-een-locatie/jacobijnerkerkhof"}}, {"type": "Feature", "geometry": {"type": "Point", "coordinates": [5.7865354, 53.1899264]}, "properties": {"osm_id": 2102948221, "osm_type": "node", "amenity": "kindergarten", "name": "Sinne Cornelis Trooststraat", "phone": "+31 58 213 0584", "website": "https://www.sinnekinderopvang.nl/sinne-cornelis-trooststraat"}}, {"type": "Feature", "geometry": {"type": "Point", "coordinates": [4.1053784, 51.9110275]}, "properties": {"osm_id": 2184392886, "osm_type": "node", "addr:city": "Oostvoorne", "addr:housenumber": "1", "addr:postcode": "3233TV", "addr:street": "Vr Machteldweg", "amenity": "kindergarten", "name": "De Peuterhof", "source": "BAG", "source:date": "2014-02-11", "website": "https://www.humankind.nl/vestigingen/oostvoorne/peuteropvang-de-peuterhof"}}, {"type": "Feature", "geometry": {"type": "Point", "coordinates": [4.4813337, 52.1857142]}, "properties": {"osm_id": 2219622394, "osm_type": "node", "amenity": "kindergarten", "name": "Peuterspeelzaal Guusje", "website": "https://www.sko-oegstgeest.nl/"}}, {"type": "Feature", "geometry": {"type": "Point", "coordinates": [4.7917234, 52.3558454]}, "properties": {"osm_id": 2225666271, "osm_type": "node", "addr:city": "Amsterdam", "addr:country": "NL", "addr:housenumber": "70-72", "addr:postcode": "1069LK", "addr:street": "Baden Powellweg", "amenity": "kindergarten", "email": "info@zonnehoekje.com", "fax": "+31 20 486 5473", "name": "'t Zonnehoekje", "phone": "+31 20 486 5474", "website": "https://www.zonnehoekje.com/"}}, {"type": "Feature", "geometry": {"type": "Point", "coordinates": [5.8912094, 51.1019467]}, "properties": {"osm_id": 2232289152, "osm_type": "node", "amenity": "kindergarten", "name": "Kinderopvang Wee-Play"}}, {"type": "Feature", "geometry": {"type": "Point", "coordinates": [4.485504, 52.1530826]}, "properties": {"osm_id": 2262140364, "osm_type": "node", "amenity": "kindergarten", "isced": "0", "max_age": "4", "min_age": "0", "name": "Waterlelie", "operator": "Flowerkids", "website": "https://www.flowerkids.nl/vestigingen/leiden-de-waterlelie/"}}, {"type": "Feature", "geometry": {"type": "Point", "coordinates": [4.860593, 52.3253285]}, "properties": {"osm_id": 2275988947, "osm_type": "node", "addr:city": "Amsterdam", "addr:housenumber": "8", "addr:street": "Overdam", "amenity": "kindergarten", "check_date": "2023-10-27", "name": "KDV Bambini", "source": "local_knowledge"}}, {"type": "Feature", "geometry": {"type": "Point", "coordinates": [5.9757195, 50.8342279]}, "properties": {"osm_id": 2297514175, "osm_type": "node", "amenity": "kindergarten"}}, {"type": "Feature", "geometry": {"type": "Point", "coordinates": [5.123341, 52.0861515]}, "properties": {"osm_id": 2306335228, "osm_type": "node", "addr:city": "Utrecht", "addr:housenumber": "79", "addr:postcode": "3512PE", "addr:street": "Lange Nieuwstraat", "amenity": "kindergarten", "mobile": "+31 6 131 474 05", "name": "Peuteropvang 't Kleine Egeltje", "opening_hours": "Mo-Tu,Th-Fr 08:15-13:35", "source": "BAG", "source:date": "2022-05-13", "toilets:wheelchair": "no", "website": "https://kindencoludens.nl/nl/locaties/peuteropvang-utrecht-t-egeltje", "wheelchair": "yes"}}, {"type": "Feature", "geometry": {"type": "Point", "coordinates": [4.6019436, 51.9201688]}, "properties": {"osm_id": 2315623846, "osm_type": "node", "amenity": "kindergarten"}}, {"type": "Feature", "geometry": {"type": "Point", "coordinates": [5.0804327, 52.0935516]}, "properties": {"osm_id": 2322819881, "osm_type": "node", "addr:city": "Utrecht", "addr:housenumber": "176", "addr:postcode": "3533HL", "addr:street": "Kanaalweg", "amenity": "kindergarten", "brand": "Partou", "brand:website": "https://partou.nl/", "brand:wikidata": "Q126717450", "brand:wikipedia": "nl:Partou", "description": "Kinderdagverblijf, BSO", "name": "Partou", "phone": "+31 30 296 5713", "source": "BAG", "source:date": "2014-02-11", "website": "https://partou.nl/kinderopvang/eemnes/bso-noordersingel-6/?zipcode=3755ez"}}, {"type": "Feature", "geometry": {"type": "Point", "coordinates": [5.3359741, 51.9661614]}, "properties": {"osm_id": 2322874910, "osm_type": "node", "amenity": "kindergarten"}}, {"type": "Feature", "geometry": {"type": "Point", "coordinates": [6.1085678, 52.4819927]}, "properties": {"osm_id": 2339162255, "osm_type": "node", "addr:city": "Zwolle", "addr:housename": "Wellnesscentrum Zwolle", "addr:housenumber": "206", "addr:postcode": "8014XL", "addr:street": "Ministerlaan", "amenity": "kindergarten", "name": "Kindercentrum Doen", "source": "BAG", "source:date": "2020-03-24", "website": "https://kindercentrumdoen.nl/"}}, {"type": "Feature", "geometry": {"type": "Point", "coordinates": [4.4119726, 52.0661233]}, "properties": {"osm_id": 2346764330, "osm_type": "node", "addr:city": "'s-Gravenhage", "addr:housenumber": "2", "addr:postcode": "2492NZ", "addr:street": "Eendenplein", "amenity": "kindergarten", "check_date": "2023-10-31", "name": "Vlietkinderen 't Kompas", "operator": "Vlietkinderen", "source": "BAG", "source:date": "2013-11-26", "website": "https://www.vlietkinderen.nl/locaties/kindcentrum-leidschenveen-de-vissen-t-kompas"}}, {"type": "Feature", "geometry": {"type": "Point", "coordinates": [4.9661472, 52.492923]}, "properties": {"osm_id": 2379085414, "osm_type": "node", "amenity": "kindergarten"}}, {"type": "Feature", "geometry": {"type": "Point", "coordinates": [4.6395014, 52.2640325]}, "properties": {"osm_id": 2381008953, "osm_type": "node", "addr:city": "Nieuw-Vennep", "addr:housename": "De Boshoeve", "addr:housenumber": "28", "addr:postcode": "2153AJ", "addr:street": "Bosstraat", "amenity": "kindergarten", "name": "Boshoeve", "source": "BAG", "source:date": "2017-11-12"}}, {"type": "Feature", "geometry": {"type": "Point", "coordinates": [4.3981115, 52.0669236]}, "properties": {"osm_id": 2396313286, "osm_type": "node", "addr:city": "'s-Gravenhage", "addr:housenumber": "218", "addr:postcode": "2492JP", "addr:street": "Henri Faasdreef", "amenity": "kindergarten", "name": "Vlietkinderen Wauw", "source": "BAG;http://www.vlietkinderen.nl/index.php?pageID=56", "source:date": "2013-11-26"}}, {"type": "Feature", "geometry": {"type": "Point", "coordinates": [6.7575212, 53.1618911]}, "properties": {"osm_id": 2409964579, "osm_type": "node", "amenity": "kindergarten", "description": "kinderdagverblijf", "education": "kindergarten", "email": "ontdekking@kaka.nl", "max_age": "4", "min_age": "0", "name": "De Ontdekking", "opening_hours": "Mo-Fr 07:30-18:30", "operator": "KaKa", "operator:website": "https://kaka.nl", "phone": "+31 6 83779902", "website": "https://kaka.nl/vestiging/kdv-de-ontdekking/"}}, {"type": "Feature", "geometry": {"type": "Point", "coordinates": [4.8704178, 52.3632432]}, "properties": {"osm_id": 2411875410, "osm_type": "node", "addr:city": "Amsterdam", "addr:housenumber": "77", "addr:postcode": "1054RJ", "addr:street": "Pesthuislaan", "amenity": "kindergarten", "check_date": "2024-02-10", "name": "Willemientje", "website": "http://www.kinderopvang-willemientje.nl/"}}, {"type": "Feature", "geometry": {"type": "Point", "coordinates": [4.876648, 52.365868]}, "properties": {"osm_id": 2414357203, "osm_type": "node", "addr:city": "Amsterdam", "addr:housenumber": "20", "addr:postcode": "1054AR", "addr:street": "Bosboom Toussaintstraat", "amenity": "kindergarten", "check_date": "2024-05-23", "name": "Slot Meesenstijn", "website": "https://www.slotmeesenstijn.nl", "wheelchair": "no"}}, {"type": "Feature", "geometry": {"type": "Point", "coordinates": [5.1945914, 52.0694795]}, "properties": {"osm_id": 2420740800, "osm_type": "node", "addr:city": "Bunnik", "addr:housenumber": "27g", "addr:postcode": "3981GD", "addr:street": "Camminghalaan", "amenity": "kindergarten", "check_date": "2024-09-11", "name": "Buitenschoolse Opvang Kwibus", "phone": "+31 30 657 0116", "source": "BAG", "source:date": "2014-05-07", "website": "https://www.kinderopvanghumanitas.nl/_/370/", "wheelchair": "yes"}}, {"type": "Feature", "geometry": {"type": "Point", "coordinates": [4.5345024, 52.3718255]}, "properties": {"osm_id": 2422317988, "osm_type": "node", "amenity": "kindergarten", "check_date": "2024-05-03", "name": "Ducky Duck", "website": "https://www.duckyduck.nl/"}}, {"type": "Feature", "geometry": {"type": "Point", "coordinates": [5.3992887, 51.6832943]}, "properties": {"osm_id": 2423082439, "osm_type": "node", "amenity": "kindergarten", "name": "Beertjeshuis"}}, {"type": "Feature", "geometry": {"type": "Point", "coordinates": [4.8720348, 52.3641437]}, "properties": {"osm_id": 2423845192, "osm_type": "node", "addr:city": "Amsterdam", "addr:housenumber": "12", "addr:postcode": "1054CT", "addr:street": "Tweede Constantijn Huygensstraat", "amenity": "kindergarten", "name": "Wereldkids", "source": "knowledge", "website": "https://www.wereldkidsamsterdam.nl"}}, {"type": "Feature", "geometry": {"type": "Point", "coordinates": [4.8694973, 52.3625633]}, "properties": {"osm_id": 2429936930, "osm_type": "node", "addr:city": "Amsterdam", "addr:housenumber": "1", "addr:postcode": "1054PP", "addr:street": "Ite Boeremastraat", "amenity": "kindergarten", "check_date": "2023-08-13", "name": "Natuurfontein WG", "old_name": "Stadvinders", "website": "https://natuurfontein-wg-terrein.business.site"}}, {"type": "Feature", "geometry": {"type": "Point", "coordinates": [5.5858909, 51.7350032]}, "properties": {"osm_id": 2449891324, "osm_type": "node", "addr:city": "Schaijk", "addr:housenumber": "14", "addr:street": "Munstraat", "amenity": "kindergarten", "name": "kinderdagverblijf 't Hooibergje", "website": "https://www.kdvhooibergje.nl"}}, {"type": "Feature", "geometry": {"type": "Point", "coordinates": [4.4639683, 52.1621394]}, "properties": {"osm_id": 2484143876, "osm_type": "node", "amenity": "kindergarten", "check_date": "2025-05-15", "name": "De Schavuiten"}}, {"type": "Feature", "geometry": {"type": "Point", "coordinates": [4.6398783, 51.8247645]}, "properties": {"osm_id": 2493827092, "osm_type": "node", "amenity": "kindergarten", "name": "Reformatorische peuterspeelzaal \"De benjamin\""}}, {"type": "Feature", "geometry": {"type": "Point", "coordinates": [6.0957151, 52.5052147]}, "properties": {"osm_id": 2497575594, "osm_type": "node", "addr:city": "Zwolle", "addr:housenumber": "115", "addr:postcode": "8011JE", "addr:street": "Van Karnebeekstraat", "amenity": "kindergarten", "name": "Kinderopvang Nynke", "source": "BAG", "source:date": "2013-09-08", "website": "https://kinderopvangnynke.nl/"}}, {"type": "Feature", "geometry": {"type": "Point", "coordinates": [6.07608, 52.510441]}, "properties": {"osm_id": 2497659900, "osm_type": "node", "addr:city": "Zwolle", "addr:housenumber": "91", "addr:postcode": "8019AL", "addr:street": "Koningin Wilhelminastraat", "amenity": "kindergarten", "name": "Nynke", "source": "BAG", "source:date": "2013-08-08", "website": "https://kinderopvangnynke.nl/locaties/veerallee/"}}, {"type": "Feature", "geometry": {"type": "Point", "coordinates": [6.0896977, 52.5261037]}, "properties": {"osm_id": 2497852199, "osm_type": "node", "addr:city": "Zwolle", "addr:housenumber": "2", "addr:postcode": "8031ZA", "addr:street": "Haydnstraat", "amenity": "kindergarten", "name": "KDV De 7 Dwergen", "source": "BAG", "source:date": "2016-02-20", "website": "https://www.de-7-dwergen.nl/kinderdagverblijf-holtenbroek?lang=nl&cat=landingspagina&pid=92&tags="}}, {"type": "Feature", "geometry": {"type": "Point", "coordinates": [6.081478, 52.5252332]}, "properties": {"osm_id": 2497855668, "osm_type": "node", "addr:city": "Zwolle", "addr:housenumber": "336", "addr:postcode": "8031BW", "addr:street": "Beethovenlaan", "amenity": "kindergarten", "name": "Kinderdagverblijf Joy", "source": "BAG", "source:date": "2013-09-08", "website": "https://kdvjoy.nl/"}}, {"type": "Feature", "geometry": {"type": "Point", "coordinates": [6.1053181, 52.5272936]}, "properties": {"osm_id": 2499786812, "osm_type": "node", "addr:city": "Zwolle", "addr:housenumber": "2", "addr:postcode": "8032CA", "addr:street": "Gouwe", "amenity": "kindergarten", "brand": "Partou", "brand:website": "https://partou.nl/", "brand:wikidata": "Q126717450", "brand:wikipedia": "nl:Partou", "description": "Kinderdagverblijf", "name": "Partou", "source": "BAG", "source:date": "2013-09-08", "website": "https://partou.nl/kinderopvang/zwolle/kinderdagverblijf-gouwe-2"}}, {"type": "Feature", "geometry": {"type": "Point", "coordinates": [6.1025264, 52.5309236]}, "properties": {"osm_id": 2500028084, "osm_type": "node", "addr:city": "Zwolle", "addr:housenumber": "4A", "addr:postcode": "8032HX", "addr:street": "Zijpe", "amenity": "kindergarten", "name": "MoreThanKidz", "source": "BAG", "source:date": "2013-09-08", "website": "https://www.morethankidz.nl/vestigingen/morethankidz-zwolle-aa-landen/"}}, {"type": "Feature", "geometry": {"type": "Point", "coordinates": [6.089295, 52.5179222]}, "properties": {"osm_id": 2500427268, "osm_type": "node", "addr:city": "Zwolle", "addr:housenumber": "53", "addr:postcode": "8021EM", "addr:street": "Hobbemastraat", "amenity": "kindergarten", "name": "Nynke", "source": "BAG", "source:date": "2013-09-08", "website": "https://kinderopvangnynke.nl/"}}, {"type": "Feature", "geometry": {"type": "Point", "coordinates": [6.1331256, 52.5223547]}, "properties": {"osm_id": 2500684893, "osm_type": "node", "addr:city": "Zwolle", "addr:housenumber": "23", "addr:postcode": "8024CA", "addr:street": "Eikenlaan", "amenity": "kindergarten", "brand": "Partou", "brand:website": "https://partou.nl/", "brand:wikidata": "Q126717450", "brand:wikipedia": "nl:Partou", "description": "BSO", "name": "Partou", "source": "BAG", "source:date": "2013-09-08", "website": "https://www.partou.nl/kinderopvang/zwolle/bso-eikenlaan-23"}}, {"type": "Feature", "geometry": {"type": "Point", "coordinates": [6.2889325, 52.3942894]}, "properties": {"osm_id": 2503976345, "osm_type": "node", "addr:city": "Raalte", "addr:housenumber": "36", "addr:postcode": "8103EZ", "addr:street": "Gieteling", "amenity": "kindergarten", "name": "De Vlegeltjes", "source": "BAG", "source:date": "2013-09-08"}}, {"type": "Feature", "geometry": {"type": "Point", "coordinates": [5.195057, 52.069586]}, "properties": {"osm_id": 2516451923, "osm_type": "node", "addr:city": "Bunnik", "addr:housenumber": "27h", "addr:postcode": "3981GD", "addr:street": "Camminghalaan", "amenity": "kindergarten", "brand": "Partou", "brand:website": "https://partou.nl/", "brand:wikidata": "Q126717450", "brand:wikipedia": "nl:Partou", "check_date": "2025-06-10", "description": "Kinderdagverblijf, BSO", "name": "Partou", "phone": "+31 30 656 3058;+31 6 20466233", "source": "BAG", "source:date": "2014-05-07", "website": "https://partou.nl/kinderopvang/bunnik/kinderdagverblijf-camminghalaan-27-h/", "wheelchair": "yes"}}, {"type": "Feature", "geometry": {"type": "Point", "coordinates": [5.407342, 52.1484201]}, "properties": {"osm_id": 2521357259, "osm_type": "node", "addr:city": "Amersfoort", "addr:housenumber": "51", "addr:postcode": "3816WB", "addr:street": "Wagnerstraat", "amenity": "kindergarten", "name": "De Droom", "source": "BAG", "source:date": "2014-02-11"}}, {"type": "Feature", "geometry": {"type": "Point", "coordinates": [6.1051361, 52.523553]}, "properties": {"osm_id": 2526958981, "osm_type": "node", "addr:city": "Zwolle", "addr:housenumber": "1", "addr:postcode": "8022CG", "addr:street": "Geert Grootestraat", "amenity": "kindergarten", "name": "KDV OMI", "source": "BAG", "source:date": "2013-09-08", "website": "https://www.kdvomi.nl/"}}, {"type": "Feature", "geometry": {"type": "Point", "coordinates": [6.3141332, 52.1042463]}, "properties": {"osm_id": 2543003218, "osm_type": "node", "addr:city": "Vorden", "addr:housenumber": "17A", "addr:postcode": "7251BC", "addr:street": "Kerkstraat", "amenity": "kindergarten", "name": "Peuterspeelzaal Ot en Sien", "source": "BAG", "source:date": "2013-11-26;2019-08-28", "website": "https://www.dorpsschool.nl"}}, {"type": "Feature", "geometry": {"type": "Point", "coordinates": [4.4700494, 51.9911803]}, "properties": {"osm_id": 2592762401, "osm_type": "node", "addr:city": "Berkel en Rodenrijs", "addr:housenumber": "3", "addr:postcode": "2651MX", "addr:street": "Ranonkelweg", "amenity": "kindergarten", "name": "Kinderdagverblijf De Paddestoel", "operator:type": "private", "source": "BAG", "source:date": "2013-11-26"}}, {"type": "Feature", "geometry": {"type": "Point", "coordinates": [4.4952742, 51.9959494]}, "properties": {"osm_id": 2593046025, "osm_type": "node", "addr:city": "Bergschenhoek", "addr:housenumber": "43", "addr:postcode": "2661AL", "addr:street": "Groeneweg", "amenity": "kindergarten", "branch": "Groeneweg", "brand": "Partou", "brand:website": "https://partou.nl/", "brand:wikidata": "Q126717450", "brand:wikipedia": "nl:Partou", "name": "Partou", "source": "BAG", "source:date": "2013-11-26", "website": "https://www.partou.nl/kinderopvang/bergschenhoek/kinderdagverblijf-groeneweg-43"}}, {"type": "Feature", "geometry": {"type": "Point", "coordinates": [4.495173, 51.9963459]}, "properties": {"osm_id": 2593046289, "osm_type": "node", "addr:city": "Bergschenhoek", "addr:housenumber": "47", "addr:postcode": "2661AL", "addr:street": "Groeneweg", "amenity": "kindergarten", "brand": "Partou", "brand:website": "https://partou.nl/", "brand:wikidata": "Q126717450", "brand:wikipedia": "nl:Partou", "name": "Partou Skala", "operator": "Partou", "source": "BAG", "source:date": "2013-11-26", "website": "https://www.partou.nl/kinderopvang/bergschenhoek/bso-groeneweg-47"}}, {"type": "Feature", "geometry": {"type": "Point", "coordinates": [4.4955135, 51.9948995]}, "properties": {"osm_id": 2593048376, "osm_type": "node", "addr:city": "Bergschenhoek", "addr:housenumber": "68", "addr:postcode": "2661KW", "addr:street": "Groeneweg", "amenity": "kindergarten", "brand": "Partou", "brand:website": "https://partou.nl/", "brand:wikidata": "Q126717450", "brand:wikipedia": "nl:Partou", "name": "Partou de Petteflat", "operator": "Partou", "source": "BAG", "source:date": "2013-11-26", "website": "https://www.partou.nl/kinderopvang/bergschenhoek/kinderdagverblijf-groeneweg-68"}}, {"type": "Feature", "geometry": {"type": "Point", "coordinates": [4.3525435, 51.985903]}, "properties": {"osm_id": 2595131898, "osm_type": "node", "addr:city": "Delft", "addr:housenumber": "84", "addr:postcode": "2622DZ", "addr:street": "Sandinoweg", "amenity": "kindergarten", "brand:website": "https://partou.nl/", "brand:wikidata": "Q126717450", "brand:wikipedia": "nl:Partou", "source": "BAG", "source:date": "2013-11-26"}}, {"type": "Feature", "geometry": {"type": "Point", "coordinates": [4.3451505, 51.9921097]}, "properties": {"osm_id": 2595409161, "osm_type": "node", "addr:city": "Delft", "addr:housenumber": "1A", "addr:postcode": "2625EC", "addr:street": "Pijperring", "amenity": "kindergarten", "name": "Stichting Briljant", "source": "BAG", "source:date": "2013-11-26"}}, {"type": "Feature", "geometry": {"type": "Point", "coordinates": [4.3510362, 51.9980702]}, "properties": {"osm_id": 2595409263, "osm_type": "node", "addr:city": "Delft", "addr:housenumber": "2", "addr:postcode": "2624NN", "addr:street": "Palmyraplaats", "amenity": "kindergarten", "check_date": "2023-05-31", "name": "Bam", "source": "BAG;survey", "source:date": "2013-11-26", "website": "https://www.kinderopvangbam.nl/"}}, {"type": "Feature", "geometry": {"type": "Point", "coordinates": [4.361033, 51.9955054]}, "properties": {"osm_id": 2595412514, "osm_type": "node", "addr:city": "Delft", "addr:housenumber": "267", "addr:postcode": "2624AV", "addr:street": "Vulcanusweg", "amenity": "kindergarten", "email": "info@kindergarden.nl", "isced:level": "0", "max_age": "4", "min_age": "2 months", "name": "Kindergarden", "operator": "Kindergarden", "phone": "+31 15 256 9994", "source": "BAG", "source:date": "2013-11-26", "website": "https://www.kindergarden.nl"}}, {"type": "Feature", "geometry": {"type": "Point", "coordinates": [4.3440521, 51.9919117]}, "properties": {"osm_id": 2595412518, "osm_type": "node", "addr:city": "Delft", "addr:housenumber": "268", "addr:postcode": "2625RE", "addr:street": "Buitenhofdreef", "amenity": "kindergarten", "check_date": "2026-01-24", "email": "info@kindergarden.nl", "isced:level": "0", "max_age": "4", "min_age": "2 months", "name": "Kindergarden", "operator": "Kindergarden", "phone": "+31 20 423 5422", "source": "BAG", "source:date": "2013-11-26", "website": "https://www.kindergarden.nl"}}, {"type": "Feature", "geometry": {"type": "Point", "coordinates": [4.3648021, 52.0049753]}, "properties": {"osm_id": 2596107269, "osm_type": "node", "addr:city": "Delft", "addr:housenumber": "51", "addr:postcode": "2628AJ", "addr:street": "Rotterdamseweg", "amenity": "kindergarten", "name": "Kinderopvang de Lange Keizer", "source": "BAG", "source:date": "2013-11-26", "website": "https://www.delangekeizer.nl/"}}, {"type": "Feature", "geometry": {"type": "Point", "coordinates": [4.373059, 52.007938]}, "properties": {"osm_id": 2596723059, "osm_type": "node", "addr:city": "Delft", "addr:housenumber": "111", "addr:postcode": "2628TG", "addr:street": "Simonsstraat", "amenity": "kindergarten", "name": "Smallsteps Woezelhuis", "phone": "+31 15 262 4025", "source": "BAG", "source:date": "2013-11-26"}}, {"type": "Feature", "geometry": {"type": "Point", "coordinates": [4.3347381, 52.0144608]}, "properties": {"osm_id": 2596731091, "osm_type": "node", "addr:city": "Delft", "addr:housenumber": "2", "addr:postcode": "2614BE", "addr:street": "Camerlingstraat", "amenity": "kindergarten", "email": "info@kinderdagverblijfhetelfje.nl", "name": "Kinderdagverblijf Het Elfje", "phone": "+31 15 212 0061", "source": "BAG", "source:date": "2013-11-26", "website": "https://www.kinderdagverblijfhetelfje.nl"}}, {"type": "Feature", "geometry": {"type": "Point", "coordinates": [4.3247437, 52.0150067]}, "properties": {"osm_id": 2596744426, "osm_type": "node", "addr:city": "Rijswijk", "addr:housenumber": "42", "addr:postcode": "2286KL", "addr:street": "Sionsweg", "amenity": "kindergarten", "branch": "'t Koetshuis", "brand": "Kinderopvang Piccolini", "education": "kindergarten", "name": "‘t Koetshuis", "source": "BAG;survey", "source:date": "2013-11-26", "website": "https://kinderopvangpiccolini.nl/."}}, {"type": "Feature", "geometry": {"type": "Point", "coordinates": [4.38869, 52.0191641]}, "properties": {"osm_id": 2596753176, "osm_type": "node", "addr:city": "Delft", "addr:housenumber": "65", "addr:postcode": "2616LC", "addr:street": "Klein Delfgauw", "amenity": "kindergarten", "email": "info@knorretje.com", "name": "Kinderdagverblijf 't Knorretje", "opening_hours": "Mo-Fr 08:00-18:00", "phone": "+31 15 214 3274", "source": "BAG", "source:date": "2013-11-26", "website": "https://knorretje.com"}}, {"type": "Feature", "geometry": {"type": "Point", "coordinates": [4.3254869, 52.0025106]}, "properties": {"osm_id": 2597970182, "osm_type": "node", "addr:city": "Den Hoorn", "addr:housenumber": "11", "addr:postcode": "2635MK", "addr:street": "Achterdijkshoorn", "amenity": "kindergarten", "name": "'t Kickertje", "source": "BAG;survey", "source:date": "2013-11-26", "website": "https://kickertje.nl"}}, {"type": "Feature", "geometry": {"type": "Point", "coordinates": [4.3520086, 52.0083251]}, "properties": {"osm_id": 2597981693, "osm_type": "node", "addr:city": "Delft", "addr:housenumber": "4", "addr:postcode": "2613TT", "addr:street": "Van Slingelandtstraat", "amenity": "kindergarten", "name": "De Peppel", "source": "BAG", "source:date": "2013-11-26"}}, {"type": "Feature", "geometry": {"type": "Point", "coordinates": [4.3518294, 52.0087779]}, "properties": {"osm_id": 2597985415, "osm_type": "node", "addr:city": "Delft", "addr:housenumber": "59", "addr:postcode": "2613VN", "addr:street": "Hugo de Grootstraat", "amenity": "kindergarten", "check_date": "2024-02-28", "email": "info@kindergarden.nl", "isced:level": "0", "max_age": "4", "min_age": "2 months", "name": "Kindergarden", "operator": "Kindergarden", "source": "BAG", "source:date": "2013-11-26", "website": "https://www.kindergarden.nl"}}, {"type": "Feature", "geometry": {"type": "Point", "coordinates": [4.3573948, 52.0143593]}, "properties": {"osm_id": 2599509158, "osm_type": "node", "addr:city": "Delft", "addr:country": "NL", "addr:housenumber": "21", "addr:postcode": "2611ND", "addr:street": "Verwersdijk", "amenity": "kindergarten", "check_date": "2024-05-21", "name": "Octopus", "source": "BAG", "source:date": "2013-11-26"}}, {"type": "Feature", "geometry": {"type": "Point", "coordinates": [4.3585861, 52.0132043]}, "properties": {"osm_id": 2599512880, "osm_type": "node", "addr:city": "Delft", "addr:housenumber": "47", "addr:postcode": "2611JE", "addr:street": "Choorstraat", "amenity": "kindergarten", "branch": "De Dappere Dodo", "brand": "Kinderopvang de Lange Keizer", "education": "kindergarten", "source": "BAG;survey", "source:date": "2013-11-26", "website": "https://delangekeizer.nl/"}}, {"type": "Feature", "geometry": {"type": "Point", "coordinates": [4.352679, 52.0128496]}, "properties": {"osm_id": 2599515308, "osm_type": "node", "addr:city": "Delft", "addr:housenumber": "66", "addr:postcode": "2611AM", "addr:street": "Phoenixstraat", "amenity": "kindergarten", "name": "De Lokomotief", "operator": "Partou", "operator:type": "private", "source": "BAG;survey", "source:date": "2013-11-26"}}, {"type": "Feature", "geometry": {"type": "Point", "coordinates": [4.3691084, 52.0417223]}, "properties": {"osm_id": 2599774681, "osm_type": "node", "addr:city": "'s-Gravenhage", "addr:housenumber": "53", "addr:postcode": "2496SG", "addr:street": "Steentijdsingel", "amenity": "kindergarten", "name": "Kinderdagverblijf De Torteltuin / Buitenschoolse Opvang Krullevaar", "source": "BAG", "source:date": "2013-11-26", "website": "https://www.kinderopvanghumanitas.nl/"}}, {"type": "Feature", "geometry": {"type": "Point", "coordinates": [4.5310367, 52.0070577]}, "properties": {"osm_id": 2602119937, "osm_type": "node", "addr:city": "Bleiswijk", "addr:housenumber": "30", "addr:postcode": "2665CS", "addr:street": "Emmastraat", "amenity": "kindergarten", "name": "De Peuterhoek", "source": "BAG", "source:date": "2013-11-26"}}, {"type": "Feature", "geometry": {"type": "Point", "coordinates": [4.4906286, 52.0428651]}, "properties": {"osm_id": 2602906729, "osm_type": "node", "addr:city": "Zoetermeer", "addr:housenumber": "2", "addr:postcode": "2718BJ", "addr:street": "Beitspad", "amenity": "kindergarten", "name": "KIDSclub Rokkeveen", "phone": "+31 10 286 27 77", "source": "BAG", "source:date": "2013-11-26", "website": "https://www.gro-up.nl/locaties/buitenschoolse-opvang-rokkeveen-bso/"}}, {"type": "Feature", "geometry": {"type": "Point", "coordinates": [4.4666236, 52.0600299]}, "properties": {"osm_id": 2606683610, "osm_type": "node", "addr:city": "Zoetermeer", "addr:housenumber": "13", "addr:postcode": "2716JW", "addr:street": "Speulderbos", "amenity": "kindergarten", "name": "Varabo Kinderopvang", "source": "BAG", "source:date": "2013-11-26", "website": "https://www.varabo.nl"}}, {"type": "Feature", "geometry": {"type": "Point", "coordinates": [5.1208071, 52.0871901]}, "properties": {"osm_id": 2607584185, "osm_type": "node", "addr:city": "Utrecht", "addr:housenumber": "102E", "addr:postcode": "3511VV", "addr:street": "Springweg", "amenity": "kindergarten", "name": "Arthemis", "source": "BAG", "source:date": "2017-04-27", "website": "https://arthemis.nl/kinderdagverblijf-utrecht/"}}, {"type": "Feature", "geometry": {"type": "Point", "coordinates": [4.3959386, 52.0597908]}, "properties": {"osm_id": 2608609751, "osm_type": "node", "addr:city": "'s-Gravenhage", "addr:housenumber": "10", "addr:postcode": "2493ZK", "addr:street": "Ciceropad", "amenity": "kindergarten", "name": "Vlietkinderen", "source": "BAG", "source:date": "2013-11-26", "website": "https://www.vlietkinderen.nl/locaties/kindcentrum-leidschenveen-forepark-de-vuurtoren"}}, {"type": "Feature", "geometry": {"type": "Point", "coordinates": [4.4012837, 52.0648749]}, "properties": {"osm_id": 2608621743, "osm_type": "node", "addr:city": "'s-Gravenhage", "addr:housenumber": "34", "addr:postcode": "2492JS", "addr:street": "Jaap Hoekdreef", "amenity": "kindergarten", "branch": "Jaap Hoekdreef", "brand": "Partou", "brand:website": "https://partou.nl/", "brand:wikidata": "Q126717450", "brand:wikipedia": "nl:Partou", "check_date": "2025-08-13", "name": "Partou kinderopvang", "source": "BAG", "source:date": "2013-11-26", "website": "https://partou.nl/kinderopvang/den-haag/kinderdagverblijf-jaap-hoekdreef-34"}}, {"type": "Feature", "geometry": {"type": "Point", "coordinates": [4.4902942, 51.9234179]}, "properties": {"osm_id": 2610247260, "osm_type": "node", "addr:city": "Rotterdam", "addr:housenumber": "31", "addr:postcode": "3011RC", "addr:street": "Bredestraat", "amenity": "kindergarten", "email": "info@smallkidz.nl", "name": "Small Kidz", "source": "BAG", "source:date": "2013-11-26"}}, {"type": "Feature", "geometry": {"type": "Point", "coordinates": [4.4720253, 51.9174869]}, "properties": {"osm_id": 2610260002, "osm_type": "node", "addr:city": "Rotterdam", "addr:housenumber": "46", "addr:postcode": "3014GT", "addr:street": "Westersingel", "amenity": "kindergarten", "name": "Baboeloes", "source": "BAG", "source:date": "2013-11-26"}}, {"type": "Feature", "geometry": {"type": "Point", "coordinates": [4.4804112, 52.1702351]}, "properties": {"osm_id": 2610399584, "osm_type": "node", "addr:city": "Leiden", "addr:housenumber": "35", "addr:postcode": "2334BE", "addr:street": "Rijnsburgerweg", "amenity": "kindergarten", "isced:level": "0", "max_age": "4", "min_age": "2 month", "name": "Teddy Kids", "source": "BAG", "source:date": "2014-05-31", "website": "https://teddykids.nl/"}}, {"type": "Feature", "geometry": {"type": "Point", "coordinates": [4.3949513, 52.0038795]}, "properties": {"osm_id": 2628412038, "osm_type": "node", "addr:city": "Delfgauw", "addr:housenumber": "9", "addr:postcode": "2645HH", "addr:street": "Florijnstraat", "amenity": "kindergarten", "name": "Koeskoes", "operator": "SkippyPepijn", "source": "BAG", "source:date": "2013-11-26", "website": "https://www.skippypepijn.nl/kinderopvang/locaties-kinderdagverblijf/kinderdagverblijf-koeskoes"}}, {"type": "Feature", "geometry": {"type": "Point", "coordinates": [5.5687223, 52.1284867]}, "properties": {"osm_id": 2635100259, "osm_type": "node", "addr:city": "Barneveld", "addr:housenumber": "10", "addr:postcode": "3772MT", "addr:street": "Koolhovenstraat", "amenity": "kindergarten", "name": "DOL FIJN Kinderopvang", "source": "BAG", "source:date": "2014-01-22"}}, {"type": "Feature", "geometry": {"type": "Point", "coordinates": [6.9072212, 52.7306643]}, "properties": {"osm_id": 2638265424, "osm_type": "node", "addr:city": "Emmen", "addr:housenumber": "11", "addr:postcode": "7828AK", "addr:street": "Opaaldreef", "amenity": "kindergarten", "name": "Kinderopvang Kwebbel", "source": "BAG", "source:date": "2014-01-22"}}, {"type": "Feature", "geometry": {"type": "Point", "coordinates": [6.2009838, 52.1328665]}, "properties": {"osm_id": 2653976440, "osm_type": "node", "addr:city": "Zutphen", "addr:housenumber": "2", "addr:postcode": "7204NT", "addr:street": "Bachstraat", "amenity": "kindergarten", "check_date": "2026-02-28", "name": "Orthopedagogisch centrum Zozijn", "source": "BAG", "source:date": "2014-01-22", "website": "https://www.zozijn.nl/locaties/kindercentrum-speeldoos-zutphen"}}, {"type": "Feature", "geometry": {"type": "Point", "coordinates": [6.201901, 52.1411615]}, "properties": {"osm_id": 2655952656, "osm_type": "node", "addr:city": "Zutphen", "addr:housenumber": "58", "addr:postcode": "7201CG", "addr:street": "Laarstraat", "amenity": "kindergarten", "brand": "Partou", "check_date": "2025-10-05", "email": "KoetjeBoe@partou.nl", "name": "Koetje Boe", "phone": "+31 575 503 055", "source": "BAG", "source:date": "2014-01-22", "website": "https://partou.nl/kinderopvang/zutphen/kinderdagverblijf-laarstraat-58/"}}, {"type": "Feature", "geometry": {"type": "Point", "coordinates": [6.1333986, 52.3799072]}, "properties": {"osm_id": 2663709429, "osm_type": "node", "addr:city": "Wijhe", "addr:housenumber": "31", "addr:postcode": "8131DP", "addr:street": "de Lange Slagen", "amenity": "kindergarten", "name": "Kindercentrum De Bieënkorf", "source": "BAG", "source:date": "2014-02-05"}}, {"type": "Feature", "geometry": {"type": "Point", "coordinates": [5.1351959, 52.0879266]}, "properties": {"osm_id": 2670765866, "osm_type": "node", "addr:city": "Utrecht", "addr:housenumber": "28A", "addr:postcode": "3581WX", "addr:street": "Bolstraat", "amenity": "kindergarten", "brand": "Partou", "brand:website": "https://partou.nl/", "brand:wikidata": "Q126717450", "brand:wikipedia": "nl:Partou", "description": "Kinderdagverblijf, BSO", "name": "Partou", "phone": "+31 30 251 8986", "source": "BAG", "source:date": "2014-02-11", "website": "https://partou.nl/kinderopvang/utrecht/kinderdagverblijf-bolstraat-28a/"}}, {"type": "Feature", "geometry": {"type": "Point", "coordinates": [5.1383941, 52.0873273]}, "properties": {"osm_id": 2670766867, "osm_type": "node", "addr:city": "Utrecht", "addr:housenumber": "35", "addr:postcode": "3581NJ", "addr:street": "Wilhelminapark", "amenity": "kindergarten", "brand": "Partou", "brand:website": "https://partou.nl/", "brand:wikidata": "Q126717450", "brand:wikipedia": "nl:Partou", "description": "Kinderdagverblijf", "name": "Partou", "phone": "+31 30 254 0027", "source": "BAG", "source:date": "2014-02-11", "website": "https://partou.nl/kinderopvang/utrecht/kinderdagverblijf-wilhelminapark-35", "wheelchair": "no"}}, {"type": "Feature", "geometry": {"type": "Point", "coordinates": [5.1340777, 52.0943253]}, "properties": {"osm_id": 2672284924, "osm_type": "node", "addr:city": "Utrecht", "addr:housenumber": "24A", "addr:postcode": "3581SE", "addr:street": "Adriaanstraat", "amenity": "kindergarten", "brand": "Partou", "brand:website": "https://partou.nl/", "brand:wikidata": "Q126717450", "brand:wikipedia": "nl:Partou", "description": "BSO", "name": "Partou", "phone": "+31 30 231 1410", "source": "BAG", "source:date": "2014-02-11", "website": "https://partou.nl/kinderopvang/utrecht/bso-adriaanstraat-24a/", "wheelchair": "limited"}}, {"type": "Feature", "geometry": {"type": "Point", "coordinates": [5.1343358, 52.0944349]}, "properties": {"osm_id": 2672284934, "osm_type": "node", "addr:city": "Utrecht", "addr:housenumber": "24A", "addr:postcode": "3581SE", "addr:street": "Adriaanstraat", "amenity": "kindergarten", "brand": "Partou", "brand:website": "https://partou.nl/", "brand:wikidata": "Q126717450", "brand:wikipedia": "nl:Partou", "description": "BSO", "name": "Partou", "phone": "+31 30 236 7564", "source": "BAG", "source:date": "2014-02-11", "website": "https://partou.nl/kinderopvang/utrecht/bso-adriaanstraat-24a/"}}, {"type": "Feature", "geometry": {"type": "Point", "coordinates": [5.1337148, 52.0949633]}, "properties": {"osm_id": 2672285438, "osm_type": "node", "addr:city": "Utrecht", "addr:housenumber": "335", "addr:postcode": "3572AS", "addr:street": "Biltstraat", "amenity": "kindergarten", "brand": "Partou", "brand:website": "https://partou.nl/", "brand:wikidata": "Q126717450", "brand:wikipedia": "nl:Partou", "description": "Kinderdagverblijf", "name": "Partou", "phone": "+31 30 239 3920", "source": "BAG", "source:date": "2014-02-11", "website": "https://partou.nl/kinderopvang/utrecht/kinderdagverblijf-biltstraat-335/", "wheelchair": "yes"}}, {"type": "Feature", "geometry": {"type": "Point", "coordinates": [5.1375852, 52.0947928]}, "properties": {"osm_id": 2672287037, "osm_type": "node", "addr:city": "Utrecht", "addr:housenumber": "9", "addr:postcode": "3581ET", "addr:street": "Oorsprongpark", "amenity": "kindergarten", "description": "Buitenschoolse opvang", "fixme": "2026-02-19: Geen vestiging op deze lokatie op de Partou website.", "name": "Partou", "phone": "+31 30 233 4784", "source": "BAG", "source:date": "2014-02-11"}}, {"type": "Feature", "geometry": {"type": "Point", "coordinates": [6.2247056, 52.2411491]}, "properties": {"osm_id": 2674636710, "osm_type": "node", "addr:city": "Deventer", "addr:housenumber": "2", "addr:postcode": "7421LK", "addr:street": "Mina Krusemanlaan", "amenity": "kindergarten", "name": "Kinderopvang Het Erfje", "operator": "Partoe", "source": "BAG", "source:date": "2018-08-08"}}, {"type": "Feature", "geometry": {"type": "Point", "coordinates": [6.2123227, 52.24611]}, "properties": {"osm_id": 2674640787, "osm_type": "node", "addr:city": "Deventer", "addr:housenumber": "30", "addr:postcode": "7422NW", "addr:street": "Bosanemoon", "amenity": "kindergarten", "name": "Sam & Sjakie", "operator": "Sam & Co", "source": "BAG", "source:date": "2014-02-11"}}, {"type": "Feature", "geometry": {"type": "Point", "coordinates": [6.2233435, 52.247681]}, "properties": {"osm_id": 2674641118, "osm_type": "node", "addr:city": "Colmschate", "addr:housenumber": "32", "addr:postcode": "7429AM", "addr:street": "Banekaterveld", "amenity": "kindergarten", "check_date": "2025-12-22", "name": "Sam & Ko", "old_name": "Sam & Zaza", "source": "BAG", "source:date": "2014-02-11", "website": "https://samenko.nl/location/samzaza-kinderdagverblijf/"}}, {"type": "Feature", "geometry": {"type": "Point", "coordinates": [5.4069017, 52.182097]}, "properties": {"osm_id": 2675030668, "osm_type": "node", "addr:city": "Amersfoort", "addr:housenumber": "6", "addr:postcode": "3822DT", "addr:street": "Spinetpad", "amenity": "kindergarten", "email": "tanya@kidsenco.com", "name": "Kids & Co", "phone": "+31 33 456 22 44", "source": "BAG", "source:date": "2014-02-11", "website": "https://kidsenco.com/"}}, {"type": "Feature", "geometry": {"type": "Point", "coordinates": [6.2077961, 52.2542115]}, "properties": {"osm_id": 2675590542, "osm_type": "node", "addr:city": "Deventer", "addr:housenumber": "4", "addr:postcode": "7423DS", "addr:street": "Zwaluwenburg", "amenity": "kindergarten", "name": "Sam & Iep", "operator": "Sam & Co", "source": "BAG", "source:date": "2014-02-11"}}, {"type": "Feature", "geometry": {"type": "Point", "coordinates": [6.2260703, 52.2604055]}, "properties": {"osm_id": 2675782565, "osm_type": "node", "addr:city": "Deventer", "addr:housenumber": "2", "addr:postcode": "7425GX", "addr:street": "Andriessenplein", "amenity": "kindergarten", "name": "Sam & ronja", "operator": "Sam & co", "source": "BAG", "source:date": "2014-02-11"}}, {"type": "Feature", "geometry": {"type": "Point", "coordinates": [6.211635, 52.2600301]}, "properties": {"osm_id": 2675783040, "osm_type": "node", "addr:city": "Deventer", "addr:housenumber": "2", "addr:postcode": "7424CJ", "addr:street": "Hendrik Verheesstraat", "amenity": "kindergarten", "name": "Sam & pluk", "operator": "Sam & co", "source": "BAG", "source:date": "2014-02-11"}}, {"type": "Feature", "geometry": {"type": "Point", "coordinates": [6.2130378, 52.2609605]}, "properties": {"osm_id": 2675790439, "osm_type": "node", "addr:city": "Deventer", "addr:housenumber": "508", "addr:postcode": "7424DD", "addr:street": "Leonard Springerlaan", "amenity": "kindergarten", "max_age": "4", "min_age": "0", "name": "Bubbels", "source": "BAG", "source:date": "2014-02-11"}}, {"type": "Feature", "geometry": {"type": "Point", "coordinates": [5.1349414, 52.0956407]}, "properties": {"osm_id": 2679511292, "osm_type": "node", "addr:city": "Utrecht", "addr:housenumber": "154", "addr:postcode": "3572BN", "addr:street": "Biltstraat", "amenity": "kindergarten", "name": "Kinderdagverblijf de melkfabriek", "opening_hours": "Mo-Fr 07:30-18:30", "source": "BAG", "source:date": "2014-02-11", "website": "https://www.kdvdemelkfabriek.nl/", "wheelchair": "limited"}}, {"type": "Feature", "geometry": {"type": "Point", "coordinates": [5.9909453, 52.1996449]}, "properties": {"osm_id": 2685673297, "osm_type": "node", "addr:city": "Apeldoorn", "addr:housenumber": "100", "addr:postcode": "7329BD", "addr:street": "Waleweingaarde", "amenity": "kindergarten", "check_date": "2024-04-17", "email": "villa@kinderopvanginkleur.nl", "max_age": "12", "min_age": "0", "name": "Villa IN Kleur", "phone": "+31 6 23462613", "source": "BAG", "source:date": "2014-02-11", "website": "https://villainkleur.nl"}}, {"type": "Feature", "geometry": {"type": "Point", "coordinates": [5.9829844, 52.220438]}, "properties": {"osm_id": 2686218802, "osm_type": "node", "addr:city": "Apeldoorn", "addr:housenumber": "36", "addr:postcode": "7322GV", "addr:street": "Pinksterbloem", "amenity": "kindergarten", "name": "CompaNanny", "opening_hours": "Mo-Fr 06:45-18:00", "source": "BAG", "source:date": "2014-02-11", "website": "https://www.compananny.com"}}, {"type": "Feature", "geometry": {"type": "Point", "coordinates": [5.9347532, 52.2086069]}, "properties": {"osm_id": 2686438396, "osm_type": "node", "addr:city": "Apeldoorn", "addr:housenumber": "191", "addr:postcode": "7312CJ", "addr:street": "Jachtlaan", "amenity": "kindergarten", "email": "info@mamskinderopvang.nl", "name": "MAM's Kinderopvang", "phone": "+31 55 303 2253", "source": "BAG", "source:date": "2014-02-11", "website": "https://www.mamskinderopvang.nl/"}}, {"type": "Feature", "geometry": {"type": "Point", "coordinates": [5.9387782, 52.2084195]}, "properties": {"osm_id": 2686448121, "osm_type": "node", "addr:city": "Apeldoorn", "addr:housenumber": "280", "addr:postcode": "7312DD", "addr:street": "Asselsestraat", "amenity": "kindergarten", "branch": "Asselsestraat Apeldoorn", "name": "CompaNanny", "opening_hours": "Mo-Fr 07:30-18:30", "phone": "+31 55 303 1975", "source": "BAG", "source:date": "2014-02-11", "website": "https://www.compananny.com/locaties/apeldoorn/asselsestraat/"}}, {"type": "Feature", "geometry": {"type": "Point", "coordinates": [5.9448345, 52.2205021]}, "properties": {"osm_id": 2686460800, "osm_type": "node", "addr:city": "Apeldoorn", "addr:housenumber": "70", "addr:postcode": "7314JG", "addr:street": "Soerenseweg", "amenity": "kindergarten", "email": "kindervilla.roezemoes@doomijn.nl", "name": "Roezemoes", "phone": "+31 55 522 25 02", "source": "BAG", "source:date": "2014-02-11", "website": "https://doomijn.nl/locaties/kinderdagverblijf-kindervilla-roezemoes/"}}, {"type": "Feature", "geometry": {"type": "Point", "coordinates": [5.9493752, 52.208598]}, "properties": {"osm_id": 2686584716, "osm_type": "node", "addr:city": "Apeldoorn", "addr:housenumber": "240", "addr:postcode": "7312AA", "addr:street": "Prinses Beatrixlaan", "amenity": "kindergarten", "name": "Kindergarden Beatrixlaan", "note": "open from 1-4-2026", "opening_hours": "Mo-Fr 07:30-18:30", "source": "BAG", "source:date": "2014-02-11", "website": "https://www.kindergarden.nl/vestigingen/apeldoorn/beatrixlaan/kdv"}}, {"type": "Feature", "geometry": {"type": "Point", "coordinates": [5.959105, 52.1994695]}, "properties": {"osm_id": 2686704397, "osm_type": "node", "addr:city": "Apeldoorn", "addr:housenumber": "158", "addr:postcode": "7335DN", "addr:street": "Arnhemseweg", "amenity": "kindergarten", "name": "Ukkie", "operator": "Koos", "phone": "+31 55 541 0793", "source": "BAG", "source:date": "2014-02-11", "website": "https://www.kinderopvangkoos.nl/locatie/ukkie/"}}, {"type": "Feature", "geometry": {"type": "Point", "coordinates": [5.9591274, 52.1993819]}, "properties": {"osm_id": 2686704443, "osm_type": "node", "addr:city": "Apeldoorn", "addr:housenumber": "160", "addr:postcode": "7335DN", "addr:street": "Arnhemseweg", "amenity": "kindergarten", "name": "Ukkie", "operator": "Koos", "source": "BAG", "source:date": "2014-02-11", "website": "https://www.kinderopvangkoos.nl/locatie/de-vonkjes-2/"}}, {"type": "Feature", "geometry": {"type": "Point", "coordinates": [5.9567014, 52.1971061]}, "properties": {"osm_id": 2686706263, "osm_type": "node", "addr:city": "Apeldoorn", "addr:housenumber": "4", "addr:postcode": "7335DD", "addr:street": "Chroomweg", "amenity": "kindergarten", "email": "psz.heezehummels@doomijn.nl", "name": "Peuteropvang De Heezehummels", "opening_hours": "Mo-Th 08:00-12:00,13:00-17:00; We,Fr 08:00-12:00", "phone": "+31 6 8136 2602", "source": "BAG", "source:date": "2014-02-11", "website": "https://doomijn.nl/locaties/peuterspeelzaal-de-heezehummels/"}}, {"type": "Feature", "geometry": {"type": "Point", "coordinates": [5.3929107, 52.1904233]}, "properties": {"osm_id": 2687040772, "osm_type": "node", "addr:city": "Amersfoort", "addr:housenumber": "38", "addr:postcode": "3823HL", "addr:street": "Dopheide", "amenity": "kindergarten", "brand": "Partou", "brand:website": "https://partou.nl/", "brand:wikidata": "Q126717450", "brand:wikipedia": "nl:Partou", "description": "BSO", "email": "dopheide38@partou.nl", "name": "Partou", "opening_hours": "Mo-Fr 07:00-18:30", "operator": "Partou", "operator:type": "private", "phone": "+31 33 455 6619", "source": "BAG", "source:date": "2014-02-11", "website": "https://partou.nl/kinderopvang/amersfoort/bso-dopheide-38"}}, {"type": "Feature", "geometry": {"type": "Point", "coordinates": [4.5825927, 52.096549]}, "properties": {"osm_id": 2693293554, "osm_type": "node", "addr:city": "Hazerswoude-Dorp", "addr:housenumber": "1", "addr:postcode": "2391VM", "addr:street": "Pieter de Hooghstraat", "amenity": "kindergarten", "check_date": "2025-08-31", "description": "kinderopvang", "email": "info@onsapetrots.nl", "name": "Apetrots", "opening_hours": "Mo-Fr 07:30-18:00", "phone": "+31 172 450105", "source": "BAG", "source:date": "2014-02-11", "website": "https://www.onsapetrots.nl"}}, {"type": "Feature", "geometry": {"type": "Point", "coordinates": [4.3157999, 52.0905251]}, "properties": {"osm_id": 2704509064, "osm_type": "node", "addr:city": "'s-Gravenhage", "addr:housenumber": "112", "addr:postcode": "2596BW", "addr:street": "Jan van Nassaustraat", "amenity": "kindergarten", "branch": "Benoordenhout", "brand": "CompaNanny", "check_date": "2024-01-18", "education": "kindergarten", "isced:level": "0", "max_age": "4", "min_age": "2 months", "name": "CompaNanny", "operator": "CompaNanny", "operator:type": "private", "source": "BAG;survey;node 8889383309", "source:date": "2014-02-11", "website": "https://www.compananny.com"}}, {"type": "Feature", "geometry": {"type": "Point", "coordinates": [6.1833923, 52.6129987]}, "properties": {"osm_id": 2704548323, "osm_type": "node", "addr:city": "Rouveen", "addr:housenumber": "19", "addr:postcode": "7954GC", "addr:street": "Korte Kerkweg", "amenity": "kindergarten", "education": "kindergarten", "isced:level": "0", "name": "Op Stap", "official_name": "Peutergroep Op Stap", "source": "BAG", "source:date": "2014-02-11", "website": "https://www.peutergroepopstap.nl/"}}, {"type": "Feature", "geometry": {"type": "Point", "coordinates": [4.3721031, 52.0778424]}, "properties": {"osm_id": 2704844369, "osm_type": "node", "addr:city": "Voorburg", "addr:housenumber": "92", "addr:postcode": "2273AM", "addr:street": "Rembrandtlaan", "amenity": "kindergarten", "check_date": "2024-02-17", "isced:level": "0", "max_age": "4", "min_age": "2 month", "name": "CompaNanny Rembrandtlaan", "operator": "CompaNanny", "operator:type": "private", "source": "BAG", "source:date": "2014-02-11", "website": "https://www.compananny.com/locaties/voorburg/rembrandtlaan/"}}, {"type": "Feature", "geometry": {"type": "Point", "coordinates": [6.2021135, 52.6523547]}, "properties": {"osm_id": 2705762168, "osm_type": "node", "addr:city": "Staphorst", "addr:housenumber": "41b", "addr:postcode": "7951AB", "addr:street": "Ebbinge Wubbenlaan", "amenity": "kindergarten", "name": "Kinderopvang Mathil", "source": "BAG", "source:date": "2014-02-11"}}, {"type": "Feature", "geometry": {"type": "Point", "coordinates": [4.3333278, 52.0618217]}, "properties": {"osm_id": 2707855533, "osm_type": "node", "addr:city": "'s-Gravenhage", "addr:housenumber": "530", "addr:postcode": "2516HT", "addr:street": "Rijswijkseweg", "amenity": "kindergarten", "check_date": "2026-01-19", "name": "Kinderdagverblijf M&M", "source": "BAG", "source:date": "2014-02-11"}}, {"type": "Feature", "geometry": {"type": "Point", "coordinates": [4.3288621, 52.063104]}, "properties": {"osm_id": 2707884957, "osm_type": "node", "addr:city": "'s-Gravenhage", "addr:housenumber": "18", "addr:postcode": "2522RC", "addr:street": "Pasteurplein", "amenity": "kindergarten", "name": "Ewa's Childcare", "source": "BAG", "source:date": "2014-02-11"}}, {"type": "Feature", "geometry": {"type": "Point", "coordinates": [5.4250445, 52.1239665]}, "properties": {"osm_id": 2708293923, "osm_type": "node", "addr:city": "Leusden", "addr:housenumber": "105", "addr:postcode": "3833GM", "addr:street": "Hamersveldseweg", "amenity": "kindergarten", "education": "kindergarten", "email": "info@dewiebelwagen.nl", "name": "KDV De Wiebelwagen", "opening_hours": "Mo-Fr 07:00-18:00", "operator": "De Wiebelwagen", "phone": "+31 33 870 0073", "source": "BAG", "source:date": "2014-02-11", "website": "https://www.dewiebelwagen.nl"}}, {"type": "Feature", "geometry": {"type": "Point", "coordinates": [4.3301473, 52.059115]}, "properties": {"osm_id": 2708426933, "osm_type": "node", "addr:city": "'s-Gravenhage", "addr:housenumber": "12", "addr:postcode": "2522GR", "addr:street": "Linnaeusstraat", "amenity": "kindergarten", "name": "De Regenboog", "source": "BAG", "source:date": "2014-02-11"}}, {"type": "Feature", "geometry": {"type": "Point", "coordinates": [4.3295793, 52.0588981]}, "properties": {"osm_id": 2708426951, "osm_type": "node", "addr:city": "'s-Gravenhage", "addr:housenumber": "12A", "addr:postcode": "2522GR", "addr:street": "Linnaeusstraat", "amenity": "kindergarten", "name": "Dak Linnaeus", "operator": "Dak Kindercentra", "source": "BAG", "source:date": "2014-02-11"}}, {"type": "Feature", "geometry": {"type": "Point", "coordinates": [5.1186635, 52.0893716]}, "properties": {"osm_id": 2709283890, "osm_type": "node", "addr:city": "Utrecht", "addr:housenumber": "7", "addr:postcode": "3511LM", "addr:street": "Alendorpstraat", "amenity": "kindergarten", "description": "Dagopvang en buitenschoolse opvang", "fixme": "2026-02-19: Geen vestiging op deze lokatie op de Partou website.", "name": "Partou", "phone": "+31 30 232 1800", "source": "BAG", "source:date": "2014-02-11", "website": "https://www.partou.nl"}}, {"type": "Feature", "geometry": {"type": "Point", "coordinates": [6.4217685, 52.5206288]}, "properties": {"osm_id": 2709454553, "osm_type": "node", "addr:city": "Ommen", "addr:housenumber": "2a", "addr:postcode": "7731DG", "addr:street": "Sandbergstraat", "amenity": "kindergarten", "name": "Peuterspeelzaal Sandbergstraat", "source": "BAG", "source:date": "2014-02-11"}}, {"type": "Feature", "geometry": {"type": "Point", "coordinates": [5.1233928, 52.0958405]}, "properties": {"osm_id": 2709630828, "osm_type": "node", "addr:city": "Utrecht", "addr:housenumber": "12", "addr:postcode": "3512CD", "addr:street": "Plompetorengracht", "amenity": "kindergarten", "brand": "Partou", "brand:website": "https://partou.nl/", "brand:wikidata": "Q126717450", "brand:wikipedia": "nl:Partou", "description": "Kinderdagverblijf", "name": "Partou", "phone": "+31 30 232 8441", "source": "BAG", "source:date": "2014-02-11", "website": "https://partou.nl/kinderopvang/utrecht/kinderdagverblijf-plompetorengracht-12/"}}, {"type": "Feature", "geometry": {"type": "Point", "coordinates": [4.3220641, 52.0582336]}, "properties": {"osm_id": 2709730610, "osm_type": "node", "addr:city": "'s-Gravenhage", "addr:housenumber": "61", "addr:postcode": "2523AV", "addr:street": "Jonckbloetplein", "amenity": "kindergarten", "name": "CityKids", "source": "BAG", "source:date": "2014-02-11"}}, {"type": "Feature", "geometry": {"type": "Point", "coordinates": [5.3713435, 52.2537102]}, "properties": {"osm_id": 2711228327, "osm_type": "node", "addr:city": "Bunschoten-Spakenburg", "addr:housenumber": "1", "addr:postcode": "3752EG", "addr:street": "Oude Gest", "amenity": "kindergarten", "name": "'t Kukelesaantje kinderdagverblijf", "source": "BAG", "source:date": "2014-02-11", "website": "https://www.kdv-kukelesaantje.nl"}}, {"type": "Feature", "geometry": {"type": "Point", "coordinates": [5.3715541, 52.2536706]}, "properties": {"osm_id": 2711233926, "osm_type": "node", "addr:city": "Bunschoten-Spakenburg", "addr:housenumber": "3", "addr:postcode": "3752EG", "addr:street": "Oude Gest", "amenity": "kindergarten", "name": "Peuterschool Kwetternest", "source": "BAG", "source:date": "2014-02-11", "website": "https://www.kwetternest.nl/"}}, {"type": "Feature", "geometry": {"type": "Point", "coordinates": [4.2950056, 52.0428699]}, "properties": {"osm_id": 2711244975, "osm_type": "node", "addr:city": "Rijswijk", "addr:housenumber": "4", "addr:postcode": "2285SB", "addr:street": "Sammersweg", "amenity": "kindergarten", "education": "kindergarten", "name": "Idea Kinderdagverblijf", "source": "BAG;survey", "source:date": "2014-02-11"}}, {"type": "Feature", "geometry": {"type": "Point", "coordinates": [4.6243049, 52.3716963]}, "properties": {"osm_id": 2711585998, "osm_type": "node", "addr:city": "Haarlem", "addr:housenumber": "92-94", "addr:postcode": "2012NH", "addr:street": "Wagenweg", "amenity": "kindergarten", "name": "Wereldkids", "source": "BAG", "source:date": "2014-02-11"}}, {"type": "Feature", "geometry": {"type": "Point", "coordinates": [4.6342284, 52.3743305]}, "properties": {"osm_id": 2711677936, "osm_type": "node", "addr:city": "Haarlem", "addr:housenumber": "24", "addr:postcode": "2012CH", "addr:street": "Kleine Houtweg", "amenity": "kindergarten", "name": "CompaNanny", "operator": "CompaNanny", "source": "BAG", "source:date": "2014-02-11", "website": "https://www.compananny.com"}}, {"type": "Feature", "geometry": {"type": "Point", "coordinates": [4.3351194, 52.04667]}, "properties": {"osm_id": 2713005684, "osm_type": "node", "addr:city": "Rijswijk", "addr:housenumber": "245", "addr:postcode": "2282JT", "addr:street": "Sir Winston Churchillln", "amenity": "kindergarten", "name": "Crèche Hermelijntje", "phone": "+31 70 820 0314", "source": "BAG", "source:date": "2014-02-11"}}, {"type": "Feature", "geometry": {"type": "Point", "coordinates": [4.3340385, 52.0489263]}, "properties": {"osm_id": 2713076059, "osm_type": "node", "addr:city": "Rijswijk", "addr:housenumber": "7a", "addr:postcode": "2282HA", "addr:street": "Willem van Rijswijckstraat", "amenity": "kindergarten", "education": "kindergarten", "name": "Up Willem van Rijswijckstraat 7a", "operator": "Up", "operator:website": "https://www.upkinderopvang.nl", "source": "survey;note #4761239", "source:date": "2014-02-11"}}, {"type": "Feature", "geometry": {"type": "Point", "coordinates": [4.6595254, 52.357138]}, "properties": {"osm_id": 2713115577, "osm_type": "node", "addr:city": "Haarlem", "addr:housenumber": "2A", "addr:postcode": "2037VB", "addr:street": "Jan van Zutphenstraat", "amenity": "kindergarten", "check_date": "2023-07-24", "isced:level": "0", "max_age": "4", "min_age": "2 month", "name": "CompaNanny", "operator": "CompaNanny", "source": "BAG", "source:date": "2014-02-11", "website": "https://www.compananny.com"}}, {"type": "Feature", "geometry": {"type": "Point", "coordinates": [4.327828, 52.045265]}, "properties": {"osm_id": 2713236193, "osm_type": "node", "addr:city": "Rijswijk", "addr:housenumber": "4", "addr:postcode": "2283JA", "addr:street": "Mr D. Fockstraat", "amenity": "kindergarten", "name": "Up", "source": "BAG;survey", "source:date": "2014-02-11", "website": "https://www.upkinderopvang.nl/kinderopvang/rijswijk/fockstraat/"}}, {"type": "Feature", "geometry": {"type": "Point", "coordinates": [6.071566, 52.432819]}, "properties": {"osm_id": 2714173872, "osm_type": "node", "addr:city": "Wapenveld", "addr:housenumber": "12", "addr:postcode": "8191AD", "addr:street": "Klapperdijk", "amenity": "kindergarten", "email": "info@kinderopvangkleineark.nl", "name": "Kinderopvang Kleine Ark", "phone": "+31 6 12168116", "source": "BAG", "source:date": "2014-02-11", "website": "https://kinderopvangkleineark.nl/"}}, {"type": "Feature", "geometry": {"type": "Point", "coordinates": [4.6507626, 52.3533107]}, "properties": {"osm_id": 2714484466, "osm_type": "node", "addr:city": "Haarlem", "addr:housenumber": "3", "addr:postcode": "2036NK", "addr:street": "Zevenwoudenplantsoen", "amenity": "kindergarten", "isced:level": "0", "max_age": "4", "min_age": "2 month", "name": "CompaNanny", "operator": "CompaNanny", "source": "BAG", "source:date": "2014-02-11", "website": "https://www.compananny.com"}}, {"type": "Feature", "geometry": {"type": "Point", "coordinates": [4.6384636, 52.3890024]}, "properties": {"osm_id": 2715838260, "osm_type": "node", "addr:city": "Haarlem", "addr:housenumber": "3", "addr:postcode": "2011MH", "addr:street": "Kennemerplein", "amenity": "kindergarten", "email": "info@kindergarden.nl", "isced:level": "0", "max_age": "4", "min_age": "2 months", "name": "Kindergarden Kennemerplein", "operator": "Kindergarden", "source": "BAG", "source:date": "2014-02-11", "website": "https://www.kindergarden.nl/vestigingen/haarlem/kennemerplein/kdv"}}, {"type": "Feature", "geometry": {"type": "Point", "coordinates": [4.6396155, 52.3931183]}, "properties": {"osm_id": 2715841935, "osm_type": "node", "addr:city": "Haarlem", "addr:housenumber": "62", "addr:postcode": "2023GE", "addr:street": "Sint-Jorisveld", "amenity": "kindergarten", "name": "CompaNanny", "operator": "CompaNanny", "source": "BAG", "source:date": "2014-02-11", "website": "https://www.compananny.com"}}, {"type": "Feature", "geometry": {"type": "Point", "coordinates": [4.6459371, 52.4136306]}, "properties": {"osm_id": 2716763721, "osm_type": "node", "addr:city": "Haarlem", "addr:housenumber": "305C", "addr:postcode": "2025MC", "addr:street": "Jan Gijzenkade", "amenity": "kindergarten", "isced:level": "0", "max_age": "4", "min_age": "2 month", "name": "CompaNanny", "operator": "CompaNanny", "source": "BAG", "source:date": "2014-02-11", "website": "https://www.compananny.com"}}, {"type": "Feature", "geometry": {"type": "Point", "coordinates": [5.0989696, 52.0899309]}, "properties": {"osm_id": 2721315880, "osm_type": "node", "amenity": "kindergarten", "name": "Molenpark Buitenschoolse Opvang Ludens"}}, {"type": "Feature", "geometry": {"type": "Point", "coordinates": [5.087998, 52.0890058]}, "properties": {"osm_id": 2721734209, "osm_type": "node", "addr:city": "Utrecht", "addr:housenumber": "94B", "addr:postcode": "3533HH", "addr:street": "Kanaalweg", "amenity": "kindergarten", "brand": "Partou", "brand:website": "https://partou.nl/", "brand:wikidata": "Q126717450", "brand:wikipedia": "nl:Partou", "description": "Kinderdagverblijf", "name": "Partou", "operator": "Partou", "operator:type": "private", "phone": "+31 30 296 0771", "source": "BAG", "source:date": "2014-02-11", "website": "https://partou.nl/kinderopvang/utrecht/kinderdagverblijf-kanaalweg-94b"}}, {"type": "Feature", "geometry": {"type": "Point", "coordinates": [4.8826548, 52.3734616]}, "properties": {"osm_id": 2721823548, "osm_type": "node", "addr:city": "Amsterdam", "addr:housenumber": "196-H", "addr:postcode": "1016HC", "addr:street": "Prinsengracht", "amenity": "kindergarten", "check_date": "2025-03-17", "max_age": "4", "min_age": "0", "name": "'t Klaproosje", "operator": "Flowerkids", "source": "BAG", "source:date": "2014-02-11", "website": "https://www.flowerkids.nl/vestigingen/amsterdam-klaproosje/"}}, {"type": "Feature", "geometry": {"type": "Point", "coordinates": [5.0816477, 52.0841005]}, "properties": {"osm_id": 2721946646, "osm_type": "node", "addr:city": "Utrecht", "addr:housenumber": "2A", "addr:postcode": "3533SW", "addr:street": "Petristraat", "amenity": "kindergarten", "name": "Kind en Co Oog in Al", "source": "BAG", "source:date": "2014-02-11", "start_date": "1983", "website": "https://kindencoludens.nl/nl/locaties/peuteropvang-utrecht-oog-in-al"}}, {"type": "Feature", "geometry": {"type": "Point", "coordinates": [5.0824414, 52.0811318]}, "properties": {"osm_id": 2721953452, "osm_type": "node", "addr:city": "Utrecht", "addr:housenumber": "7", "addr:postcode": "3533KH", "addr:street": "Kennedylaan", "amenity": "kindergarten", "brand": "Partou", "brand:website": "https://partou.nl/", "brand:wikidata": "Q126717450", "brand:wikipedia": "nl:Partou", "description": "BSO", "name": "Partou", "phone": "+31 6 51608788", "source": "BAG", "source:date": "2014-02-11", "website": "https://partou.nl/kinderopvang/utrecht/bso-kennedylaan-7/"}}, {"type": "Feature", "geometry": {"type": "Point", "coordinates": [5.0879533, 52.1027756]}, "properties": {"osm_id": 2722191869, "osm_type": "node", "addr:city": "Utrecht", "addr:housenumber": "23", "addr:postcode": "3534BA", "addr:street": "Cartesiusweg", "amenity": "kindergarten", "check_date": "2024-07-21", "name": "Fantaziehuis", "source": "BAG", "source:date": "2014-02-11", "wheelchair": "yes", "wheelchair:description": "begane grond is toegankelijk"}}, {"type": "Feature", "geometry": {"type": "Point", "coordinates": [5.8869232, 51.9924811]}, "properties": {"osm_id": 2723753850, "osm_type": "node", "addr:city": "Arnhem", "addr:housenumber": "15", "addr:postcode": "6813KV", "addr:street": "Colenbranderstraat", "amenity": "kindergarten", "name": "De Holle Boom", "source": "BAG", "source:date": "2014-02-11", "website": "https://www.skar.nl/locaties/arnhem/de-holle-boom"}}, {"type": "Feature", "geometry": {"type": "Point", "coordinates": [4.3197895, 52.0759935]}, "properties": {"osm_id": 2725740366, "osm_type": "node", "addr:city": "'s-Gravenhage", "addr:housenumber": "18", "addr:postcode": "2511XE", "addr:street": "Lamgroen", "amenity": "kindergarten", "name": "Dak Lamgroen", "source": "BAG", "source:date": "2014-02-11", "website": "https://www.dakkindercentra.nl/locaties/den-haag/dak-lamgroen-buitenschoolse-opvang/"}}, {"type": "Feature", "geometry": {"type": "Point", "coordinates": [4.7695707, 51.8449789]}, "properties": {"osm_id": 2728412516, "osm_type": "node", "addr:city": "Wijngaarden", "addr:housenumber": "43", "addr:postcode": "3366BG", "addr:street": "Oosteinde", "amenity": "kindergarten", "name": "Kinderopvang Joepie", "phone": "+31 184 425 359", "source": "BAG", "source:date": "2014-02-11", "website": "https://www.joepie.nu/index.asp"}}, {"type": "Feature", "geometry": {"type": "Point", "coordinates": [4.581109, 51.891456]}, "properties": {"osm_id": 2729188968, "osm_type": "node", "addr:city": "Ridderkerk", "addr:housenumber": "54a", "addr:postcode": "2987CS", "addr:street": "Noordstraat", "amenity": "kindergarten", "description": "peuterspeelgroep", "education": "kindergarten", "name": "De Peuterbol", "source": "BAG", "source:date": "2014-02-11"}}, {"type": "Feature", "geometry": {"type": "Point", "coordinates": [5.0816419, 52.065965]}, "properties": {"osm_id": 2729313252, "osm_type": "node", "amenity": "kindergarten", "name": "Saartje kinderdagverblijf Papendorp"}}, {"type": "Feature", "geometry": {"type": "Point", "coordinates": [4.7707936, 51.5971227]}, "properties": {"osm_id": 2729358317, "osm_type": "node", "addr:city": "Breda", "addr:housenumber": "32", "addr:postcode": "4815HB", "addr:street": "Belcrumweg", "amenity": "kindergarten", "email": "info@woelewippie.nl", "facebook": "https://www.facebook.com/woelewippie/", "name": "Woelewippie", "phone": "+31 76 572 0550", "source": "BAG", "source:date": "2014-02-11", "website": "https://www.woelewippie.nl/"}}, {"type": "Feature", "geometry": {"type": "Point", "coordinates": [4.2823281, 52.0670004]}, "properties": {"osm_id": 2729492708, "osm_type": "node", "addr:city": "'s-Gravenhage", "addr:housenumber": "238", "addr:postcode": "2573LV", "addr:street": "Apeldoornselaan", "amenity": "kindergarten", "source": "BAG", "source:date": "2014-02-11"}}, {"type": "Feature", "geometry": {"type": "Point", "coordinates": [6.0454819, 52.3948987]}, "properties": {"osm_id": 2729729118, "osm_type": "node", "addr:city": "Heerde", "addr:housenumber": "2-by", "addr:postcode": "8181BE", "addr:street": "Sportlaan", "amenity": "kindergarten", "email": "info@kinderdagverblijfolli.nl", "name": "Kinderdagverblijf Olli", "phone": "+31 578 623014", "source": "BAG", "source:date": "2014-02-11", "website": "https://www.kinderdagverblijfolli.nl/"}}, {"type": "Feature", "geometry": {"type": "Point", "coordinates": [4.3032268, 52.0872667]},