{"type": "FeatureCollection", "features": [{"type": "Feature", "geometry": {"type": "Point", "coordinates": [11.8852955, 45.4218466]}, "properties": {"osm_id": 250144963, "osm_type": "node", "amenity": "kindergarten", "created_by": "JOSM"}}, {"type": "Feature", "geometry": {"type": "Point", "coordinates": [11.8785177, 45.4317676]}, "properties": {"osm_id": 250318473, "osm_type": "node", "amenity": "kindergarten", "name": "Scuola dell'Infanzia Bruno Munari"}}, {"type": "Feature", "geometry": {"type": "Point", "coordinates": [11.8959797, 45.4226506]}, "properties": {"osm_id": 254632301, "osm_type": "node", "amenity": "kindergarten", "name": "Materna Quadrifoglio"}}, {"type": "Feature", "geometry": {"type": "Point", "coordinates": [11.8547086, 45.4045773]}, "properties": {"osm_id": 256072497, "osm_type": "node", "amenity": "kindergarten", "created_by": "JOSM", "name": "La Trottola"}}, {"type": "Feature", "geometry": {"type": "Point", "coordinates": [9.137179, 45.473774]}, "properties": {"osm_id": 259590595, "osm_type": "node", "amenity": "kindergarten", "name": "Nido d'Infanzia \"Mar Jonio\""}}, {"type": "Feature", "geometry": {"type": "Point", "coordinates": [9.2247648, 45.4986713]}, "properties": {"osm_id": 265654306, "osm_type": "node", "addr:city": "Milano", "addr:housenumber": "1", "addr:postcode": "20127", "addr:street": "Via Gerolamo Rovetta", "amenity": "kindergarten", "fixme": "posizione", "name": "Scuola dell'infanzia Rovetta", "operator": "Comune di Milano", "operator:type": "public", "preschool": "yes", "wheelchair": "yes"}}, {"type": "Feature", "geometry": {"type": "Point", "coordinates": [11.6035523, 46.3118379]}, "properties": {"osm_id": 269955394, "osm_type": "node", "amenity": "kindergarten", "created_by": "JOSM"}}, {"type": "Feature", "geometry": {"type": "Point", "coordinates": [11.9509675, 46.8030044]}, "properties": {"osm_id": 289238867, "osm_type": "node", "amenity": "kindergarten", "name": "Kindergarten"}}, {"type": "Feature", "geometry": {"type": "Point", "coordinates": [8.5777565, 45.7726294]}, "properties": {"osm_id": 307597030, "osm_type": "node", "amenity": "kindergarten", "name": "Scuola Materna Vedani Città di Angera", "ref": "VA1A00200B"}}, {"type": "Feature", "geometry": {"type": "Point", "coordinates": [8.621293, 45.7985024]}, "properties": {"osm_id": 307600077, "osm_type": "node", "amenity": "kindergarten", "isced:level": "0", "level": "0", "min_age": "1", "name": "Asilo Nido Peter Pan"}}, {"type": "Feature", "geometry": {"type": "Point", "coordinates": [9.6559424, 44.1482781]}, "properties": {"osm_id": 310414738, "osm_type": "node", "amenity": "kindergarten"}}, {"type": "Feature", "geometry": {"type": "Point", "coordinates": [13.1850905, 46.1729995]}, "properties": {"osm_id": 322751686, "osm_type": "node", "amenity": "kindergarten", "name": "Scuola materna Bortoluzzi"}}, {"type": "Feature", "geometry": {"type": "Point", "coordinates": [11.354654, 46.3663232]}, "properties": {"osm_id": 323824689, "osm_type": "node", "addr:city": "Aldein - Aldino", "addr:housenumber": "7", "addr:postcode": "39040", "addr:street": "Baderweg - Via Bader", "amenity": "kindergarten", "isced:level": "0", "name": "Kindergarten Aldein - Asilo in lingua tedesca di Aldino", "name:de": "Kindergarten Aldein", "name:it": "Asilo in lingua tedesca di Aldino", "phone": "+39 0471 886636"}}, {"type": "Feature", "geometry": {"type": "Point", "coordinates": [11.3127317, 45.7197816]}, "properties": {"osm_id": 344878871, "osm_type": "node", "amenity": "kindergarten"}}, {"type": "Feature", "geometry": {"type": "Point", "coordinates": [12.2419387, 45.5306497]}, "properties": {"osm_id": 349064719, "osm_type": "node", "amenity": "kindergarten", "name": "Scuola materna M. Battistella"}}, {"type": "Feature", "geometry": {"type": "Point", "coordinates": [13.4767066, 43.4841571]}, "properties": {"osm_id": 354540218, "osm_type": "node", "amenity": "kindergarten", "name": "Muzio Gallo"}}, {"type": "Feature", "geometry": {"type": "Point", "coordinates": [11.376731, 44.6491275]}, "properties": {"osm_id": 359536171, "osm_type": "node", "amenity": "kindergarten", "name": "Stregavega e Orsogatto"}}, {"type": "Feature", "geometry": {"type": "Point", "coordinates": [11.3721098, 44.6429869]}, "properties": {"osm_id": 359536173, "osm_type": "node", "amenity": "kindergarten", "name": "Asilo Nido Comunale \"La Pimpa\""}}, {"type": "Feature", "geometry": {"type": "Point", "coordinates": [9.8801158, 45.5998768]}, "properties": {"osm_id": 361178476, "osm_type": "node", "amenity": "kindergarten"}}, {"type": "Feature", "geometry": {"type": "Point", "coordinates": [10.9367265, 44.5802041]}, "properties": {"osm_id": 364797082, "osm_type": "node", "amenity": "kindergarten", "name": "Asilo di Portile"}}, {"type": "Feature", "geometry": {"type": "Point", "coordinates": [9.209387, 45.5543543]}, "properties": {"osm_id": 365770475, "osm_type": "node", "amenity": "kindergarten", "name": "Scuola Materna Statale Papa Giovanni XXIII - 1"}}, {"type": "Feature", "geometry": {"type": "Point", "coordinates": [9.2095482, 45.553898]}, "properties": {"osm_id": 365770479, "osm_type": "node", "amenity": "kindergarten", "name": "Scuola Materna Statale Papa Giovanni XXIII - 2"}}, {"type": "Feature", "geometry": {"type": "Point", "coordinates": [10.3537959, 44.7886359]}, "properties": {"osm_id": 370087378, "osm_type": "node", "amenity": "kindergarten", "created_by": "Potlatch 0.10f", "name": "Mappamondo"}}, {"type": "Feature", "geometry": {"type": "Point", "coordinates": [7.7267962, 45.831231]}, "properties": {"osm_id": 372792963, "osm_type": "node", "amenity": "kindergarten", "name": "Ecole Maternelle"}}, {"type": "Feature", "geometry": {"type": "Point", "coordinates": [10.2580331, 43.8607393]}, "properties": {"osm_id": 382185725, "osm_type": "node", "amenity": "kindergarten", "name": "Scuola Materna Angelo Basalari"}}, {"type": "Feature", "geometry": {"type": "Point", "coordinates": [8.9525527, 44.4135382]}, "properties": {"osm_id": 387731849, "osm_type": "node", "amenity": "kindergarten", "name": "Scuola Materna Statale"}}, {"type": "Feature", "geometry": {"type": "Point", "coordinates": [11.6366505, 45.6643207]}, "properties": {"osm_id": 392093777, "osm_type": "node", "amenity": "kindergarten", "name": "Scuola per l'infanzia \"Tommaso Andrighetto\""}}, {"type": "Feature", "geometry": {"type": "Point", "coordinates": [10.5542328, 45.5497197]}, "properties": {"osm_id": 393013593, "osm_type": "node", "amenity": "kindergarten", "check_date": "2025-08-16", "name": "Scuola Materna Don Angelo Merici"}}, {"type": "Feature", "geometry": {"type": "Point", "coordinates": [11.0388069, 45.4755935]}, "properties": {"osm_id": 410426956, "osm_type": "node", "amenity": "kindergarten"}}, {"type": "Feature", "geometry": {"type": "Point", "coordinates": [8.9711403, 44.4069202]}, "properties": {"osm_id": 410869384, "osm_type": "node", "amenity": "kindergarten", "isced:level": "0", "name": "Asilo 'Delia Repetto'"}}, {"type": "Feature", "geometry": {"type": "Point", "coordinates": [9.2800121, 45.5296622]}, "properties": {"osm_id": 413462285, "osm_type": "node", "amenity": "kindergarten", "name": "Scuola dell'Infanzia Parrocchiale", "wheelchair": "yes"}}, {"type": "Feature", "geometry": {"type": "Point", "coordinates": [11.372355, 44.6434876]}, "properties": {"osm_id": 415304991, "osm_type": "node", "amenity": "kindergarten", "name": "Scuola Comunale dell'infanzia \"Aurora Battaglia\""}}, {"type": "Feature", "geometry": {"type": "Point", "coordinates": [14.1948759, 42.4824442]}, "properties": {"osm_id": 418373511, "osm_type": "node", "addr:city": "Pescara", "addr:housenumber": "46", "addr:postcode": "65123", "addr:street": "Via Cavour", "amenity": "kindergarten", "contact:facebook": "asilonidoilfilorosso", "contact:mobile": "+39 329 879 9097", "email": "nidoilfilorosso@gmail.com", "name": "Asilo nido \"Il filo rosso\"", "phone": "+39 085 219 8407", "preschool": "yes", "website": "https://asilonidoilfilorosso.com"}}, {"type": "Feature", "geometry": {"type": "Point", "coordinates": [12.0122405, 47.0115022]}, "properties": {"osm_id": 423189248, "osm_type": "node", "addr:city": "Ahrntal - Valle Aurina", "addr:housenumber": "10", "addr:postcode": "39030", "addr:street": "Oberbühel", "amenity": "kindergarten"}}, {"type": "Feature", "geometry": {"type": "Point", "coordinates": [13.1980404, 45.9828878]}, "properties": {"osm_id": 424858414, "osm_type": "node", "amenity": "kindergarten"}}, {"type": "Feature", "geometry": {"type": "Point", "coordinates": [13.198348, 45.9829957]}, "properties": {"osm_id": 424858426, "osm_type": "node", "amenity": "kindergarten", "name": "Asilo Nido"}}, {"type": "Feature", "geometry": {"type": "Point", "coordinates": [12.181882, 46.3496886]}, "properties": {"osm_id": 427513856, "osm_type": "node", "amenity": "kindergarten", "name": "Pra Agnoli"}}, {"type": "Feature", "geometry": {"type": "Point", "coordinates": [8.9438816, 44.4074236]}, "properties": {"osm_id": 428001773, "osm_type": "node", "addr:housenumber": "4", "addr:street": "Via Ricci 4", "amenity": "kindergarten", "check_date": "2025-10-10", "contact:fax": "+39 010 543967", "contact:phone": "+39 010 540241", "description": "comunale / paritaria", "name": "Scuola dell'infanzia Tollot Orientale", "operator": "Comune di Genova Municipio 1"}}, {"type": "Feature", "geometry": {"type": "Point", "coordinates": [11.1237694, 46.0525334]}, "properties": {"osm_id": 428313989, "osm_type": "node", "addr:city": "Trento", "addr:country": "IT", "addr:housenumber": "66", "addr:postcode": "38123", "addr:street": "Via Luigi Einaudi", "amenity": "kindergarten", "name": "Scuola dell'infanzia di Trento La Clarina", "phone": "+39 0461 923464"}}, {"type": "Feature", "geometry": {"type": "Point", "coordinates": [11.1284979, 46.0483921]}, "properties": {"osm_id": 428314037, "osm_type": "node", "amenity": "kindergarten", "check_date": "2025-09-21", "name": "Asilo Nido"}}, {"type": "Feature", "geometry": {"type": "Point", "coordinates": [8.9746689, 44.4065024]}, "properties": {"osm_id": 428415134, "osm_type": "node", "addr:housenumber": "4", "addr:postcode": "16131", "addr:street": "Via Angelo Scribanti", "amenity": "kindergarten", "contact:phone": "+39 010 354070;+39 010 357801", "isced:level": "0", "name": "Asilo Nido La Filastrocca", "nursery": "yes"}}, {"type": "Feature", "geometry": {"type": "Point", "coordinates": [9.0480062, 45.8256782]}, "properties": {"osm_id": 438376816, "osm_type": "node", "amenity": "kindergarten"}}, {"type": "Feature", "geometry": {"type": "Point", "coordinates": [9.0262876, 45.2576076]}, "properties": {"osm_id": 446412252, "osm_type": "node", "amenity": "kindergarten"}}, {"type": "Feature", "geometry": {"type": "Point", "coordinates": [10.3109491, 45.9303359]}, "properties": {"osm_id": 454869773, "osm_type": "node", "amenity": "kindergarten", "name": "Scuola dell'Infanzia Maria Bambina"}}, {"type": "Feature", "geometry": {"type": "Point", "coordinates": [11.4871273, 45.583229]}, "properties": {"osm_id": 473161650, "osm_type": "node", "amenity": "kindergarten", "name": "Asilo nido \"Gli Aristogatti\""}}, {"type": "Feature", "geometry": {"type": "Point", "coordinates": [9.901839, 45.6051309]}, "properties": {"osm_id": 474972142, "osm_type": "node", "amenity": "kindergarten", "check_date": "2025-09-06", "name": "Scuola Statale dell'Infanzia"}}, {"type": "Feature", "geometry": {"type": "Point", "coordinates": [8.9769368, 44.4080609]}, "properties": {"osm_id": 504657884, "osm_type": "node", "amenity": "kindergarten", "name": "Asilo nido 'Camelot'"}}, {"type": "Feature", "geometry": {"type": "Point", "coordinates": [8.9301757, 44.4057123]}, "properties": {"osm_id": 507289687, "osm_type": "node", "amenity": "kindergarten", "description": "comunale / paritaria", "isced:level": "0", "name": "Scuola dell'infanzia comunale Santa Sofia", "operator": "Comune di Genova Municipio 1"}}, {"type": "Feature", "geometry": {"type": "Point", "coordinates": [8.9552085, 44.3940774]}, "properties": {"osm_id": 524074241, "osm_type": "node", "amenity": "kindergarten", "name": "Asilo Il Castello"}}, {"type": "Feature", "geometry": {"type": "Point", "coordinates": [13.725357, 42.365726]}, "properties": {"osm_id": 528762314, "osm_type": "node", "addr:city": "Castel del Monte", "addr:country": "IT", "addr:housenumber": "18", "addr:postcode": "67023", "addr:province": "AQ", "addr:street": "Viale della Vittoria", "amenity": "kindergarten", "fax": "+39 0862 938180", "name": "Asilo Comunale", "operator": "Municipio di Castel del Monte", "phone": "+39 0862 938137", "source": "survey", "website": "https://www.comune.casteldelmonte.aq.it/", "wheelchair": "yes"}}, {"type": "Feature", "geometry": {"type": "Point", "coordinates": [11.6176331, 44.8430805]}, "properties": {"osm_id": 528874104, "osm_type": "node", "amenity": "kindergarten", "name": "Scuola materna Casa del bambino"}}, {"type": "Feature", "geometry": {"type": "Point", "coordinates": [11.179706, 46.5562007]}, "properties": {"osm_id": 543397302, "osm_type": "node", "amenity": "kindergarten", "name": "Kindergarten Michael Gamper"}}, {"type": "Feature", "geometry": {"type": "Point", "coordinates": [11.1938551, 43.7685117]}, "properties": {"osm_id": 556637487, "osm_type": "node", "amenity": "kindergarten", "name": "Scuola dell'infanzia \"Giulio Bechi\"", "operator": "Comune di Firenze", "operator:type": "public"}}, {"type": "Feature", "geometry": {"type": "Point", "coordinates": [12.1930231, 44.4253411]}, "properties": {"osm_id": 564613651, "osm_type": "node", "amenity": "kindergarten"}}, {"type": "Feature", "geometry": {"type": "Point", "coordinates": [12.270596, 45.5796952]}, "properties": {"osm_id": 566788768, "osm_type": "node", "amenity": "kindergarten", "name": "Scuola dell'infanzia \"Sacro Cuore\""}}, {"type": "Feature", "geometry": {"type": "Point", "coordinates": [9.2055318, 45.0370353]}, "properties": {"osm_id": 567115707, "osm_type": "node", "amenity": "kindergarten", "name": "Scuola dell' Infanzia Priora"}}, {"type": "Feature", "geometry": {"type": "Point", "coordinates": [11.2381887, 46.0625785]}, "properties": {"osm_id": 570683968, "osm_type": "node", "amenity": "kindergarten", "name": "Scuola Materna G.B. Chimelli"}}, {"type": "Feature", "geometry": {"type": "Point", "coordinates": [12.2101244, 44.4278979]}, "properties": {"osm_id": 573404212, "osm_type": "node", "amenity": "kindergarten", "name": "Asilo"}}, {"type": "Feature", "geometry": {"type": "Point", "coordinates": [12.1916473, 45.4832374]}, "properties": {"osm_id": 577239048, "osm_type": "node", "amenity": "kindergarten"}}, {"type": "Feature", "geometry": {"type": "Point", "coordinates": [9.1957638, 45.5847032]}, "properties": {"osm_id": 582543012, "osm_type": "node", "amenity": "kindergarten", "description": "info e prenotazioni: Cristina tel 340-4050152", "name": "Asilo Famiglia Fatine e Folletti"}}, {"type": "Feature", "geometry": {"type": "Point", "coordinates": [13.6754375, 45.7480402]}, "properties": {"osm_id": 583274658, "osm_type": "node", "addr:city": "Duino Aurisina / Devin - Nabrežina", "addr:housenumber": "173a", "addr:place": "Aurisina / Nabrežina", "addr:postcode": "34011", "amenity": "kindergarten", "isced:level": "0", "long_name:it": "Scuola statale dell'Infanzia con lingua d'insegnamento slovena di Aurisina", "long_name:sl": "Državni otroški vrtec s slovenskim učnim jezikom v Nabrežini", "name": "Otroški vrtec v Nabrežini / Scuola dell'Infanzia di Aurisina", "name:it": "Scuola dell'Infanzia di Aurisina", "name:sl": "Otroški vrtec v Nabrežini", "phone": "+39 040 200384", "ref": "TSAA81901X", "short_name:it": "SI di Aurisina", "short_name:sl": "OV v Nabrežini", "website": "http://www.vesnabrezina.it/novo/sl/plessi/otroski-vrtec-v-nabrezini"}}, {"type": "Feature", "geometry": {"type": "Point", "coordinates": [13.6755586, 45.7479925]}, "properties": {"osm_id": 583274664, "osm_type": "node", "amenity": "kindergarten", "name": "Scuola italiana dell'infanzia di Aurisina / Italijanski otroški vrtec v Nabrežini", "name:it": "Scuola statale dell'infanzia con lingua d'insegnamento italiana di Aurisina", "name:sl": "Državni otroški vrtec z italijanskim učnim jezikom v Nabrežini"}}, {"type": "Feature", "geometry": {"type": "Point", "coordinates": [9.2051186, 45.0098839]}, "properties": {"osm_id": 583320267, "osm_type": "node", "amenity": "kindergarten", "name": "Scuola dell' Infanzia"}}, {"type": "Feature", "geometry": {"type": "Point", "coordinates": [12.8377051, 45.9489103]}, "properties": {"osm_id": 587712837, "osm_type": "node", "amenity": "kindergarten", "name": "La mia casetta magica"}}, {"type": "Feature", "geometry": {"type": "Point", "coordinates": [8.9819304, 45.3945367]}, "properties": {"osm_id": 598565009, "osm_type": "node", "amenity": "kindergarten", "name": "Scuola parrocchiale dell' Infanzia San Martino"}}, {"type": "Feature", "geometry": {"type": "Point", "coordinates": [9.5187884, 45.2999497]}, "properties": {"osm_id": 600024347, "osm_type": "node", "amenity": "kindergarten", "name": "Scuola materna Giovanni Spezzaferri"}}, {"type": "Feature", "geometry": {"type": "Point", "coordinates": [12.1770138, 44.4207613]}, "properties": {"osm_id": 603059516, "osm_type": "node", "amenity": "kindergarten"}}, {"type": "Feature", "geometry": {"type": "Point", "coordinates": [8.6056685, 44.6758729]}, "properties": {"osm_id": 609005182, "osm_type": "node", "amenity": "kindergarten", "name": "Scuola Materna E. Garrone (suore)"}}, {"type": "Feature", "geometry": {"type": "Point", "coordinates": [12.1833729, 44.41941]}, "properties": {"osm_id": 610523050, "osm_type": "node", "amenity": "kindergarten"}}, {"type": "Feature", "geometry": {"type": "Point", "coordinates": [8.6409545, 44.6342249]}, "properties": {"osm_id": 611630196, "osm_type": "node", "amenity": "kindergarten", "isced:level": "0"}}, {"type": "Feature", "geometry": {"type": "Point", "coordinates": [16.8583898, 41.096626]}, "properties": {"osm_id": 616872159, "osm_type": "node", "amenity": "kindergarten", "name": "Scuola dell'infanzia Paritaria \"L'albero Azzurro\""}}, {"type": "Feature", "geometry": {"type": "Point", "coordinates": [11.6552713, 46.7183421]}, "properties": {"osm_id": 621428124, "osm_type": "node", "amenity": "kindergarten", "name": "Kindergarten Englische Fräulein"}}, {"type": "Feature", "geometry": {"type": "Point", "coordinates": [12.1359487, 45.6429046]}, "properties": {"osm_id": 631497202, "osm_type": "node", "amenity": "kindergarten", "name": "Scuola Materna San Giuseppe"}}, {"type": "Feature", "geometry": {"type": "Point", "coordinates": [12.0189614, 44.295322]}, "properties": {"osm_id": 632830289, "osm_type": "node", "amenity": "kindergarten", "fixme": "position"}}, {"type": "Feature", "geometry": {"type": "Point", "coordinates": [11.6584166, 46.7073925]}, "properties": {"osm_id": 641431368, "osm_type": "node", "amenity": "kindergarten"}}, {"type": "Feature", "geometry": {"type": "Point", "coordinates": [9.1477532, 45.5713949]}, "properties": {"osm_id": 649219683, "osm_type": "node", "amenity": "kindergarten", "name": "Asilo Nido L'albero della vita"}}, {"type": "Feature", "geometry": {"type": "Point", "coordinates": [9.1561343, 45.550275]}, "properties": {"osm_id": 651040902, "osm_type": "node", "addr:housenumber": "6", "addr:street": "Via Tiziano", "amenity": "kindergarten", "name": "Scuola Materna San Tarcisio", "source": "survey"}}, {"type": "Feature", "geometry": {"type": "Point", "coordinates": [9.15114, 45.58455]}, "properties": {"osm_id": 656441570, "osm_type": "node", "amenity": "kindergarten", "name": "Asilo Nido Funny Children"}}, {"type": "Feature", "geometry": {"type": "Point", "coordinates": [10.9073862, 44.6329083]}, "properties": {"osm_id": 662930903, "osm_type": "node", "addr:city": "Modena", "addr:country": "IT", "addr:housenumber": "61", "addr:postcode": "41125", "addr:street": "Via Nicola Pisano", "amenity": "kindergarten", "isced:level": "0", "name": "Nido d'Infanzia \"Il Melograno\""}}, {"type": "Feature", "geometry": {"type": "Point", "coordinates": [12.2108479, 44.4096725]}, "properties": {"osm_id": 665486623, "osm_type": "node", "amenity": "kindergarten", "name": "Freccia Azzurra"}}, {"type": "Feature", "geometry": {"type": "Point", "coordinates": [9.116604, 45.4962937]}, "properties": {"osm_id": 668205161, "osm_type": "node", "addr:city": "Milano", "addr:country": "IT", "addr:housenumber": "22", "addr:postcode": "20151", "addr:street": "Via Giacomo Quarenghi", "amenity": "kindergarten", "name": "One to Three International School for Toddlers"}}, {"type": "Feature", "geometry": {"type": "Point", "coordinates": [8.9589302, 44.4169625]}, "properties": {"osm_id": 668840490, "osm_type": "node", "amenity": "kindergarten", "name": "Asilo Nido Comunale 'Arcobaleno'"}}, {"type": "Feature", "geometry": {"type": "Point", "coordinates": [8.9587965, 44.4172326]}, "properties": {"osm_id": 668840491, "osm_type": "node", "amenity": "kindergarten", "name": "Scuola Materna Paritaria 'Virgina Centurione Bracelli'"}}, {"type": "Feature", "geometry": {"type": "Point", "coordinates": [13.6547523, 45.7827941]}, "properties": {"osm_id": 671788416, "osm_type": "node", "addr:city": "Duino Aurisina / Devin - Nabrežina", "addr:housenumber": "55", "addr:place": "Malchina / Mavhinje", "addr:postcode": "34011", "amenity": "kindergarten", "isced:level": "0", "long_name:it": "Scuola statale dell'Infanzia con lingua d'insegnamento slovena di Malchina", "long_name:sl": "Državni otroški vrtec s slovenskim učnim jezikom v Mavhinjah", "name": "Otroški vrtec v Mavhinjah / Scuola dell'Infanzia di Malchina", "name:it": "Scuola dell'Infanzia di Malchina", "name:sl": "Otroški vrtec v Mavhinjah", "phone": "+39 040 299772", "ref": "TSAA819032", "short_name:it": "SI di Malchina", "short_name:sl": "OV v Mavhinjah", "website": "http://www.vesnabrezina.it/novo/sl/plessi/otroski-vrtec-v-mavhinjah"}}, {"type": "Feature", "geometry": {"type": "Point", "coordinates": [12.5367754, 41.9442249]}, "properties": {"osm_id": 672982844, "osm_type": "node", "addr:city": "Roma", "addr:housenumber": "3", "addr:postcode": "00139", "addr:street": "Via Col di Rezia", "amenity": "kindergarten", "name": "Scuola Attiva"}}, {"type": "Feature", "geometry": {"type": "Point", "coordinates": [13.6860299, 45.765648]}, "properties": {"osm_id": 675776689, "osm_type": "node", "amenity": "kindergarten", "check_date": "2024-02-22", "name": "Scuola materna comunale con lingua d'insegnamento slovena di San Pelagio / Občinski otroški vrtec s slovenskim učnim jezikom v Šempolaju", "name:it": "Scuola materna comunale con lingua d'insegnamento slovena di San Pelagio", "name:sl": "Občinski otroški vrtec s slovenskim učnim jezikom v Šempolaju"}}, {"type": "Feature", "geometry": {"type": "Point", "coordinates": [8.9867352, 44.4053586]}, "properties": {"osm_id": 677638191, "osm_type": "node", "access": "yes", "addr:housenumber": "18", "addr:street": "Via Apparizione", "amenity": "kindergarten", "barrier": "entrance", "contact:phone": "+39 010 380295", "isced:level": "0", "name": "Scuola Comunale dell'infanzia Colombo"}}, {"type": "Feature", "geometry": {"type": "Point", "coordinates": [9.1800309, 45.9689451]}, "properties": {"osm_id": 678931453, "osm_type": "node", "amenity": "kindergarten"}}, {"type": "Feature", "geometry": {"type": "Point", "coordinates": [9.1357657, 45.4988805]}, "properties": {"osm_id": 693889133, "osm_type": "node", "addr:city": "Milano", "addr:country": "IT", "addr:housenumber": "15", "addr:street": "Via Polidoro da Caravaggio", "amenity": "kindergarten", "name": "Asilo Nido Tutti Giù per Terra", "website": "http://www.asilotuttigiuperterra.it/"}}, {"type": "Feature", "geometry": {"type": "Point", "coordinates": [10.8708333, 46.0353762]}, "properties": {"osm_id": 702858791, "osm_type": "node", "amenity": "kindergarten", "name": "Casa Don Bosco"}}, {"type": "Feature", "geometry": {"type": "Point", "coordinates": [8.8573653, 45.775284]}, "properties": {"osm_id": 706934144, "osm_type": "node", "amenity": "kindergarten", "isced:level": "0", "level": "0", "min_age": "3", "name": "Asilo Ernesta e Carlo Brianza", "operator:type": "public", "wheelchair": "yes"}}, {"type": "Feature", "geometry": {"type": "Point", "coordinates": [8.9530726, 44.4125313]}, "properties": {"osm_id": 714896237, "osm_type": "node", "amenity": "kindergarten", "check_date": "2025-06-06", "name": "Scuola Infanzia Emanuele Luzzati"}}, {"type": "Feature", "geometry": {"type": "Point", "coordinates": [9.2770256, 45.6328673]}, "properties": {"osm_id": 738651400, "osm_type": "node", "addr:city": "Biassono", "addr:country": "IT", "addr:housenumber": "54", "addr:postcode": "20853", "addr:street": "Via Porta Mugnaia", "amenity": "kindergarten", "email": "asilosegramora@libero.it", "isced:level": "0", "name": "Asilo Clotilde Segramora", "phone": "+39 039 2753390", "website": "https://www.asilosegramora.it/"}}, {"type": "Feature", "geometry": {"type": "Point", "coordinates": [11.7125559, 44.3566666]}, "properties": {"osm_id": 743378026, "osm_type": "node", "amenity": "kindergarten", "isced:level": "0", "name": "Scuola Infanzia Carducci"}}, {"type": "Feature", "geometry": {"type": "Point", "coordinates": [9.1187236, 45.4684613]}, "properties": {"osm_id": 747373705, "osm_type": "node", "addr:city": "Milano", "addr:country": "IT", "addr:housenumber": "15", "addr:postcode": "20147", "addr:street": "Via Alessandro Fleming", "amenity": "kindergarten", "education": "kindergarten", "name": "Micronido d'Infanzia San Giusto"}}, {"type": "Feature", "geometry": {"type": "Point", "coordinates": [10.9554987, 45.8164049]}, "properties": {"osm_id": 748787443, "osm_type": "node", "amenity": "kindergarten", "name": "Scuola materna"}}, {"type": "Feature", "geometry": {"type": "Point", "coordinates": [11.7625068, 46.7467913]}, "properties": {"osm_id": 757149101, "osm_type": "node", "amenity": "kindergarten"}}, {"type": "Feature", "geometry": {"type": "Point", "coordinates": [9.2265825, 44.3550645]}, "properties": {"osm_id": 765553419, "osm_type": "node", "amenity": "kindergarten", "check_date": "2024-02-08", "name": "Scuola Materna Villa Lina"}}, {"type": "Feature", "geometry": {"type": "Point", "coordinates": [8.8614395, 45.453198]}, "properties": {"osm_id": 775895849, "osm_type": "node", "amenity": "kindergarten", "name": "Scuola materna Giuseppe Fornaroli", "wheelchair": "no"}}, {"type": "Feature", "geometry": {"type": "Point", "coordinates": [13.8300499, 45.6569343]}, "properties": {"osm_id": 777413029, "osm_type": "node", "amenity": "kindergarten", "name": "Asilo nido Cuccioli della Scienza"}}, {"type": "Feature", "geometry": {"type": "Point", "coordinates": [10.2851271, 43.8271697]}, "properties": {"osm_id": 778108548, "osm_type": "node", "amenity": "kindergarten", "name": "Borgo 2"}}, {"type": "Feature", "geometry": {"type": "Point", "coordinates": [10.2856541, 43.8273258]}, "properties": {"osm_id": 778108549, "osm_type": "node", "amenity": "kindergarten", "name": "Borgo 1"}}, {"type": "Feature", "geometry": {"type": "Point", "coordinates": [10.2566746, 43.88063]}, "properties": {"osm_id": 778123876, "osm_type": "node", "amenity": "kindergarten"}}, {"type": "Feature", "geometry": {"type": "Point", "coordinates": [9.6470021, 39.8398726]}, "properties": {"osm_id": 789465882, "osm_type": "node", "amenity": "kindergarten"}}, {"type": "Feature", "geometry": {"type": "Point", "coordinates": [12.2878973, 45.8776484]}, "properties": {"osm_id": 799288702, "osm_type": "node", "amenity": "kindergarten", "name": "Scuola materna San Pio X"}}, {"type": "Feature", "geometry": {"type": "Point", "coordinates": [9.7323977, 44.6323326]}, "properties": {"osm_id": 800819918, "osm_type": "node", "amenity": "kindergarten"}}, {"type": "Feature", "geometry": {"type": "Point", "coordinates": [11.9332061, 46.570358]}, "properties": {"osm_id": 805066358, "osm_type": "node", "amenity": "kindergarten", "name": "Janmarti Declara"}}, {"type": "Feature", "geometry": {"type": "Point", "coordinates": [8.9394094, 44.400553]}, "properties": {"osm_id": 841737192, "osm_type": "node", "addr:housenumber": "2", "addr:street": "Via delle Bernardine", "amenity": "kindergarten", "check_date": "2024-06-13", "name": "Scuola Materna San Bernardo"}}, {"type": "Feature", "geometry": {"type": "Point", "coordinates": [12.0617167, 44.2168023]}, "properties": {"osm_id": 843995610, "osm_type": "node", "amenity": "kindergarten", "name": "Scuola materna \"Arcobaleno\""}}, {"type": "Feature", "geometry": {"type": "Point", "coordinates": [12.2337145, 45.9722674]}, "properties": {"osm_id": 847168836, "osm_type": "node", "amenity": "kindergarten", "name": "Scuola Materna Tandura Mondini", "ref": "TV1A18000X"}}, {"type": "Feature", "geometry": {"type": "Point", "coordinates": [11.0857175, 46.265337]}, "properties": {"osm_id": 848796693, "osm_type": "node", "addr:city": "Ton", "addr:housenumber": "7", "addr:postcode": "38010", "addr:street": "Piazza Francesco Guardi", "amenity": "kindergarten", "isced:level": "0", "layer": "1", "name": "Scuola dell'Infanzia di Vigo di Ton"}}, {"type": "Feature", "geometry": {"type": "Point", "coordinates": [11.5321568, 45.6944935]}, "properties": {"osm_id": 849370121, "osm_type": "node", "amenity": "kindergarten", "name": "Scuola materna S. Maria"}}, {"type": "Feature", "geometry": {"type": "Point", "coordinates": [9.1857888, 45.6388919]}, "properties": {"osm_id": 854499295, "osm_type": "node", "amenity": "kindergarten", "check_date": "2024-12-20", "name": "Asilo Nido Bosco delle Meraviglie"}}, {"type": "Feature", "geometry": {"type": "Point", "coordinates": [11.5965229, 45.4245483]}, "properties": {"osm_id": 861185090, "osm_type": "node", "addr:city": "Nanto", "addr:postcode": "36024", "addr:street": "Via Ca' Silvestre", "amenity": "kindergarten", "name": "Scuola dell'Infanzia \"San Giovanni Bosco\" - Nanto", "website": "https://www.iclongare.edu.it", "wheelchair": "yes"}}, {"type": "Feature", "geometry": {"type": "Point", "coordinates": [7.7803051, 44.9743892]}, "properties": {"osm_id": 874492305, "osm_type": "node", "addr:city": "Cambiano", "addr:housenumber": "1", "addr:postcode": "10020", "addr:street": "Via Pannunzia", "amenity": "kindergarten", "name": "Asili Riuniti E. Gribaudi"}}, {"type": "Feature", "geometry": {"type": "Point", "coordinates": [11.1950361, 44.54781]}, "properties": {"osm_id": 877057072, "osm_type": "node", "amenity": "kindergarten", "contact:phone": "+39 051 733096", "name": "Asilo Parrocchiale"}}, {"type": "Feature", "geometry": {"type": "Point", "coordinates": [11.102689, 44.5953691]}, "properties": {"osm_id": 878621259, "osm_type": "node", "addr:full": "Via Gabriele d'Annunzio 42 (Manzolino)41013 Castelfranco Emilia MO", "amenity": "kindergarten", "name": "Sacro Cuore", "ref": "MO1A09600D"}}, {"type": "Feature", "geometry": {"type": "Point", "coordinates": [8.9261654, 44.4269177]}, "properties": {"osm_id": 899468560, "osm_type": "node", "amenity": "kindergarten"}}, {"type": "Feature", "geometry": {"type": "Point", "coordinates": [15.679411, 38.0867462]}, "properties": {"osm_id": 906717031, "osm_type": "node", "amenity": "kindergarten", "name": "Suore sacramentine"}}, {"type": "Feature", "geometry": {"type": "Point", "coordinates": [10.5890337, 44.6601853]}, "properties": {"osm_id": 913944510, "osm_type": "node", "amenity": "kindergarten", "name": "scuola d'infanzia"}}, {"type": "Feature", "geometry": {"type": "Point", "coordinates": [8.9813231, 44.440961]}, "properties": {"osm_id": 924292446, "osm_type": "node", "access": "yes", "addr:housenumber": "49a", "addr:postcode": "16141", "addr:street": "Via Mogadiscio", "amenity": "kindergarten", "barrier": "entrance", "contact:phone": "+39 010 8352982", "isced:level": "0", "name": "Asilo nido comunale Cantaegua", "nursery": "yes"}}, {"type": "Feature", "geometry": {"type": "Point", "coordinates": [11.8682173, 45.3585554]}, "properties": {"osm_id": 927111763, "osm_type": "node", "amenity": "kindergarten", "name": "Scuola dell'Infanzia - Nido integrato \"Giovanni XXIII°\""}}, {"type": "Feature", "geometry": {"type": "Point", "coordinates": [11.8643871, 45.3494541]}, "properties": {"osm_id": 929149286, "osm_type": "node", "amenity": "kindergarten"}}, {"type": "Feature", "geometry": {"type": "Point", "coordinates": [10.5894377, 44.6640872]}, "properties": {"osm_id": 936967323, "osm_type": "node", "amenity": "kindergarten"}}, {"type": "Feature", "geometry": {"type": "Point", "coordinates": [10.9029778, 45.4877392]}, "properties": {"osm_id": 937540384, "osm_type": "node", "addr:city": "Corrubbio di Negarine", "addr:housenumber": "2", "addr:postcode": "37029", "addr:street": "Piazza Venticinque Aprile", "amenity": "kindergarten", "check_date": "2024-07-07", "check_date:opening_hours": "2022-01-13", "name": "Micronido La Culla", "opening_hours": "Mo-Fr 07:30-16:45", "operator": "La Culla s.n.c.", "phone": "+39 346 2166918", "wheelchair": "limited"}}, {"type": "Feature", "geometry": {"type": "Point", "coordinates": [8.0374918, 45.0872007]}, "properties": {"osm_id": 938140452, "osm_type": "node", "amenity": "kindergarten", "name": "Regina Elena"}}, {"type": "Feature", "geometry": {"type": "Point", "coordinates": [8.4133195, 45.9709036]}, "properties": {"osm_id": 946573344, "osm_type": "node", "amenity": "kindergarten"}}, {"type": "Feature", "geometry": {"type": "Point", "coordinates": [12.5939668, 37.6518359]}, "properties": {"osm_id": 951637529, "osm_type": "node", "addr:housenumber": "39", "amenity": "kindergarten", "contact:phone": "+39 0923 942383", "name": "Scuola Materna Paritaria Baby Club", "ref": "TP1A02200L"}}, {"type": "Feature", "geometry": {"type": "Point", "coordinates": [12.5950905, 37.6496564]}, "properties": {"osm_id": 954712297, "osm_type": "node", "addr:housenumber": "24", "amenity": "kindergarten", "name": "Scuola Materna Paritaria Peter Pan", "ref": "TP1A07300D"}}, {"type": "Feature", "geometry": {"type": "Point", "coordinates": [10.9476926, 45.4579696]}, "properties": {"osm_id": 955730784, "osm_type": "node", "addr:city": "Verona", "addr:country": "IT", "addr:housenumber": "74", "addr:postcode": "37139", "addr:street": "Via Aeroporto Angelo Berardi", "amenity": "kindergarten", "check_date": "2023-04-03", "email": "segreteria@scuolamaternaangelica.it", "fax": "+39 045 563186", "name": "Scuola Materna Angelica", "phone": "+39 045 563186", "website": "https://www.scuolamaternaangelica.it/"}}, {"type": "Feature", "geometry": {"type": "Point", "coordinates": [8.8299303, 45.8186932]}, "properties": {"osm_id": 962401452, "osm_type": "node", "addr:housenumber": "9", "addr:postcode": "21100", "addr:street": "Via Como", "amenity": "kindergarten", "check_date": "2026-03-20", "check_date:opening_hours": "2026-03-20", "education": "kindergarten", "email": "info@asiloveratti.it", "name": "Asilo Infantile Veratti", "opening_hours": "Mo-Fr 07:30-18:00", "phone": "+39 033 228 3113", "website": "https://www.asiloveratti.com", "wheelchair": "no"}}, {"type": "Feature", "geometry": {"type": "Point", "coordinates": [8.9293204, 44.4131019]}, "properties": {"osm_id": 991086528, "osm_type": "node", "addr:housenumber": "40 rosso", "addr:street": "Via Lomellini", "amenity": "kindergarten", "contact:fax": "+39 010 252692", "contact:phone": "+39 010 2476604", "isced:level": "0", "name": "Scuola dell'infanzia Comunale Maddalena", "operator": "Comune di Genova Municipio 1"}}, {"type": "Feature", "geometry": {"type": "Point", "coordinates": [8.9657573, 44.4091142]}, "properties": {"osm_id": 1012849146, "osm_type": "node", "addr:city": "Genova", "addr:housenumber": "32", "addr:postcode": "16143", "addr:street": "Via Madre Rosa Bianchi", "alt_name": "GE1A01200A", "amenity": "kindergarten", "check_date": "2023-08-24", "name": "Scuola materna (dell'infanzia) - Paritaria Nostra Signora del Monte", "phone": "+39 010 500165"}}, {"type": "Feature", "geometry": {"type": "Point", "coordinates": [9.2121447, 44.3558486]}, "properties": {"osm_id": 1016155236, "osm_type": "node", "amenity": "kindergarten", "name": "Asilo Nido Per un mondo Unicef", "nursery": "yes"}}, {"type": "Feature", "geometry": {"type": "Point", "coordinates": [9.8248776, 45.7528075]}, "properties": {"osm_id": 1077613204, "osm_type": "node", "amenity": "kindergarten"}}, {"type": "Feature", "geometry": {"type": "Point", "coordinates": [9.1977281, 45.5467982]}, "properties": {"osm_id": 1077826222, "osm_type": "node", "amenity": "kindergarten", "description": "Asilo Nido 3 mesi - 3 anni", "email": "viaperbresso@ilgiardinodililiana.it", "name": "Il Giardino di Liliana 2", "phone": "+39 02 6659558", "website": "https://www.ilgiardinodililiana.it/"}}, {"type": "Feature", "geometry": {"type": "Point", "coordinates": [9.1605946, 45.5402801]}, "properties": {"osm_id": 1128853928, "osm_type": "node", "amenity": "kindergarten", "name": "Scuola dell'Infanzia Beato Giovanni XXIII", "note": "posizione stimata, si trova all'interno del centro parrocchiale"}}, {"type": "Feature", "geometry": {"type": "Point", "coordinates": [8.9017183, 44.443533]}, "properties": {"osm_id": 1132761988, "osm_type": "node", "addr:housenumber": "10", "addr:postcode": "16159", "addr:street": "Piazza Vittime di Bologna", "amenity": "kindergarten", "contact:fax": "+39 010 7404013", "contact:phone": "+39 010 7493196", "name": "Scuola Infanzia Primavera"}}, {"type": "Feature", "geometry": {"type": "Point", "coordinates": [9.1679919, 45.5447785]}, "properties": {"osm_id": 1133055378, "osm_type": "node", "amenity": "kindergarten", "description": "Centro prima infanzia, punto gioco a ore", "name": "Gioca Mondo bimbi", "source": "survey"}}, {"type": "Feature", "geometry": {"type": "Point", "coordinates": [11.6281659, 46.8397606]}, "properties": {"osm_id": 1136360375, "osm_type": "node", "amenity": "kindergarten", "name": "Kindergarten Vals"}}, {"type": "Feature", "geometry": {"type": "Point", "coordinates": [12.0584342, 44.21035]}, "properties": {"osm_id": 1139112412, "osm_type": "node", "amenity": "kindergarten", "name": "Asilo nido \"Il Grillo\""}}, {"type": "Feature", "geometry": {"type": "Point", "coordinates": [8.9968134, 44.3936639]}, "properties": {"osm_id": 1154419164, "osm_type": "node", "addr:city": "Genova", "addr:housenumber": "3", "addr:postcode": "16148", "addr:street": "Via Vecchi Candido Augusto", "amenity": "kindergarten", "contact:phone": "+39 010 384495; +39 010 396364", "isced:level": "0", "name": "Scuola Materna Comunale Tina Quaglia"}}, {"type": "Feature", "geometry": {"type": "Point", "coordinates": [11.6620348, 46.8127993]}, "properties": {"osm_id": 1175483778, "osm_type": "node", "amenity": "kindergarten", "name": "Kindergarten Meransen"}}, {"type": "Feature", "geometry": {"type": "Point", "coordinates": [17.207257, 40.9940068]}, "properties": {"osm_id": 1183277138, "osm_type": "node", "amenity": "kindergarten"}}, {"type": "Feature", "geometry": {"type": "Point", "coordinates": [11.6516008, 46.7884389]}, "properties": {"osm_id": 1187809843, "osm_type": "node", "amenity": "kindergarten", "name": "Kindergarten Spinges"}}, {"type": "Feature", "geometry": {"type": "Point", "coordinates": [11.6668416, 46.7974673]}, "properties": {"osm_id": 1190256559, "osm_type": "node", "amenity": "kindergarten", "name": "Kindergarten Mühlbach - Asilo Rio di Pusteria", "name:de": "Kindergarten Mühlbach", "name:it": "Asilo Rio di Pusteria"}}, {"type": "Feature", "geometry": {"type": "Point", "coordinates": [9.2222042, 45.1954688]}, "properties": {"osm_id": 1204032261, "osm_type": "node", "amenity": "kindergarten", "name": "Gallotti"}}, {"type": "Feature", "geometry": {"type": "Point", "coordinates": [8.9337031, 44.4148714]}, "properties": {"osm_id": 1210495162, "osm_type": "node", "addr:housenumber": "33", "addr:street": "Salita Superiore San Gerolamo", "amenity": "kindergarten", "name": "Gesù Nazareno"}}, {"type": "Feature", "geometry": {"type": "Point", "coordinates": [10.5790433, 46.8135841]}, "properties": {"osm_id": 1219940222, "osm_type": "node", "amenity": "kindergarten"}}, {"type": "Feature", "geometry": {"type": "Point", "coordinates": [8.9411487, 44.4100436]}, "properties": {"osm_id": 1229541610, "osm_type": "node", "amenity": "kindergarten", "isced:level": "0", "name": "La vita è bella", "operator": "Istituto Comprensivo Maddalena-Bertani"}}, {"type": "Feature", "geometry": {"type": "Point", "coordinates": [11.8406092, 46.8086233]}, "properties": {"osm_id": 1229637410, "osm_type": "node", "amenity": "kindergarten", "name": "Kindergarten Kiens - Asilo Chienes", "name:de": "Kindergarten Kiens", "name:it": "Asilo Chienes"}}, {"type": "Feature", "geometry": {"type": "Point", "coordinates": [11.5417429, 45.5522483]}, "properties": {"osm_id": 1240607442, "osm_type": "node", "amenity": "kindergarten", "name": "Scuola per l'infanzia, Primaria e Secondaria di Primo Grado \"Dame Inglesi\""}}, {"type": "Feature", "geometry": {"type": "Point", "coordinates": [11.637782, 46.7381832]}, "properties": {"osm_id": 1246128557, "osm_type": "node", "amenity": "kindergarten", "name": "Kindergarten Vahrn - Asilo di Varna", "name:de": "Kindergarten Vahrn", "name:it": "Asilo di Varna"}}, {"type": "Feature", "geometry": {"type": "Point", "coordinates": [7.5930281, 45.8044105]}, "properties": {"osm_id": 1253955729, "osm_type": "node", "amenity": "kindergarten", "name": "Scuola Infanzia"}}, {"type": "Feature", "geometry": {"type": "Point", "coordinates": [10.787497, 45.3276842]}, "properties": {"osm_id": 1261287914, "osm_type": "node", "amenity": "kindergarten", "isced:level": "0", "name": "Scuola materna", "source": "survey"}}, {"type": "Feature", "geometry": {"type": "Point", "coordinates": [12.3567432, 46.1212639]}, "properties": {"osm_id": 1261958257, "osm_type": "node", "amenity": "kindergarten"}}, {"type": "Feature", "geometry": {"type": "Point", "coordinates": [8.7944376, 45.912134]}, "properties": {"osm_id": 1262059759, "osm_type": "node", "addr:street": "Via Ganna", "amenity": "kindergarten", "name": "Asilo Infantile Zamaroni-Martinoli"}}, {"type": "Feature", "geometry": {"type": "Point", "coordinates": [11.6809917, 46.7552816]}, "properties": {"osm_id": 1263752631, "osm_type": "node", "amenity": "kindergarten", "name": "Kindergarten - Asilo"}}, {"type": "Feature", "geometry": {"type": "Point", "coordinates": [7.5922053, 45.8052916]}, "properties": {"osm_id": 1272108265, "osm_type": "node", "amenity": "kindergarten", "name": "Asilo Nido"}}, {"type": "Feature", "geometry": {"type": "Point", "coordinates": [11.9433288, 46.797159]}, "properties": {"osm_id": 1275837623, "osm_type": "node", "amenity": "kindergarten", "name": "Kindergarten Bruder Willram"}}, {"type": "Feature", "geometry": {"type": "Point", "coordinates": [7.2974145, 45.7337597]}, "properties": {"osm_id": 1282009348, "osm_type": "node", "amenity": "kindergarten", "name": "Asilo Nido"}}, {"type": "Feature", "geometry": {"type": "Point", "coordinates": [10.8413418, 46.004594]}, "properties": {"osm_id": 1284306930, "osm_type": "node", "amenity": "kindergarten"}}, {"type": "Feature", "geometry": {"type": "Point", "coordinates": [12.1112931, 46.7672882]}, "properties": {"osm_id": 1286957875, "osm_type": "node", "amenity": "kindergarten", "name": "Schule Msgr. Johannes Baur"}}, {"type": "Feature", "geometry": {"type": "Point", "coordinates": [15.1046025, 40.6651809]}, "properties": {"osm_id": 1293174301, "osm_type": "node", "amenity": "kindergarten"}}, {"type": "Feature", "geometry": {"type": "Point", "coordinates": [9.1667016, 45.5228777]}, "properties": {"osm_id": 1295455408, "osm_type": "node", "addr:city": "Milano", "addr:country": "IT", "addr:housenumber": "2", "addr:street": "Via Ettore Ciccotti", "amenity": "kindergarten", "check_date": "2026-04-13", "name": "Scuola dell'Infanzia Via Ciccotti, 2"}}, {"type": "Feature", "geometry": {"type": "Point", "coordinates": [17.120234, 40.5903797]}, "properties": {"osm_id": 1301794887, "osm_type": "node", "addr:housenumber": "258", "addr:street": "Viale Guglielmo Marconi", "amenity": "kindergarten", "name": "Istituto Comprensivo Pascoli"}}, {"type": "Feature", "geometry": {"type": "Point", "coordinates": [12.4874612, 41.8177161]}, "properties": {"osm_id": 1313185176, "osm_type": "node", "amenity": "kindergarten"}}, {"type": "Feature", "geometry": {"type": "Point", "coordinates": [9.4909583, 45.0594741]}, "properties": {"osm_id": 1317964014, "osm_type": "node", "amenity": "kindergarten", "name": "Asilo Vomunale"}}, {"type": "Feature", "geometry": {"type": "Point", "coordinates": [8.90251, 45.9011389]}, "properties": {"osm_id": 1327363133, "osm_type": "node", "amenity": "kindergarten"}}, {"type": "Feature", "geometry": {"type": "Point", "coordinates": [7.6818556, 45.0579021]}, "properties": {"osm_id": 1328540432, "osm_type": "node", "addr:city": "Torino", "addr:housenumber": "25", "addr:postcode": "10125", "addr:street": "Via Principe Tommaso", "amenity": "kindergarten", "check_date": "2023-06-10", "name": "Bay", "wheelchair": "no"}}, {"type": "Feature", "geometry": {"type": "Point", "coordinates": [12.0557415, 44.2284878]}, "properties": {"osm_id": 1329391307, "osm_type": "node", "amenity": "kindergarten", "isced:level": "0", "name": "Asilo nido \"Clorofilla\"", "nursery": "yes"}}, {"type": "Feature", "geometry": {"type": "Point", "coordinates": [8.6830879, 44.4034391]}, "properties": {"osm_id": 1347359020, "osm_type": "node", "amenity": "kindergarten", "fax": "+39 0109127602", "isced:level": "0", "name": "Scuola d'infanzia Antonio Ghigliotti", "phone": "+39 010 9127602"}}, {"type": "Feature", "geometry": {"type": "Point", "coordinates": [11.056095, 44.8874407]}, "properties": {"osm_id": 1348474807, "osm_type": "node", "amenity": "kindergarten"}}, {"type": "Feature", "geometry": {"type": "Point", "coordinates": [9.1817612, 45.0317705]}, "properties": {"osm_id": 1351759667, "osm_type": "node", "amenity": "kindergarten", "name": "Asilo comunale"}}, {"type": "Feature", "geometry": {"type": "Point", "coordinates": [11.2461671, 44.3968261]}, "properties": {"osm_id": 1356237467, "osm_type": "node", "addr:housenumber": "471", "addr:postcode": "40037", "addr:street": "Via Porrettana", "amenity": "kindergarten", "name": "Asilo A. Grimaldi", "source": "http://www.asilogrimaldi.it"}}, {"type": "Feature", "geometry": {"type": "Point", "coordinates": [8.7795144, 45.5797303]}, "properties": {"osm_id": 1370805628, "osm_type": "node", "amenity": "kindergarten"}}, {"type": "Feature", "geometry": {"type": "Point", "coordinates": [12.1951446, 43.512883]}, "properties": {"osm_id": 1371517713, "osm_type": "node", "addr:city": "Selci Lama", "addr:country": "IT", "addr:housenumber": "40", "addr:postcode": "06016", "addr:street": "Viale Francesco Nardi", "amenity": "kindergarten", "name": "Scuola Materna Monsignor Carlo Liviero"}}, {"type": "Feature", "geometry": {"type": "Point", "coordinates": [12.1779358, 43.5481664]}, "properties": {"osm_id": 1378228888, "osm_type": "node", "addr:housenumber": "1", "addr:street": "Via del Mercato Vecchio", "amenity": "kindergarten", "name": "Scuola Materna S. Teresa di Gesu' Bambino"}}, {"type": "Feature", "geometry": {"type": "Point", "coordinates": [9.1454214, 45.3781085]}, "properties": {"osm_id": 1381577348, "osm_type": "node", "amenity": "kindergarten", "name": "Scuola Materna Fratelli Cervi"}}, {"type": "Feature", "geometry": {"type": "Point", "coordinates": [9.1756908, 45.379608]}, "properties": {"osm_id": 1384041895, "osm_type": "node", "amenity": "kindergarten", "name": "Scuola Materna Ugo Foscolo"}}, {"type": "Feature", "geometry": {"type": "Point", "coordinates": [11.8582096, 45.5870834]}, "properties": {"osm_id": 1385287465, "osm_type": "node", "amenity": "kindergarten", "name": "Asilo parrocchiale"}}, {"type": "Feature", "geometry": {"type": "Point", "coordinates": [11.375765, 45.6822327]}, "properties": {"osm_id": 1387347125, "osm_type": "node", "amenity": "kindergarten", "name": "Asilo infantile"}}, {"type": "Feature", "geometry": {"type": "Point", "coordinates": [8.5505989, 44.3447869]}, "properties": {"osm_id": 1396732213, "osm_type": "node", "addr:housenumber": "2", "addr:street": "Via Monte Tabor", "amenity": "kindergarten", "name": "Asilo nido Nicolò Aicardi"}}, {"type": "Feature", "geometry": {"type": "Point", "coordinates": [11.1755644, 45.2189207]}, "properties": {"osm_id": 1396732661, "osm_type": "node", "amenity": "kindergarten", "isced:level": "0", "name": "Scuola Materna"}}, {"type": "Feature", "geometry": {"type": "Point", "coordinates": [11.1714805, 46.2497794]}, "properties": {"osm_id": 1399177918, "osm_type": "node", "addr:city": "Roveré della Luna", "addr:country": "IT", "addr:housenumber": "10", "addr:postcode": "38030", "addr:street": "Via Villotta", "amenity": "kindergarten", "contact:phone": "+39 0461 658519", "int_name": "Scuola dell'Infanzia", "name": "Scuola dell'Infanzia"}}, {"type": "Feature", "geometry": {"type": "Point", "coordinates": [10.6141112, 45.9126325]}, "properties": {"osm_id": 1400030449, "osm_type": "node", "addr:city": "Cimego", "addr:housenumber": "64", "addr:street": "Via Don A. Bertolasi", "amenity": "kindergarten", "name": "Scuola dell'Infanzia di Cimego"}}, {"type": "Feature", "geometry": {"type": "Point", "coordinates": [13.5032551, 43.597162]}, "properties": {"osm_id": 1406220958, "osm_type": "node", "addr:housenumber": "102", "addr:postcode": "60127", "addr:street": "Via Alessandro Maggini", "amenity": "kindergarten", "name": "Centro per l'infanzia Pinocchio"}}, {"type": "Feature", "geometry": {"type": "Point", "coordinates": [11.9376876, 45.9369262]}, "properties": {"osm_id": 1411369945, "osm_type": "node", "amenity": "kindergarten", "name": "Asilo nido Il Girasole"}}, {"type": "Feature", "geometry": {"type": "Point", "coordinates": [8.6978822, 46.0615008]}, "properties": {"osm_id": 1414937183, "osm_type": "node", "amenity": "kindergarten"}}, {"type": "Feature", "geometry": {"type": "Point", "coordinates": [9.616757, 45.0029877]}, "properties": {"osm_id": 1418602267, "osm_type": "node", "amenity": "kindergarten"}}, {"type": "Feature", "geometry": {"type": "Point", "coordinates": [14.1448217, 41.4698403]}, "properties": {"osm_id": 1418952042, "osm_type": "node", "amenity": "kindergarten", "name": "Asilo Nido"}}, {"type": "Feature", "geometry": {"type": "Point", "coordinates": [8.9797252, 44.4558339]}, "properties": {"osm_id": 1420046331, "osm_type": "node", "access": "yes", "addr:housename": "Scuola per l'infanzia Peter Pan", "addr:housenumber": "7", "addr:street": "Via Antonio Sertoli", "amenity": "kindergarten", "name": "Scuola per l'infanzia Peter Pan"}}, {"type": "Feature", "geometry": {"type": "Point", "coordinates": [12.5608982, 37.9836666]}, "properties": {"osm_id": 1423023134, "osm_type": "node", "amenity": "kindergarten", "name": "Villa Comunale"}}, {"type": "Feature", "geometry": {"type": "Point", "coordinates": [10.083503, 45.5267152]}, "properties": {"osm_id": 1425347543, "osm_type": "node", "amenity": "kindergarten", "contact:phone": "+39 339 7303217", "name": "Nido Il Cantastorie"}}, {"type": "Feature", "geometry": {"type": "Point", "coordinates": [11.1209659, 46.2163671]}, "properties": {"osm_id": 1427362022, "osm_type": "node", "addr:city": "Mezzocorona", "addr:housenumber": "4", "addr:postcode": "38016", "addr:street": "Via San Giovanni Bosco", "amenity": "kindergarten", "isced:level": "0", "name": "Scuola dell'infanzia di Mezzocorona", "operator": "Scuola dell'infanzia di Mezzocorona", "phone": "+39 0461 603933"}}, {"type": "Feature", "geometry": {"type": "Point", "coordinates": [10.6907083, 43.901208]}, "properties": {"osm_id": 1430499810, "osm_type": "node", "amenity": "kindergarten", "name": "Asilo D'Infanzia"}}, {"type": "Feature", "geometry": {"type": "Point", "coordinates": [10.5331002, 43.8536697]}, "properties": {"osm_id": 1431076746, "osm_type": "node", "amenity": "kindergarten"}}, {"type": "Feature", "geometry": {"type": "Point", "coordinates": [11.3428264, 46.4979625]}, "properties": {"osm_id": 1433469832, "osm_type": "node", "amenity": "kindergarten"}}, {"type": "Feature", "geometry": {"type": "Point", "coordinates": [11.3456856, 46.4961604]}, "properties": {"osm_id": 1433484962, "osm_type": "node", "amenity": "kindergarten"}}, {"type": "Feature", "geometry": {"type": "Point", "coordinates": [12.0792676, 45.4710761]}, "properties": {"osm_id": 1445379574, "osm_type": "node", "addr:housenumber": "194", "amenity": "kindergarten", "education": "kindergarten", "name": "Scuola dell'Infanzia e nido integrato Santa Bernardetta"}}, {"type": "Feature", "geometry": {"type": "Point", "coordinates": [7.42991, 44.2947511]}, "properties": {"osm_id": 1446947356, "osm_type": "node", "amenity": "kindergarten", "name": "Scuola materna Andonno"}}, {"type": "Feature", "geometry": {"type": "Point", "coordinates": [7.6454189, 44.36567]}, "properties": {"osm_id": 1447899976, "osm_type": "node", "amenity": "kindergarten", "isced:level": "0", "name": "Scuola materna statale", "wikidata": "Q52918233"}}, {"type": "Feature", "geometry": {"type": "Point", "coordinates": [7.6446639, 44.3657281]}, "properties": {"osm_id": 1447900656, "osm_type": "node", "amenity": "kindergarten", "name": "Scuola Materna Beinette", "wikidata": "Q52918233"}}, {"type": "Feature", "geometry": {"type": "Point", "coordinates": [7.6183239, 44.331416]}, "properties": {"osm_id": 1447966155, "osm_type": "node", "alt_name": "Scuola dell'infanzia di Peveragno", "amenity": "kindergarten", "email": "CNIC841005@istruzione.it", "isced:level": "0", "name": "Scuola dell'infanzia \"Rocco Carboneri\"", "operator": "Istituto comprensivo di Chiusa di Pesio - Peveragno", "operator:ref": "CNIC841005", "phone": "+39 0171 383066", "ref": "CNAA841034", "wikidata": "Q52829728"}}, {"type": "Feature", "geometry": {"type": "Point", "coordinates": [7.5734302, 44.3215197]}, "properties": {"osm_id": 1448040984, "osm_type": "node", "amenity": "kindergarten", "isced:level": "0", "name": "Asilo infantile Divina Provvidenza"}}, {"type": "Feature", "geometry": {"type": "Point", "coordinates": [17.11108, 40.5942875]}, "properties": {"osm_id": 1449396448, "osm_type": "node", "amenity": "kindergarten", "name": "Il draghetto rosa"}}, {"type": "Feature", "geometry": {"type": "Point", "coordinates": [17.1134904, 40.597788]}, "properties": {"osm_id": 1449396459, "osm_type": "node", "amenity": "kindergarten"}}, {"type": "Feature", "geometry": {"type": "Point", "coordinates": [8.9811372, 44.441083]}, "properties": {"osm_id": 1455700447, "osm_type": "node", "access": "yes", "addr:housenumber": "49", "addr:street": "Via Mogadiscio", "amenity": "kindergarten", "barrier": "entrance", "contact:phone": "+39 010 8352503", "isced:level": "0", "name": "Scuola dell'infanzia Mimosa"}}, {"type": "Feature", "geometry": {"type": "Point", "coordinates": [9.1998392, 45.4859561]}, "properties": {"osm_id": 1466717078, "osm_type": "node", "addr:city": "Milano", "addr:country": "IT", "addr:housenumber": "9", "addr:postcode": "20124", "addr:street": "Via Luigi Galvani", "amenity": "kindergarten", "check_date": "2023-05-18", "isced:level": "0", "name": "Scuola dell'Infanzia \"Luigi Galvani\""}}, {"type": "Feature", "geometry": {"type": "Point", "coordinates": [11.2765493, 44.476489]}, "properties": {"osm_id": 1467358790, "osm_type": "node", "amenity": "kindergarten", "check_date": "2024-11-10", "name": "Asilo Lamma"}}, {"type": "Feature", "geometry": {"type": "Point", "coordinates": [11.2746556, 44.4719773]}, "properties": {"osm_id": 1469303082, "osm_type": "node", "amenity": "kindergarten", "name": "Scuola dell'Infanzia Don Lorenzo Milani"}}, {"type": "Feature", "geometry": {"type": "Point", "coordinates": [8.9744404, 44.3921953]}, "properties": {"osm_id": 1478177704, "osm_type": "node", "amenity": "kindergarten", "isced:level": "0", "name": "Scuola Materna Statale Felice Cavallotti"}}, {"type": "Feature", "geometry": {"type": "Point", "coordinates": [11.8825954, 45.6911684]}, "properties": {"osm_id": 1479201832, "osm_type": "node", "amenity": "kindergarten", "name": "Scuole Materne"}}, {"type": "Feature", "geometry": {"type": "Point", "coordinates": [18.3445457, 40.1937636]}, "properties": {"osm_id": 1481270363, "osm_type": "node", "amenity": "kindergarten"}}, {"type": "Feature", "geometry": {"type": "Point", "coordinates": [9.2002329, 45.4857485]}, "properties": {"osm_id": 1482170768, "osm_type": "node", "addr:city": "Milano", "addr:country": "IT", "addr:postcode": "20124", "addr:street": "Via Luigi Galvani", "amenity": "kindergarten", "check_date": "2024-03-20", "name": "Micro Nido"}}, {"type": "Feature", "geometry": {"type": "Point", "coordinates": [8.9591321, 44.4084666]}, "properties": {"osm_id": 1483292829, "osm_type": "node", "addr:city": "Genova", "addr:country": "IT", "addr:housenumber": "4", "addr:postcode": "16143", "addr:street": "Salita nuova di Nostra Signora del Monte", "amenity": "kindergarten", "contact:phone": "+39 010 352968;+39 010 509791", "isced:level": "0", "name": "Scuola di infanzia Albero D'Oro"}}, {"type": "Feature", "geometry": {"type": "Point", "coordinates": [14.4418175, 42.0676292]}, "properties": {"osm_id": 1486656995, "osm_type": "node", "amenity": "kindergarten", "name": "Asilo Infantile"}}, {"type": "Feature", "geometry": {"type": "Point", "coordinates": [14.2683581, 40.8853413]}, "properties": {"osm_id": 1487572464, "osm_type": "node", "amenity": "kindergarten", "name": "Oasi Del Bimbo"}}, {"type": "Feature", "geometry": {"type": "Point", "coordinates": [14.2551099, 40.8950812]}, "properties": {"osm_id": 1488991094, "osm_type": "node", "amenity": "kindergarten"}}, {"type": "Feature", "geometry": {"type": "Point", "coordinates": [14.2573254, 40.8901906]}, "properties": {"osm_id": 1488991153, "osm_type": "node", "amenity": "kindergarten"}}, {"type": "Feature", "geometry": {"type": "Point", "coordinates": [8.9609569, 44.4378758]}, "properties": {"osm_id": 1489410598, "osm_type": "node", "addr:housenumber": "4", "addr:postcode": "16138", "addr:street": "Via Lodi", "amenity": "kindergarten", "isced:level": "0", "name": "Scuola infanzia Il Gabbiano"}}, {"type": "Feature", "geometry": {"type": "Point", "coordinates": [12.4955258, 41.8601165]}, "properties": {"osm_id": 1489745675, "osm_type": "node", "alt_phone": "+39 06 64521451 4", "amenity": "kindergarten", "capacity": "25", "name": "Asilo Nido Maria Adelaide", "phone": "+39 06 51784"}}, {"type": "Feature", "geometry": {"type": "Point", "coordinates": [10.5372435, 45.8300672]}, "properties": {"osm_id": 1489857501, "osm_type": "node", "amenity": "kindergarten", "name": "Scuola d'infanzia"}}, {"type": "Feature", "geometry": {"type": "Point", "coordinates": [10.5372435, 45.8300674]}, "properties": {"osm_id": 1489857506, "osm_type": "node", "amenity": "kindergarten"}}, {"type": "Feature", "geometry": {"type": "Point", "coordinates": [11.1259387, 43.4199576]}, "properties": {"osm_id": 1489944915, "osm_type": "node", "amenity": "kindergarten"}}, {"type": "Feature", "geometry": {"type": "Point", "coordinates": [11.0322014, 45.4385997]}, "properties": {"osm_id": 1490345287, "osm_type": "node", "amenity": "kindergarten", "name": "Maria Montessori"}}, {"type": "Feature", "geometry": {"type": "Point", "coordinates": [11.0587507, 45.4281602]}, "properties": {"osm_id": 1504021289, "osm_type": "node", "amenity": "kindergarten", "name": "Scuola primaria Domenico Mercante"}}, {"type": "Feature", "geometry": {"type": "Point", "coordinates": [17.1236919, 40.5884202]}, "properties": {"osm_id": 1506153602, "osm_type": "node", "amenity": "kindergarten", "name": "Il club delle Giovani Marmotte"}}, {"type": "Feature", "geometry": {"type": "Point", "coordinates": [8.9524379, 44.41358]}, "properties": {"osm_id": 1507746356, "osm_type": "node", "access": "yes", "addr:housenumber": "2", "addr:postcode": "16137", "addr:street": "Piazza Gian Domenico Romagnosi", "amenity": "kindergarten", "barrier": "entrance", "contact:phone": "+39 010 5299797", "name": "Asilo Nido Comunale Il Girasole"}}, {"type": "Feature", "geometry": {"type": "Point", "coordinates": [14.3132494, 40.9264256]}, "properties": {"osm_id": 1509262929, "osm_type": "node", "amenity": "kindergarten", "isced:level": "0"}}, {"type": "Feature", "geometry": {"type": "Point", "coordinates": [11.0059173, 45.4395689]}, "properties": {"osm_id": 1510042757, "osm_type": "node", "amenity": "kindergarten", "isced:level": "0", "name": "Scuola Materna Nicola Mazza"}}, {"type": "Feature", "geometry": {"type": "Point", "coordinates": [10.7760944, 43.8840262]}, "properties": {"osm_id": 1528865879, "osm_type": "node", "amenity": "kindergarten"}}, {"type": "Feature", "geometry": {"type": "Point", "coordinates": [10.7788785, 43.8825608]}, "properties": {"osm_id": 1528866113, "osm_type": "node", "amenity": "kindergarten"}}, {"type": "Feature", "geometry": {"type": "Point", "coordinates": [8.8953918, 44.4304219]}, "properties": {"osm_id": 1529901937, "osm_type": "node", "amenity": "kindergarten", "name": "Micronido Pratorotondo"}}, {"type": "Feature", "geometry": {"type": "Point", "coordinates": [7.5336687, 44.2462724]}, "properties": {"osm_id": 1530422606, "osm_type": "node", "amenity": "kindergarten"}}, {"type": "Feature", "geometry": {"type": "Point", "coordinates": [8.9012465, 44.4560378]}, "properties": {"osm_id": 1531756970, "osm_type": "node", "amenity": "kindergarten", "name": "Asilo Nido Lo Scoiattolo"}}, {"type": "Feature", "geometry": {"type": "Point", "coordinates": [8.9481722, 44.4159344]}, "properties": {"osm_id": 1534061704, "osm_type": "node", "amenity": "kindergarten", "name": "Asilo Nido Nati sotto al cavolo"}}, {"type": "Feature", "geometry": {"type": "Point", "coordinates": [9.1513786, 45.1889747]}, "properties": {"osm_id": 1539896377, "osm_type": "node", "amenity": "kindergarten", "name": "Scuola materna Gazzaniga"}}, {"type": "Feature", "geometry": {"type": "Point", "coordinates": [11.9134482, 45.8016983]}, "properties": {"osm_id": 1546252040, "osm_type": "node", "addr:city": "Asolo", "addr:country": "IT", "addr:housenumber": "193", "addr:postcode": "31011", "addr:street": "Piazzetta San Pio X", "amenity": "kindergarten", "name": "Scuola Materna Edmondo De Amicis"}}, {"type": "Feature", "geometry": {"type": "Point", "coordinates": [9.769949, 45.2228462]}, "properties": {"osm_id": 1548827533, "osm_type": "node", "amenity": "kindergarten"}}, {"type": "Feature", "geometry": {"type": "Point", "coordinates": [11.6689547, 44.6189521]}, "properties": {"osm_id": 1556883618, "osm_type": "node", "amenity": "kindergarten", "check_date": "2024-05-06", "name": "Scuola dell'Infanzia Viviani"}}, {"type": "Feature", "geometry": {"type": "Point", "coordinates": [11.6731225, 44.6238733]}, "properties": {"osm_id": 1557237708, "osm_type": "node", "amenity": "kindergarten", "name": "Cip e Ciop"}}, {"type": "Feature", "geometry": {"type": "Point", "coordinates": [12.8946593, 43.8910411]}, "properties": {"osm_id": 1566397854, "osm_type": "node", "addr:housename": "Prato fiorito", "addr:housenumber": "22", "addr:postcode": "61122", "addr:street": "Via Marsiglia", "amenity": "kindergarten", "name": "Asilo Prato fiorito"}}, {"type": "Feature", "geometry": {"type": "Point", "coordinates": [11.7995764, 45.7314658]}, "properties": {"osm_id": 1567345713, "osm_type": "node", "amenity": "kindergarten", "check_date": "2025-08-29", "name": "Scuola dell'Infanzia Gaetana Sterni"}}, {"type": "Feature", "geometry": {"type": "Point", "coordinates": [9.9280187, 46.1707483]}, "properties": {"osm_id": 1571398965, "osm_type": "node", "amenity": "kindergarten"}}, {"type": "Feature", "geometry": {"type": "Point", "coordinates": [8.8952659, 44.4365751]}, "properties": {"osm_id": 1572558714, "osm_type": "node", "amenity": "kindergarten"}}, {"type": "Feature", "geometry": {"type": "Point", "coordinates": [12.2480633, 43.4584704]}, "properties": {"osm_id": 1573087387, "osm_type": "node", "amenity": "kindergarten", "name": "Scuola Primaria San Pio X"}}, {"type": "Feature", "geometry": {"type": "Point", "coordinates": [12.2481247, 43.4581128]}, "properties": {"osm_id": 1573087389, "osm_type": "node", "amenity": "kindergarten"}}, {"type": "Feature", "geometry": {"type": "Point", "coordinates": [12.2429276, 43.4550847]}, "properties": {"osm_id": 1573254799, "osm_type": "node", "amenity": "kindergarten", "name": "Ex Scuola Infanzia Cavour"}}, {"type": "Feature", "geometry": {"type": "Point", "coordinates": [10.5271155, 44.6942553]}, "properties": {"osm_id": 1575748446, "osm_type": "node", "amenity": "kindergarten"}}, {"type": "Feature", "geometry": {"type": "Point", "coordinates": [11.2743735, 44.5208694]}, "properties": {"osm_id": 1576756690, "osm_type": "node", "amenity": "kindergarten"}}, {"type": "Feature", "geometry": {"type": "Point", "coordinates": [11.2680649, 44.5204028]}, "properties": {"osm_id": 1576756691, "osm_type": "node", "amenity": "kindergarten"}}, {"type": "Feature", "geometry": {"type": "Point", "coordinates": [12.3253626, 45.961425]}, "properties": {"osm_id": 1578819798, "osm_type": "node", "amenity": "kindergarten", "check_date": "2024-03-09", "name": "Alessandro Manzoni"}}, {"type": "Feature", "geometry": {"type": "Point", "coordinates": [12.3042959, 45.9731033]}, "properties": {"osm_id": 1578819808, "osm_type": "node", "amenity": "kindergarten", "check_date": "2026-01-09", "name": "Gianni Rodari"}}, {"type": "Feature", "geometry": {"type": "Point", "coordinates": [11.5028053, 46.5166042]}, "properties": {"osm_id": 1579603007, "osm_type": "node", "amenity": "kindergarten", "name": "Kindergarten Völs am Schlern"}}, {"type": "Feature", "geometry": {"type": "Point", "coordinates": [12.0809753, 45.893102]}, "properties": {"osm_id": 1582957492, "osm_type": "node", "amenity": "kindergarten"}}, {"type": "Feature", "geometry": {"type": "Point", "coordinates": [9.6134783, 44.9987424]}, "properties": {"osm_id": 1582962525, "osm_type": "node", "amenity": "kindergarten"}}, {"type": "Feature", "geometry": {"type": "Point", "coordinates": [11.7747846, 45.7675522]}, "properties": {"osm_id": 1583973410, "osm_type": "node", "amenity": "kindergarten", "name": "Asilo di Fellette"}}, {"type": "Feature", "geometry": {"type": "Point", "coordinates": [10.7296519, 43.8794072]}, "properties": {"osm_id": 1584737971, "osm_type": "node", "amenity": "kindergarten"}}, {"type": "Feature", "geometry": {"type": "Point", "coordinates": [8.9480538, 44.402411]}, "properties": {"osm_id": 1585013815, "osm_type": "node", "amenity": "kindergarten", "name": "Asilo Infantile Borgopila"}}, {"type": "Feature", "geometry": {"type": "Point", "coordinates": [8.9755076, 44.407292]}, "properties": {"osm_id": 1586835374, "osm_type": "node", "amenity": "kindergarten", "name": "Scuola Materna San Martino d'Albaro"}}, {"type": "Feature", "geometry": {"type": "Point", "coordinates": [10.4542373, 44.7600618]}, "properties": {"osm_id": 1588388219, "osm_type": "node", "amenity": "kindergarten", "name": "Asilo comunale Fiastri"}}, {"type": "Feature", "geometry": {"type": "Point", "coordinates": [10.440554, 44.7600171]}, "properties": {"osm_id": 1588388743, "osm_type": "node", "amenity": "kindergarten", "name": "Scuola Materna San Giuseppe"}}, {"type": "Feature", "geometry": {"type": "Point", "coordinates": [11.0379683, 46.2849898]}, "properties": {"osm_id": 1590167259, "osm_type": "node", "amenity": "kindergarten"}}, {"type": "Feature", "geometry": {"type": "Point", "coordinates": [12.2731952, 45.9096762]}, "properties": {"osm_id": 1593464643, "osm_type": "node", "addr:housenumber": "54", "addr:street": "Via Castella", "amenity": "kindergarten", "contact:phone": "+39 0438 34211", "name": "Scuola Materna Santa Maria Goretti", "ref": "TV1A16000P"}}, {"type": "Feature", "geometry": {"type": "Point", "coordinates": [10.8378454, 45.173327]}, "properties": {"osm_id": 1598762738, "osm_type": "node", "amenity": "kindergarten"}}, {"type": "Feature", "geometry": {"type": "Point", "coordinates": [11.1375366, 45.4180478]}, "properties": {"osm_id": 1602173062, "osm_type": "node", "amenity": "kindergarten", "name": "Maria Immacolata"}}, {"type": "Feature", "geometry": {"type": "Point", "coordinates": [7.7157522, 45.0675989]}, "properties": {"osm_id": 1603601080, "osm_type": "node", "amenity": "kindergarten", "check_date": "2024-09-11", "name": "Pippi Calze Lunghe"}}, {"type": "Feature", "geometry": {"type": "Point", "coordinates": [9.4244233, 45.5990586]}, "properties": {"osm_id": 1604621387, "osm_type": "node", "amenity": "kindergarten", "name": "Asilo nido Comunale"}}, {"type": "Feature", "geometry": {"type": "Point", "coordinates": [13.8066412, 45.6021251]}, "properties": {"osm_id": 1614269768, "osm_type": "node", "amenity": "kindergarten", "name": "Casa Primavera"}}, {"type": "Feature", "geometry": {"type": "Point", "coordinates": [13.2240398, 43.1404567]}, "properties": {"osm_id": 1614591296, "osm_type": "node", "amenity": "kindergarten"}}, {"type": "Feature", "geometry": {"type": "Point", "coordinates": [11.526937, 43.6779626]}, "properties": {"osm_id": 1619071410, "osm_type": "node", "amenity": "kindergarten"}}, {"type": "Feature", "geometry": {"type": "Point", "coordinates": [7.8070118, 45.5849117]}, "properties": {"osm_id": 1632852575, "osm_type": "node", "amenity": "kindergarten", "name": "Asilo Di Carema"}}, {"type": "Feature", "geometry": {"type": "Point", "coordinates": [14.0884689, 37.2748915]}, "properties": {"osm_id": 1639138359, "osm_type": "node", "amenity": "kindergarten", "name": "Scuola materna"}}, {"type": "Feature", "geometry": {"type": "Point", "coordinates": [11.0989393, 46.2128542]}, "properties": {"osm_id": 1645012270, "osm_type": "node", "addr:city": "Mezzolombardo", "addr:country": "IT", "addr:housenumber": "19", "addr:postcode": "38017", "addr:street": "Via Riccardo Zandonai", "amenity": "kindergarten", "contact:mobile": "+39 340 4787287", "name": "Micro nido d'infanzia", "opening_hours": "Mo-Fr 08:00-16:30", "operator": "Paoli Alice"}}, {"type": "Feature", "geometry": {"type": "Point", "coordinates": [11.3260759, 43.7165605]}, "properties": {"osm_id": 1646895302, "osm_type": "node", "amenity": "kindergarten"}}, {"type": "Feature", "geometry": {"type": "Point", "coordinates": [11.4430926, 44.7355633]}, "properties": {"osm_id": 1655875389, "osm_type": "node", "amenity": "kindergarten"}}, {"type": "Feature", "geometry": {"type": "Point", "coordinates": [11.443731, 44.7353652]}, "properties": {"osm_id": 1655875454, "osm_type": "node", "amenity": "kindergarten"}}, {"type": "Feature", "geometry": {"type": "Point", "coordinates": [12.3302464, 43.305349]}, "properties": {"osm_id": 1657415842, "osm_type": "node", "amenity": "kindergarten", "name": "Scuola Materna Statale"}}, {"type": "Feature", "geometry": {"type": "Point", "coordinates": [11.5402074, 46.631551]}, "properties": {"osm_id": 1659071253, "osm_type": "node", "amenity": "kindergarten", "name": "Kindergarten - Asilo infantile", "name:de": "Kindergarten", "name:it": "Asilo infantile"}}, {"type": "Feature", "geometry": {"type": "Point", "coordinates": [13.9339419, 42.8219262]}, "properties": {"osm_id": 1662644118, "osm_type": "node", "amenity": "kindergarten"}}, {"type": "Feature", "geometry": {"type": "Point", "coordinates": [8.8981413, 44.4095973]}, "properties": {"osm_id": 1664233119, "osm_type": "node", "access": "yes", "addr:housenumber": "9", "addr:street": "Via Luigi Dottesio", "amenity": "kindergarten", "check_date": "2026-03-28", "name": "Scuola materna comunale Maria Mazzini"}}, {"type": "Feature", "geometry": {"type": "Point", "coordinates": [10.3185118, 43.5598843]}, "properties": {"osm_id": 1665351416, "osm_type": "node", "addr:street": "Via della Bastia", "amenity": "kindergarten", "description:it": "asilo nido privato", "isced:level": "0", "max_age": "3", "min_age": "0", "name": "Casa del Re", "nursery": "yes", "operator:type": "private"}}, {"type": "Feature", "geometry": {"type": "Point", "coordinates": [8.9463704, 44.4145044]}, "properties": {"osm_id": 1666619951, "osm_type": "node", "amenity": "kindergarten", "name": "Scuola Materna Suore Medee"}}, {"type": "Feature", "geometry": {"type": "Point", "coordinates": [13.6833087, 42.8322507]}, "properties": {"osm_id": 1667454480, "osm_type": "node", "amenity": "kindergarten"}}, {"type": "Feature", "geometry": {"type": "Point", "coordinates": [8.9017129, 44.4435687]}, "properties": {"osm_id": 1678776409, "osm_type": "node", "access": "yes", "addr:housenumber": "79", "addr:postcode": "16159", "addr:street": "Via Carlo Linneo", "amenity": "kindergarten", "barrier": "entrance", "contact:phone": "+39 010 7402314", "name": "Asilo Nido Comunale Centofiori"}}, {"type": "Feature", "geometry": {"type": "Point", "coordinates": [13.2165983, 46.160417]}, "properties": {"osm_id": 1681615840, "osm_type": "node", "amenity": "kindergarten", "name": "Scuola dell'Infanzia \"Maria Costantini\"", "name:fur": "Scuele de Infanzie \"Costantini\""}}, {"type": "Feature", "geometry": {"type": "Point", "coordinates": [8.9477975, 44.4280108]}, "properties": {"osm_id": 1684253536, "osm_type": "node", "addr:housenumber": "68", "addr:postcode": "16137", "addr:street": "Via Bobbio", "amenity": "kindergarten", "contact:phone": "+39 010 8394642", "isced:level": "0", "name": "Asilo nido Casetta degli Orsacchiotti", "nursery": "yes"}}, {"type": "Feature", "geometry": {"type": "Point", "coordinates": [8.9804987, 44.3944322]}, "properties": {"osm_id": 1684289457, "osm_type": "node", "addr:full": "Via Bartolomeo Chighizola 15, 16147 Genova", "amenity": "kindergarten", "contact:fax": "+39 010 382532", "contact:phone": "+39 010 389416", "isced:level": "0", "name": "Scuola Infanzia Chighizola"}}, {"type": "Feature", "geometry": {"type": "Point", "coordinates": [12.1430643, 43.5740157]}, "properties": {"osm_id": 1685870513, "osm_type": "node", "amenity": "kindergarten"}}, {"type": "Feature", "geometry": {"type": "Point", "coordinates": [9.6692406, 45.5807274]}, "properties": {"osm_id": 1687312086, "osm_type": "node", "amenity": "kindergarten", "check_date": "2023-06-06", "name": "Asilo"}}, {"type": "Feature", "geometry": {"type": "Point", "coordinates": [13.2202585, 46.1803823]}, "properties": {"osm_id": 1691833776, "osm_type": "node", "amenity": "kindergarten", "name": "Scuola Primaria \"S.ta Maria dei Colli\""}}, {"type": "Feature", "geometry": {"type": "Point", "coordinates": [11.4039315, 44.3235031]}, "properties": {"osm_id": 1699816501, "osm_type": "node", "amenity": "kindergarten"}}, {"type": "Feature", "geometry": {"type": "Point", "coordinates": [11.8751152, 45.8546116]}, "properties": {"osm_id": 1701214806, "osm_type": "node", "amenity": "kindergarten", "name": "Socal-Cunial"}}, {"type": "Feature", "geometry": {"type": "Point", "coordinates": [9.48575, 45.5787917]}, "properties": {"osm_id": 1706464546, "osm_type": "node", "amenity": "kindergarten"}}, {"type": "Feature", "geometry": {"type": "Point", "coordinates": [8.9727133, 44.3938283]}, "properties": {"osm_id": 1707501615, "osm_type": "node", "amenity": "kindergarten", "isced:level": "0", "name": "Asilo L'Aquilone"}}, {"type": "Feature", "geometry": {"type": "Point", "coordinates": [8.9725932, 44.3933106]}, "properties": {"osm_id": 1707501663, "osm_type": "node", "amenity": "kindergarten", "isced:level": "0", "name": "Scuola Materna Suore figlie di San Giuseppe"}}, {"type": "Feature", "geometry": {"type": "Point", "coordinates": [12.5988159, 45.8952614]}, "properties": {"osm_id": 1709216060, "osm_type": "node", "addr:postcode": "33080", "addr:street": "Via Roma", "amenity": "kindergarten", "name": "Scuola Materna \"S.Giuseppe\""}}, {"type": "Feature", "geometry": {"type": "Point", "coordinates": [9.4119971, 45.4789522]}, "properties": {"osm_id": 1709715469, "osm_type": "node", "amenity": "kindergarten", "name": "Asilo"}}, {"type": "Feature", "geometry": {"type": "Point", "coordinates": [12.1885098, 44.2024734]}, "properties": {"osm_id": 1713229378, "osm_type": "node", "amenity": "kindergarten", "name": "Asilo comunale"}}, {"type": "Feature", "geometry": {"type": "Point", "coordinates": [12.1914918, 44.1995829]}, "properties": {"osm_id": 1714098308, "osm_type": "node", "amenity": "kindergarten"}}, {"type": "Feature", "geometry": {"type": "Point", "coordinates": [8.8102989, 44.4269197]}, "properties": {"osm_id": 1718638082, "osm_type": "node", "amenity": "kindergarten", "name": "Scuola Materna Viale Modugno 18"}}, {"type": "Feature", "geometry": {"type": "Point", "coordinates": [8.7701205, 44.4585944]}, "properties": {"osm_id": 1719117787, "osm_type": "node", "amenity": "kindergarten", "isced:level": "0", "name": "Scuola Materna Venerabile Maria Cristina"}}, {"type": "Feature", "geometry": {"type": "Point", "coordinates": [12.4123039, 44.1099102]}, "properties": {"osm_id": 1719394024, "osm_type": "node", "amenity": "kindergarten"}}, {"type": "Feature", "geometry": {"type": "Point", "coordinates": [7.7698231, 43.8265324]}, "properties": {"osm_id": 1722836483, "osm_type": "node", "amenity": "kindergarten"}}, {"type": "Feature", "geometry": {"type": "Point", "coordinates": [11.4870833, 45.5829795]}, "properties": {"osm_id": 1731033571, "osm_type": "node", "amenity": "kindergarten", "check_date": "2023-04-25", "name": "Scuola dell'infanzia \"Santi Angeli Custodi\""}}, {"type": "Feature", "geometry": {"type": "Point", "coordinates": [11.4961613, 45.5998421]}, "properties": {"osm_id": 1731056853, "osm_type": "node", "amenity": "kindergarten", "name": "Scuola dell'infanzia \"S. Gaetano\""}}, {"type": "Feature", "geometry": {"type": "Point", "coordinates": [16.9230358, 41.1065694]}, "properties": {"osm_id": 1733885221, "osm_type": "node", "amenity": "kindergarten"}}, {"type": "Feature", "geometry": {"type": "Point", "coordinates": [9.1649873, 45.5637568]}, "properties": {"osm_id": 1734271335, "osm_type": "node", "amenity": "kindergarten"}}, {"type": "Feature", "geometry": {"type": "Point", "coordinates": [9.1757672, 45.5589943]}, "properties": {"osm_id": 1734567918, "osm_type": "node", "amenity": "kindergarten", "name": "Spazio Infanzia via Fermi / Leopardi"}}, {"type": "Feature", "geometry": {"type": "Point", "coordinates": [9.1607394, 45.5575636]}, "properties": {"osm_id": 1735354526, "osm_type": "node", "amenity": "kindergarten", "name": "Scuola dell'Infanzia di \"Via Trieste\""}}, {"type": "Feature", "geometry": {"type": "Point", "coordinates": [9.1620114, 45.5608021]}, "properties": {"osm_id": 1735354564, "osm_type": "node", "amenity": "kindergarten", "name": "Scuola dell'Infanzia di \"Via Cesare Battisti\""}}, {"type": "Feature", "geometry": {"type": "Point", "coordinates": [8.2095952, 44.387878]}, "properties": {"osm_id": 1736069706, "osm_type": "node", "amenity": "kindergarten"}}, {"type": "Feature", "geometry": {"type": "Point", "coordinates": [10.1151528, 44.7236768]}, "properties": {"osm_id": 1740246271, "osm_type": "node", "addr:housenumber": "38", "addr:street": "Via Guido Picelli", "amenity": "kindergarten", "name": "Scuola materna Michele Valenti"}}, {"type": "Feature", "geometry": {"type": "Point", "coordinates": [12.1944068, 46.1336748]}, "properties": {"osm_id": 1740901546, "osm_type": "node", "amenity": "kindergarten", "name": "Parco di Mier"}}, {"type": "Feature", "geometry": {"type": "Point", "coordinates": [11.3457451, 46.4861646]}, "properties": {"osm_id": 1741900992, "osm_type": "node", "amenity": "kindergarten", "name": "Asilo nido Quadrifoglio"}}, {"type": "Feature", "geometry": {"type": "Point", "coordinates": [9.1661977, 45.5649555]}, "properties": {"osm_id": 1742150553, "osm_type": "node", "amenity": "kindergarten", "name": "Asilo Nido Pantachora"}}, {"type": "Feature", "geometry": {"type": "Point", "coordinates": [9.1967721, 45.5710073]}, "properties": {"osm_id": 1742696953, "osm_type": "node", "amenity": "kindergarten", "name": "Nido dell'Infanzia di Via Sondrio"}}, {"type": "Feature", "geometry": {"type": "Point", "coordinates": [13.1161201, 45.9301698]}, "properties": {"osm_id": 1746131166, "osm_type": "node", "amenity": "kindergarten", "check_date": "2024-02-26", "email": "ugocaparini@libero.it", "name": "Scuola d'Infanzia Paritaria Ugo Caparini", "phone": "+39 0432 766077", "preschool": "yes"}}, {"type": "Feature", "geometry": {"type": "Point", "coordinates": [14.3363677, 41.0807359]}, "properties": {"osm_id": 1749482518, "osm_type": "node", "amenity": "kindergarten"}}, {"type": "Feature", "geometry": {"type": "Point", "coordinates": [7.3897793, 45.3121472]}, "properties": {"osm_id": 1756204375, "osm_type": "node", "addr:housenumber": "7", "addr:street": "Viale Stazione", "amenity": "kindergarten", "isced:level": "0", "name": "Scuola dell'infanzia di Ceres", "operator": "Istituto Comprensivo Ceres", "ref": "TOAA80904T", "wikidata": "Q52781860"}}, {"type": "Feature", "geometry": {"type": "Point", "coordinates": [13.1606522, 41.7425271]}, "properties": {"osm_id": 1756545341, "osm_type": "node", "amenity": "kindergarten", "entrance": "yes", "name": "Scuola dell'Infanzia Suor Claudia de Angelis"}}, {"type": "Feature", "geometry": {"type": "Point", "coordinates": [14.7045774, 36.7922135]}, "properties": {"osm_id": 1758240274, "osm_type": "node", "amenity": "kindergarten", "name": "Asilo Chiesa Metodista", "source": "bilbo"}}, {"type": "Feature", "geometry": {"type": "Point", "coordinates": [7.3876399, 45.3389206]}, "properties": {"osm_id": 1763138878, "osm_type": "node", "amenity": "kindergarten", "isced:level": "0", "name": "Scuola Materna Statale \"Anna Teppa\""}}, {"type": "Feature", "geometry": {"type": "Point", "coordinates": [12.2571119, 43.3511436]}, "properties": {"osm_id": 1763899477, "osm_type": "node", "amenity": "kindergarten", "name": "Scuola materna"}}, {"type": "Feature", "geometry": {"type": "Point", "coordinates": [9.359922, 46.4370222]}, "properties": {"osm_id": 1765382319, "osm_type": "node", "addr:city": "Madesimo", "addr:housenumber": "18", "addr:postcode": "23024", "addr:street": "Via Giosuè Carducci", "amenity": "kindergarten", "email": "soic806009@istruzione.it", "name": "Scuola dell'Infanzia Madesimo", "network": "Istituto Comprensivo Giuseppe Garibaldi", "operator:type": "public", "phone": "+39034354183", "ref": "SOAA806038"}}, {"type": "Feature", "geometry": {"type": "Point", "coordinates": [9.2417862, 46.0222306]}, "properties": {"osm_id": 1765382347, "osm_type": "node", "amenity": "kindergarten"}}, {"type": "Feature", "geometry": {"type": "Point", "coordinates": [9.1052374, 44.3743478]}, "properties": {"osm_id": 1773084974, "osm_type": "node", "amenity": "kindergarten"}}, {"type": "Feature", "geometry": {"type": "Point", "coordinates": [11.229059, 46.7862494]}, "properties": {"osm_id": 1776068972, "osm_type": "node", "amenity": "kindergarten"}}, {"type": "Feature", "geometry": {"type": "Point", "coordinates": [10.8728639, 45.5259619]}, "properties": {"osm_id": 1777369305, "osm_type": "node", "amenity": "kindergarten"}}, {"type": "Feature", "geometry": {"type": "Point", "coordinates": [11.7991735, 45.6540455]}, "properties": {"osm_id": 1777705041, "osm_type": "node", "amenity": "kindergarten"}}, {"type": "Feature", "geometry": {"type": "Point", "coordinates": [12.1610128, 43.437324]}, "properties": {"osm_id": 1779019666, "osm_type": "node", "addr:city": "Monte Santa Maria Tiberina", "addr:housenumber": "6", "addr:postcode": "06010", "addr:street": "Largo Dante Alighieri", "amenity": "kindergarten", "name": "Borgo Antico"}}, {"type": "Feature", "geometry": {"type": "Point", "coordinates": [8.9308047, 44.415871]}, "properties": {"osm_id": 1787838067, "osm_type": "node", "amenity": "kindergarten", "description": "comunale / paritaria", "isced:level": "0", "name": "Scuola dell'infanzia Comunale San Luigi", "operator": "Comune di Genova Municipio 1"}}, {"type": "Feature", "geometry": {"type": "Point", "coordinates": [7.5811507, 45.0652109]}, "properties": {"osm_id": 1788854536, "osm_type": "node", "amenity": "kindergarten", "name": "Asilo Nido Beatrice Allende"}}, {"type": "Feature", "geometry": {"type": "Point", "coordinates": [9.1611628, 45.0274747]}, "properties": {"osm_id": 1797156431, "osm_type": "node", "amenity": "kindergarten"}}, {"type": "Feature", "geometry": {"type": "Point", "coordinates": [9.9940719, 45.868378]}, "properties": {"osm_id": 1801498132, "osm_type": "node", "amenity": "kindergarten", "name": "Asilo"}}, {"type": "Feature", "geometry": {"type": "Point", "coordinates": [11.2054968, 46.1162995]}, "properties": {"osm_id": 1809408737, "osm_type": "node", "addr:city": "Fornace", "addr:country": "IT", "addr:housenumber": "16", "addr:postcode": "38040", "addr:street": "Via del Borgolét", "amenity": "kindergarten", "name": "Scuola Materna"}}, {"type": "Feature", "geometry": {"type": "Point", "coordinates": [13.3419508, 41.7764916]}, "properties": {"osm_id": 1812733159, "osm_type": "node", "amenity": "kindergarten", "name": "Asilo Infantile"}}, {"type": "Feature", "geometry": {"type": "Point", "coordinates": [13.4173543, 41.6902852]}, "properties": {"osm_id": 1815739665, "osm_type": "node", "addr:city": "Veroli", "addr:postcode": "03029", "addr:street": "Largo Pietro Mobili", "amenity": "kindergarten", "name": "Asilo Nido il Pulcino", "operator": "Città di Veroli", "phone": "+39 0775 230483"}}, {"type": "Feature", "geometry": {"type": "Point", "coordinates": [10.8615854, 44.5970526]}, "properties": {"osm_id": 1819529453, "osm_type": "node", "amenity": "kindergarten"}}, {"type": "Feature", "geometry": {"type": "Point", "coordinates": [9.5642279, 45.7029256]}, "properties": {"osm_id": 1824295758, "osm_type": "node", "amenity": "kindergarten", "name": "Scuola dell'infanzia"}}, {"type": "Feature", "geometry": {"type": "Point", "coordinates": [13.7881156, 45.6523761]}, "properties": {"osm_id": 1830063104, "osm_type": "node", "amenity": "kindergarten", "name": "Otroške jasli Trst", "preschool": "yes"}}, {"type": "Feature", "geometry": {"type": "Point", "coordinates": [13.7882681, 45.6521991]}, "properties": {"osm_id": 1830063109, "osm_type": "node", "amenity": "kindergarten", "email": "urad@dijaski.it", "name": "Slovenski dijaški dom Srečka Kosovela", "phone": "+39 040 573141", "website": "https://www.dijaski.it/"}}, {"type": "Feature", "geometry": {"type": "Point", "coordinates": [11.9918107, 42.6403057]}, "properties": {"osm_id": 1831393624, "osm_type": "node", "amenity": "kindergarten", "name": "Scuola Materna Statale"}}, {"type": "Feature", "geometry": {"type": "Point", "coordinates": [10.7231199, 42.9363314]}, "properties": {"osm_id": 1835864726, "osm_type": "node", "access": "customers", "amenity": "kindergarten", "name": "Mini Club", "operator": "Golfo del Sole"}}, {"type": "Feature", "geometry": {"type": "Point", "coordinates": [7.2250057, 45.7085872]}, "properties": {"osm_id": 1836223313, "osm_type": "node", "amenity": "kindergarten"}}, {"type": "Feature", "geometry": {"type": "Point", "coordinates": [16.8393011, 40.9008411]}, "properties": {"osm_id": 1836466430, "osm_type": "node", "amenity": "kindergarten", "name": "Scuola dell'Infanzia", "wheelchair": "yes"}}, {"type": "Feature", "geometry": {"type": "Point", "coordinates": [16.8489548, 40.90238]}, "properties": {"osm_id": 1838678885, "osm_type": "node", "amenity": "kindergarten"}}, {"type": "Feature", "geometry": {"type": "Point", "coordinates": [7.1819852, 44.9558286]}, "properties": {"osm_id": 1840519544, "osm_type": "node", "amenity": "kindergarten", "name": "Asilo Nido La Trottola"}}, {"type": "Feature", "geometry": {"type": "Point", "coordinates": [7.1824313, 44.9551521]}, "properties": {"osm_id": 1840519546, "osm_type": "node", "amenity": "kindergarten", "name": "Asilo comunale"}}, {"type": "Feature", "geometry": {"type": "Point", "coordinates": [7.2243865, 44.8435086]}, "properties": {"osm_id": 1844971583, "osm_type": "node", "amenity": "kindergarten", "name": "IC G.Rodari scuola dell'infanzia"}}, {"type": "Feature", "geometry": {"type": "Point", "coordinates": [11.4899963, 45.4519101]}, "properties": {"osm_id": 1854435535, "osm_type": "node", "amenity": "kindergarten"}}, {"type": "Feature", "geometry": {"type": "Point", "coordinates": [13.1887174, 46.0714175]}, "properties": {"osm_id": 1854458699, "osm_type": "node", "amenity": "kindergarten", "isced:level": "0", "name": "Scuola dell'infanzia Passons", "ref": "UDAA856022"}}, {"type": "Feature", "geometry": {"type": "Point", "coordinates": [11.1059104, 45.4236738]}, "properties": {"osm_id": 1855526821, "osm_type": "node", "amenity": "kindergarten"}}, {"type": "Feature", "geometry": {"type": "Point", "coordinates": [11.0951869, 45.4222318]}, "properties": {"osm_id": 1855581274, "osm_type": "node", "amenity": "kindergarten"}}, {"type": "Feature", "geometry": {"type": "Point", "coordinates": [9.9892868, 45.8798761]}, "properties": {"osm_id": 1857255693, "osm_type": "node", "amenity": "kindergarten"}}, {"type": "Feature", "geometry": {"type": "Point", "coordinates": [8.5996881, 44.9033014]}, "properties": {"osm_id": 1859945465, "osm_type": "node", "amenity": "kindergarten", "isced:level": "0"}}, {"type": "Feature", "geometry": {"type": "Point", "coordinates": [8.4860085, 44.8616386]}, "properties": {"osm_id": 1868619292, "osm_type": "node", "amenity": "kindergarten", "name": "Scuola Materna"}}, {"type": "Feature", "geometry": {"type": "Point", "coordinates": [11.4533152, 43.7242111]}, "properties": {"osm_id": 1868819582, "osm_type": "node", "amenity": "kindergarten"}}, {"type": "Feature", "geometry": {"type": "Point", "coordinates": [9.1216727, 44.3906336]}, "properties": {"osm_id": 1869311366, "osm_type": "node", "amenity": "kindergarten"}}, {"type": "Feature", "geometry": {"type": "Point", "coordinates": [12.8415017, 45.7590553]}, "properties": {"osm_id": 1877874343, "osm_type": "node", "amenity": "kindergarten", "name": "Asilo nido Skarabocchio"}}, {"type": "Feature", "geometry": {"type": "Point", "coordinates": [7.8457381, 45.4497383]}, "properties": {"osm_id": 1880420391, "osm_type": "node", "amenity": "kindergarten", "name": "Scuola dell'Infanzia Asili Nido Miele&Cricri"}}, {"type": "Feature", "geometry": {"type": "Point", "coordinates": [8.9650186, 44.3935349]}, "properties": {"osm_id": 1882335063, "osm_type": "node", "addr:housenumber": "10", "amenity": "kindergarten", "name": "Scuola Materna elementare suore Benedettine della provvidenza"}}, {"type": "Feature", "geometry": {"type": "Point", "coordinates": [12.6734375, 41.8044889]}, "properties": {"osm_id": 1882896003, "osm_type": "node", "amenity": "kindergarten", "name": "Scuola dell'Infanzia Villa Sciarra", "operator": "Istituto Comprensivo di Frascati", "ref:IT:CM": "RMAA8C3025"}}, {"type": "Feature", "geometry": {"type": "Point", "coordinates": [15.087579, 40.8877755]}, "properties": {"osm_id": 1883279345, "osm_type": "node", "amenity": "kindergarten"}}, {"type": "Feature", "geometry": {"type": "Point", "coordinates": [15.0871018, 40.8866724]}, "properties": {"osm_id": 1883279463, "osm_type": "node", "amenity": "kindergarten"}}, {"type": "Feature", "geometry": {"type": "Point", "coordinates": [9.2860223, 45.3216089]}, "properties": {"osm_id": 1888088002, "osm_type": "node", "amenity": "kindergarten"}}, {"type": "Feature", "geometry": {"type": "Point", "coordinates": [9.5275977, 45.1576108]}, "properties": {"osm_id": 1888844583, "osm_type": "node", "amenity": "kindergarten"}}, {"type": "Feature", "geometry": {"type": "Point", "coordinates": [8.7845164, 44.4282875]}, "properties": {"osm_id": 1889446843, "osm_type": "node", "addr:housenumber": "1", "addr:street": "Salita Lorenzo Cappelloni", "amenity": "kindergarten", "name": "Scuola Infanzia Emma Valle"}}, {"type": "Feature", "geometry": {"type": "Point", "coordinates": [7.9643571, 45.2480711]}, "properties": {"osm_id": 1891101057, "osm_type": "node", "amenity": "kindergarten"}}, {"type": "Feature", "geometry": {"type": "Point", "coordinates": [8.8857637, 44.4168287]}, "properties": {"osm_id": 1891142165, "osm_type": "node", "addr:housenumber": "25b", "addr:street": "Via Paolo Reti", "amenity": "kindergarten", "isced:level": "0", "name": "Asilo Nido Mongolfiera", "nursery": "yes", "phone": "+39 010 413266"}}, {"type": "Feature", "geometry": {"type": "Point", "coordinates": [8.8864723, 44.4157486]}, "properties": {"osm_id": 1891142169, "osm_type": "node", "access": "yes", "addr:housenumber": "2", "addr:postcode": "16151", "addr:street": "Via Dante Gaetano Storace", "amenity": "kindergarten", "barrier": "entrance", "contact:fax": "+39 010 6456458", "contact:phone": "+39 010 6459262", "name": "Scuola Infanzia Firpo"}}, {"type": "Feature", "geometry": {"type": "Point", "coordinates": [8.9525553, 44.4080113]}, "properties": {"osm_id": 1893269211, "osm_type": "node", "addr:housenumber": "2", "addr:street": "Piazza Manzoni", "amenity": "kindergarten", "check_date": "2025-11-01", "name": "Scuola infanzia San Fruttuoso"}}, {"type": "Feature", "geometry": {"type": "Point", "coordinates": [9.207595, 45.7410437]}, "properties": {"osm_id": 1893927007, "osm_type": "node", "amenity": "kindergarten", "education": "kindergarten", "name": "asilo"}}, {"type": "Feature", "geometry": {"type": "Point", "coordinates": [8.9177521, 44.4195139]}, "properties": {"osm_id": 1896291183, "osm_type": "node", "addr:housenumber": "8", "addr:street": "Via Adamo Centurione", "amenity": "kindergarten", "check_date": "2026-04-01", "isced:level": "0", "name": "Scuola dell'infanzia Monticelli", "operator": "Comune di Genova Municipio 1"}}, {"type": "Feature", "geometry": {"type": "Point", "coordinates": [11.3423307, 45.4617834]}, "properties": {"osm_id": 1896721527, "osm_type": "node", "amenity": "kindergarten", "name": "Scuola Materna"}}, {"type": "Feature", "geometry": {"type": "Point", "coordinates": [12.6215793, 42.5353389]}, "properties": {"osm_id": 1902741170, "osm_type": "node", "amenity": "kindergarten"}}, {"type": "Feature", "geometry": {"type": "Point", "coordinates": [12.7714421, 45.9666081]}, "properties": {"osm_id": 1906534964, "osm_type": "node", "amenity": "kindergarten"}}, {"type": "Feature", "geometry": {"type": "Point", "coordinates": [9.028675, 45.6292548]}, "properties": {"osm_id": 1907105860, "osm_type": "node", "amenity": "kindergarten", "fixme": "posizione"}}, {"type": "Feature", "geometry": {"type": "Point", "coordinates": [11.3908764, 45.7369454]}, "properties": {"osm_id": 1910157138, "osm_type": "node", "addr:city": "Santorso", "addr:postcode": "36014", "addr:street": "Via S.Maria", "amenity": "kindergarten", "name": "Scuola dell'Infanzia S. Giuseppe", "preschool": "yes"}}, {"type": "Feature", "geometry": {"type": "Point", "coordinates": [9.5176212, 44.2748146]}, "properties": {"osm_id": 1920895368, "osm_type": "node", "amenity": "kindergarten"}}, {"type": "Feature", "geometry": {"type": "Point", "coordinates": [7.5462578, 44.3894222]}, "properties": {"osm_id": 1922721438, "osm_type": "node", "addr:housenumber": "2", "addr:street": "Corso Marcello Soleri", "amenity": "kindergarten", "email": "info@istitutofiore.it", "fax": "+39 0171 692263", "isced:level": "0", "name": "Scuola dell'infanzia paritaria \"Sacra Famiglia\"", "phone": "+39 0171 692713", "ref": "CN1A031001", "website": "https://istitutofiore.it/"}}, {"type": "Feature", "geometry": {"type": "Point", "coordinates": [9.0627108, 46.0264011]}, "properties": {"osm_id": 1925835880, "osm_type": "node", "amenity": "kindergarten", "education": "kindergarten"}}, {"type": "Feature", "geometry": {"type": "Point", "coordinates": [9.828181, 44.0794975]}, "properties": {"osm_id": 1932203350, "osm_type": "node", "amenity": "kindergarten", "name": "Via dei Cantiri"}}, {"type": "Feature", "geometry": {"type": "Point", "coordinates": [12.3890567, 43.2636221]}, "properties": {"osm_id": 1940761267, "osm_type": "node", "addr:street": "Via Don Luigi Sturzo", "amenity": "kindergarten", "isced:level": "0"}}, {"type": "Feature", "geometry": {"type": "Point", "coordinates": [11.8510809, 45.8427183]}, "properties": {"osm_id": 1941436227, "osm_type": "node", "addr:housenumber": "18", "addr:street": "Piazza Fietta", "amenity": "kindergarten", "name": "Caterina Basso"}}, {"type": "Feature", "geometry": {"type": "Point", "coordinates": [14.3267674, 42.2957688]}, "properties": {"osm_id": 1942054326, "osm_type": "node", "amenity": "kindergarten"}}, {"type": "Feature", "geometry": {"type": "Point", "coordinates": [13.7719688, 45.6514773]}, "properties": {"osm_id": 1943809404, "osm_type": "node", "addr:city": "Trieste", "addr:housenumber": "9", "addr:postcode": "34121", "addr:street": "Via Roma", "amenity": "kindergarten", "education": "kindergarten", "name": "Torre delle Favole"}}, {"type": "Feature", "geometry": {"type": "Point", "coordinates": [12.6097771, 45.7743881]}, "properties": {"osm_id": 1945796850, "osm_type": "node", "amenity": "kindergarten", "name": "Asilo"}}, {"type": "Feature", "geometry": {"type": "Point", "coordinates": [7.1464018, 45.1361292]}, "properties": {"osm_id": 1946042913, "osm_type": "node", "amenity": "kindergarten"}}, {"type": "Feature", "geometry": {"type": "Point", "coordinates": [12.1569929, 45.5233914]}, "properties": {"osm_id": 1961116707, "osm_type": "node", "addr:city": "Maerne", "addr:housenumber": "49", "addr:postcode": "30030", "addr:street": "Piazza Quattro Novembre", "amenity": "kindergarten", "name": "Scuola materna \"Adamo Volpato\" e Nido \"Nazareth\"", "operator": "Parrocchia", "operator:type": "religious", "preschool": "yes"}}, {"type": "Feature", "geometry": {"type": "Point", "coordinates": [7.7192715, 45.3213643]}, "properties": {"osm_id": 1965642053, "osm_type": "node", "amenity": "kindergarten", "name": "Madre Antonia M. Verna"}}, {"type": "Feature", "geometry": {"type": "Point", "coordinates": [10.3411848, 43.8666492]}, "properties": {"osm_id": 1965829702, "osm_type": "node", "amenity": "kindergarten", "name": "asilo nido Del Magro"}}, {"type": "Feature", "geometry": {"type": "Point", "coordinates": [11.3819989, 46.8835359]}, "properties": {"osm_id": 1970269787, "osm_type": "node", "amenity": "kindergarten", "name": "Kindergarten Stange - Asilo Stanghe"}}, {"type": "Feature", "geometry": {"type": "Point", "coordinates": [8.9457161, 45.7787255]}, "properties": {"osm_id": 1977814489, "osm_type": "node", "addr:housenumber": "2", "addr:postcode": "22070", "addr:street": "Corso Roma", "amenity": "kindergarten", "name": "Scuola Dell'Infanzia Ceriana Don Carlo"}}, {"type": "Feature", "geometry": {"type": "Point", "coordinates": [9.4006115, 45.8072515]}, "properties": {"osm_id": 1978116033, "osm_type": "node", "amenity": "kindergarten", "name": "Scuola dell'Infanzia Carlo Collodi"}}, {"type": "Feature", "geometry": {"type": "Point", "coordinates": [12.9652521, 41.8232012]}, "properties": {"osm_id": 1979442466, "osm_type": "node", "addr:city": "Genazzano", "addr:postcode": "00030", "addr:street": "via Pietro Nenni", "amenity": "kindergarten", "name": "Asilo San Filippo"}}, {"type": "Feature", "geometry": {"type": "Point", "coordinates": [12.9739317, 41.8253799]}, "properties": {"osm_id": 1979442467, "osm_type": "node", "amenity": "kindergarten", "name": "Asilo La signoretta"}}, {"type": "Feature", "geometry": {"type": "Point", "coordinates": [10.3593683, 43.8546272]}, "properties": {"osm_id": 1985796657, "osm_type": "node", "amenity": "kindergarten"}}, {"type": "Feature", "geometry": {"type": "Point", "coordinates": [9.8613546, 44.1632719]}, "properties": {"osm_id": 1985881949, "osm_type": "node", "amenity": "kindergarten"}}, {"type": "Feature", "geometry": {"type": "Point", "coordinates": [7.2197405, 45.7083802]}, "properties": {"osm_id": 1988111922, "osm_type": "node", "amenity": "kindergarten", "name": "Le Nid du Paradis"}}, {"type": "Feature", "geometry": {"type": "Point", "coordinates": [12.4151092, 44.1055941]}, "properties": {"osm_id": 1991044863, "osm_type": "node", "addr:housenumber": "2", "addr:postcode": "47030", "addr:street": "Via Don Minzoni", "amenity": "kindergarten", "name": "Scuola dell'infanzia \"La Rondine\""}}, {"type": "Feature", "geometry": {"type": "Point", "coordinates": [9.0146078, 44.4498225]},