{"type": "FeatureCollection", "features": [{"type": "Feature", "geometry": {"type": "Point", "coordinates": [13.3587758, 52.5347753]}, "properties": {"osm_id": 29040731, "osm_type": "node", "amenity": "place_of_worship", "check_date": "2024-08-01", "name": "Sultan Ahmed Camii", "religion": "muslim", "wheelchair": "yes"}}, {"type": "Feature", "geometry": {"type": "Point", "coordinates": [8.6241976, 50.1348342]}, "properties": {"osm_id": 31805530, "osm_type": "node", "addr:city": "Frankfurt am Main", "addr:housenumber": "21", "addr:postcode": "60488", "addr:street": "Praunheimer Landstraße", "alt_name": "Abubakr-Moschee", "amenity": "place_of_worship", "check_date": "2023-08-09", "denomination": "sunni", "name": "Abu-Bakr-Moschee - Islamische Gemeinde Frankfurt e.V.", "religion": "muslim", "website": "http://www.abubakr.de", "wheelchair": "yes"}}, {"type": "Feature", "geometry": {"type": "Point", "coordinates": [7.027059, 52.0875001]}, "properties": {"osm_id": 80455051, "osm_type": "node", "amenity": "place_of_worship", "name": "Aksa Moschee", "religion": "muslim"}}, {"type": "Feature", "geometry": {"type": "Point", "coordinates": [11.6340966, 48.210352]}, "properties": {"osm_id": 221616058, "osm_type": "node", "addr:city": "München", "addr:country": "DE", "addr:housenumber": "1", "addr:postcode": "80939", "addr:street": "Wallnerstraße", "amenity": "place_of_worship", "check_date": "2026-04-20", "name": "Islamisches Zentrum München", "religion": "muslim", "toilets:wheelchair": "no", "website": "https://islamisches-zentrum-muenchen.de", "wheelchair": "limited", "wikidata": "Q1454557", "wikipedia": "de:Freimann-Moschee"}}, {"type": "Feature", "geometry": {"type": "Point", "coordinates": [6.1283517, 50.8966684]}, "properties": {"osm_id": 246979777, "osm_type": "node", "amenity": "place_of_worship", "name": "Emir-Sultan-Moschee", "religion": "muslim", "wheelchair": "no"}}, {"type": "Feature", "geometry": {"type": "Point", "coordinates": [9.2079085, 52.6433132]}, "properties": {"osm_id": 247991483, "osm_type": "node", "addr:city": "Nienburg/Weser", "addr:country": "DE", "addr:housenumber": "1", "addr:postcode": "31582", "addr:street": "Verdener Straße", "amenity": "place_of_worship", "check_date": "2024-09-07", "name": "Türkisch-Islamische Gemeinde zu Nienburg e.V.", "religion": "muslim"}}, {"type": "Feature", "geometry": {"type": "Point", "coordinates": [8.0534892, 52.2745542]}, "properties": {"osm_id": 257658481, "osm_type": "node", "amenity": "place_of_worship", "check_date": "2025-06-02", "name": "Ibrahim Al-Khalil", "religion": "muslim", "wikidata": "Q89207860"}}, {"type": "Feature", "geometry": {"type": "Point", "coordinates": [8.6542564, 50.1438869]}, "properties": {"osm_id": 267282877, "osm_type": "node", "addr:city": "Frankfurt am Main", "addr:housenumber": "6", "addr:postcode": "60431", "addr:street": "Raimundstraße", "amenity": "place_of_worship", "check_date": "2025-04-13", "denomination": "sunni", "name": "Falah Moschee", "operator": "DawaFFM", "religion": "muslim", "wheelchair": "no"}}, {"type": "Feature", "geometry": {"type": "Point", "coordinates": [9.0905765, 52.1971785]}, "properties": {"osm_id": 268825377, "osm_type": "node", "addr:city": "Rinteln", "addr:country": "DE", "addr:housenumber": "1", "addr:postcode": "31737", "addr:street": "Im Emerten", "amenity": "place_of_worship", "name": "Moschee", "religion": "muslim", "toilets:wheelchair": "no", "wheelchair": "limited"}}, {"type": "Feature", "geometry": {"type": "Point", "coordinates": [10.2079655, 50.0360923]}, "properties": {"osm_id": 271039152, "osm_type": "node", "addr:city": "Schweinfurt", "addr:country": "DE", "addr:housenumber": "14", "addr:postcode": "97424", "addr:street": "Wirsingstraße", "amenity": "place_of_worship", "check_date": "2025-04-27", "denomination": "muslim", "name": "Diyanet Moschee", "religion": "muslim", "toilets:wheelchair": "no", "wheelchair": "no"}}, {"type": "Feature", "geometry": {"type": "Point", "coordinates": [8.6434851, 49.8064383]}, "properties": {"osm_id": 271405445, "osm_type": "node", "addr:city": "Darmstadt", "addr:country": "DE", "addr:housenumber": "31", "addr:postcode": "64297", "addr:street": "In der Kirchtanne", "addr:suburb": "Eberstadt", "amenity": "place_of_worship", "atm": "no", "check_date": "2025-06-15", "denomination": "sunni", "name": "Maria Integration und Kulturverein e.V.", "operator": "Maria Integration und Kulturverein e.V.", "religion": "muslim", "service_times": "https://mawaqit.net/de/maria-moschee-darmstadt-64297-germany", "wheelchair": "yes"}}, {"type": "Feature", "geometry": {"type": "Point", "coordinates": [9.1712901, 47.6712346]}, "properties": {"osm_id": 288661615, "osm_type": "node", "addr:city": "Konstanz", "addr:country": "DE", "addr:housenumber": "30", "addr:postcode": "78467", "addr:street": "Reichenaustraße", "amenity": "place_of_worship", "check_date": "2025-08-11", "name": "Mevlâna Moschee", "operator": "Türkisch-Islamische Gemeinde DITIB Konstanz und Umgebung e.V.", "religion": "muslim", "website": "http://mevlana-konstanz.de"}}, {"type": "Feature", "geometry": {"type": "Point", "coordinates": [7.3523332, 51.2057486]}, "properties": {"osm_id": 289524792, "osm_type": "node", "amenity": "place_of_worship", "created_by": "Potlatch 0.10b", "religion": "muslim"}}, {"type": "Feature", "geometry": {"type": "Point", "coordinates": [7.7482204, 51.5964364]}, "properties": {"osm_id": 293151872, "osm_type": "node", "amenity": "place_of_worship", "check_date": "2024-03-06", "name": "DITIB Moschee Bönen", "religion": "muslim", "wheelchair": "no"}}, {"type": "Feature", "geometry": {"type": "Point", "coordinates": [7.7769902, 51.5993621]}, "properties": {"osm_id": 293151878, "osm_type": "node", "addr:city": "Bönen", "addr:housenumber": "250", "addr:street": "Bahnhofstraße", "amenity": "place_of_worship", "name": "Mevlana Moschee Bönen", "note": "Mevlana Camii", "religion": "muslim"}}, {"type": "Feature", "geometry": {"type": "Point", "coordinates": [9.6750031, 53.6826603]}, "properties": {"osm_id": 294819571, "osm_type": "node", "amenity": "place_of_worship", "check_date": "2025-03-11", "denomination": "sunni", "name": "Türkisch Islamische Union Grüne Moschee e.V.", "religion": "muslim", "wheelchair": "no"}}, {"type": "Feature", "geometry": {"type": "Point", "coordinates": [8.4021346, 52.247169]}, "properties": {"osm_id": 295491772, "osm_type": "node", "addr:city": "Melle", "addr:housenumber": "1a", "addr:postcode": "49328", "addr:street": "Osnabrücker Straße", "amenity": "place_of_worship", "name": "Rahmann Moschee Buer", "religion": "muslim"}}, {"type": "Feature", "geometry": {"type": "Point", "coordinates": [13.4225662, 48.5603056]}, "properties": {"osm_id": 300819357, "osm_type": "node", "amenity": "place_of_worship", "name": "Islamisches Zentrum Passau", "religion": "muslim", "website": "http://islamisches-zentrum-passau.com/"}}, {"type": "Feature", "geometry": {"type": "Point", "coordinates": [9.9637969, 49.7990948]}, "properties": {"osm_id": 301454885, "osm_type": "node", "addr:city": "Würzburg", "addr:housenumber": "11", "addr:postcode": "97076", "addr:street": "Äußere Aumühlstraße", "amenity": "place_of_worship", "check_date": "2023-08-30", "name": "Merkez Camii Moschee", "operator": "Türkisch-Islamische Union der Anstalt für Religion e.V. (DITIB)", "religion": "muslim"}}, {"type": "Feature", "geometry": {"type": "Point", "coordinates": [7.1766885, 51.3992886]}, "properties": {"osm_id": 304938601, "osm_type": "node", "amenity": "place_of_worship", "check_date": "2024-08-19", "name": "Fatih Moschee", "religion": "muslim"}}, {"type": "Feature", "geometry": {"type": "Point", "coordinates": [8.5205414, 53.5154767]}, "properties": {"osm_id": 310655841, "osm_type": "node", "addr:city": "Nordenham", "addr:housenumber": "33", "addr:postcode": "26954", "addr:street": "Niedersachsenstraße", "amenity": "place_of_worship", "denomination": "sunni", "name": "Islamische Gemeinschaft Milli Görüş", "religion": "muslim"}}, {"type": "Feature", "geometry": {"type": "Point", "coordinates": [8.3440105, 52.2078884]}, "properties": {"osm_id": 322949530, "osm_type": "node", "amenity": "place_of_worship", "contact:facebook": "https://www.facebook.com/ditibmelle/", "name": "Mimar-Sinan-Moschee", "network": "DITIB", "network:wikidata": "Q881198", "religion": "muslim"}}, {"type": "Feature", "geometry": {"type": "Point", "coordinates": [9.4140942, 53.1104154]}, "properties": {"osm_id": 327553763, "osm_type": "node", "addr:city": "Rotenburg (Wümme)", "addr:housenumber": "14", "addr:postcode": "27356", "addr:street": "Fuhrenstraße", "amenity": "place_of_worship", "check_date": "2026-06-07", "name": "Küçük-Ayasofya-Moschee", "religion": "muslim", "wheelchair": "no"}}, {"type": "Feature", "geometry": {"type": "Point", "coordinates": [8.5563048, 53.1884625]}, "properties": {"osm_id": 328794787, "osm_type": "node", "addr:city": "Bremen", "addr:postcode": "28777", "addr:street": "Kreinsloger", "amenity": "place_of_worship", "name": "Selimiye Moschee", "religion": "muslim", "wheelchair": "yes"}}, {"type": "Feature", "geometry": {"type": "Point", "coordinates": [11.6157373, 48.1301332]}, "properties": {"osm_id": 331359830, "osm_type": "node", "amenity": "place_of_worship", "check_date": "2025-08-26", "name": "Eyup Sultan Camii Moschee", "religion": "muslim", "wheelchair": "limited"}}, {"type": "Feature", "geometry": {"type": "Point", "coordinates": [8.8003491, 53.0947296]}, "properties": {"osm_id": 361114724, "osm_type": "node", "amenity": "place_of_worship", "check_date": "2026-03-07", "name": "Camii Girisi", "phone": "+49421372829", "religion": "muslim"}}, {"type": "Feature", "geometry": {"type": "Point", "coordinates": [10.4611155, 48.2875044]}, "properties": {"osm_id": 366284522, "osm_type": "node", "addr:city": "Thannhausen", "addr:country": "DE", "addr:housenumber": "2", "addr:postcode": "86470", "addr:street": "Im Krautgarten", "amenity": "place_of_worship", "name": "Islamische Gemeinde Thannhausen", "phone": "+49 8281 3057", "religion": "muslim"}}, {"type": "Feature", "geometry": {"type": "Point", "coordinates": [8.2361611, 50.0772148]}, "properties": {"osm_id": 369858205, "osm_type": "node", "addr:city": "Wiesbaden", "addr:country": "DE", "addr:housenumber": "64", "addr:postcode": "65185", "addr:street": "Rheinstraße", "amenity": "place_of_worship", "check_date": "2025-10-19", "denomination": "sunni", "name": "Islamische Gemeinschaft der Bosniaken, Wiesbaden e.V.", "religion": "muslim"}}, {"type": "Feature", "geometry": {"type": "Point", "coordinates": [11.560155, 48.1869358]}, "properties": {"osm_id": 371176649, "osm_type": "node", "amenity": "place_of_worship", "check_date": "2025-10-22", "name": "Mehmed Akif Camii/ Türkisch Islamische Gemeinde e.V.", "religion": "muslim"}}, {"type": "Feature", "geometry": {"type": "Point", "coordinates": [8.0545225, 52.2642942]}, "properties": {"osm_id": 391412681, "osm_type": "node", "amenity": "place_of_worship", "name": "Merkez Camii", "religion": "muslim", "wheelchair": "no"}}, {"type": "Feature", "geometry": {"type": "Point", "coordinates": [9.0010372, 49.6692573]}, "properties": {"osm_id": 408797302, "osm_type": "node", "addr:city": "Michelstadt", "addr:country": "DE", "addr:housenumber": "1", "addr:postcode": "64720", "addr:street": "Fabrikstraße", "amenity": "place_of_worship", "denomination": "sunni", "religion": "muslim"}}, {"type": "Feature", "geometry": {"type": "Point", "coordinates": [8.8158308, 53.0797475]}, "properties": {"osm_id": 410829903, "osm_type": "node", "amenity": "place_of_worship", "check_date": "2024-07-13", "level": "0", "name": "Rahma Moschee", "religion": "muslim", "wheelchair": "no"}}, {"type": "Feature", "geometry": {"type": "Point", "coordinates": [6.1995514, 50.9245791]}, "properties": {"osm_id": 417635231, "osm_type": "node", "addr:city": "Baesweiler", "addr:country": "DE", "addr:housenumber": "43", "addr:postcode": "52499", "addr:street": "Wolfsgasse", "addr:suburb": "Setterich", "amenity": "place_of_worship", "name": "Hos Geldiniz", "religion": "muslim", "wheelchair": "yes"}}, {"type": "Feature", "geometry": {"type": "Point", "coordinates": [6.9676611, 51.4610612]}, "properties": {"osm_id": 421433621, "osm_type": "node", "addr:city": "Essen", "addr:country": "DE", "addr:housenumber": "407", "addr:postcode": "45143", "addr:street": "Altendorfer Straße", "amenity": "place_of_worship", "name": "Ankara e.V.", "religion": "muslim"}}, {"type": "Feature", "geometry": {"type": "Point", "coordinates": [9.4816676, 49.1961392]}, "properties": {"osm_id": 427966259, "osm_type": "node", "amenity": "place_of_worship", "check_date": "2025-11-22", "name": "Aksemseddin Camii", "religion": "muslim"}}, {"type": "Feature", "geometry": {"type": "Point", "coordinates": [6.5418373, 50.9442985]}, "properties": {"osm_id": 434428019, "osm_type": "node", "amenity": "place_of_worship", "religion": "muslim"}}, {"type": "Feature", "geometry": {"type": "Point", "coordinates": [7.0191974, 50.9635876]}, "properties": {"osm_id": 438129010, "osm_type": "node", "addr:city": "Köln", "addr:country": "DE", "addr:housenumber": "146", "addr:postcode": "51065", "addr:street": "Ackerstraße", "amenity": "place_of_worship", "denomination": "sunni", "name": "Islamische Akademie Villa Hahnenburg", "organisation": "VIKZ", "religion": "muslim"}}, {"type": "Feature", "geometry": {"type": "Point", "coordinates": [7.5958058, 50.3658022]}, "properties": {"osm_id": 442204510, "osm_type": "node", "amenity": "place_of_worship", "religion": "muslim"}}, {"type": "Feature", "geometry": {"type": "Point", "coordinates": [7.0668144, 51.2296342]}, "properties": {"osm_id": 480444141, "osm_type": "node", "addr:city": "Wuppertal", "addr:housenumber": "1b", "addr:postcode": "42329", "addr:street": "Spitzwegstraße", "amenity": "place_of_worship", "check_date": "2024-04-24", "name": "Mimar Sinan Moschee", "name:ar": "مسجد معمار سنان", "religion": "muslim"}}, {"type": "Feature", "geometry": {"type": "Point", "coordinates": [7.0638671, 51.2292006]}, "properties": {"osm_id": 480464133, "osm_type": "node", "addr:city": "Wuppertal", "addr:housenumber": "44-46", "addr:postcode": "42329", "addr:street": "Vohwinkeler Straße", "amenity": "place_of_worship", "name": "Annur Moschee", "name:ar": "مسجد النور", "phone": "+49 202 6953969", "religion": "muslim", "wheelchair": "no"}}, {"type": "Feature", "geometry": {"type": "Point", "coordinates": [9.7289027, 52.3759726]}, "properties": {"osm_id": 503572214, "osm_type": "node", "amenity": "place_of_worship", "name": "Familien Information Moschee", "religion": "muslim"}}, {"type": "Feature", "geometry": {"type": "Point", "coordinates": [8.7666288, 50.1064332]}, "properties": {"osm_id": 513600965, "osm_type": "node", "addr:city": "Offenbach am Main", "addr:housenumber": "41", "addr:postcode": "63065", "addr:street": "Sandgasse", "amenity": "place_of_worship", "denomination": "sunni", "name": "Mevlana Moschee", "religion": "muslim", "service_times": "closed due to renovation", "wheelchair": "limited"}}, {"type": "Feature", "geometry": {"type": "Point", "coordinates": [8.7689727, 50.1060904]}, "properties": {"osm_id": 513600966, "osm_type": "node", "addr:city": "Offenbach am Main", "addr:housenumber": "66", "addr:postcode": "63065", "addr:street": "Karlstraße", "amenity": "place_of_worship", "denomination": "sunni", "name": "Masjid Tauhid", "religion": "muslim", "wheelchair": "no"}}, {"type": "Feature", "geometry": {"type": "Point", "coordinates": [8.76918, 50.1036671]}, "properties": {"osm_id": 513600967, "osm_type": "node", "addr:housenumber": "56", "addr:street": "Bleichstraße", "amenity": "place_of_worship", "check_date": "2025-11-24", "name": "Ditib - Yavuz Sultan Selim Camii", "religion": "muslim", "wheelchair": "no"}}, {"type": "Feature", "geometry": {"type": "Point", "coordinates": [13.4012798, 52.4981271]}, "properties": {"osm_id": 535628093, "osm_type": "node", "amenity": "place_of_worship", "check_date": "2022-11-16", "level": "0", "name": "Inssan-Moschee", "name:fa": "مسجد انسان", "religion": "muslim", "wheelchair": "limited"}}, {"type": "Feature", "geometry": {"type": "Point", "coordinates": [7.4692413, 51.5495109]}, "properties": {"osm_id": 546821158, "osm_type": "node", "amenity": "place_of_worship", "name": "Eving Selimiye Camii", "operator": "DiTiB", "religion": "muslim"}}, {"type": "Feature", "geometry": {"type": "Point", "coordinates": [6.8403017, 51.2187899]}, "properties": {"osm_id": 560880141, "osm_type": "node", "addr:city": "Düsseldorf", "addr:country": "DE", "addr:housenumber": "209", "addr:postcode": "40231", "addr:street": "Posener Straße", "amenity": "place_of_worship", "name": "Union der Roma - I.K.U.R. Düsseldorf. e.V", "operator": "I.K.U.R. Düsseldorf. e.V.", "religion": "muslim"}}, {"type": "Feature", "geometry": {"type": "Point", "coordinates": [11.6268987, 48.1312038]}, "properties": {"osm_id": 563829280, "osm_type": "node", "addr:housenumber": "72", "addr:street": "Neumarkter Straße", "amenity": "place_of_worship", "check_date": "2025-01-25", "name": "Das Islamische Zentrum der E. Afghanen in Bayern e.V.", "religion": "muslim", "wheelchair": "no"}}, {"type": "Feature", "geometry": {"type": "Point", "coordinates": [6.1259961, 50.772522]}, "properties": {"osm_id": 565024099, "osm_type": "node", "amenity": "place_of_worship", "name": "Islamische Gemeinschaft", "religion": "muslim"}}, {"type": "Feature", "geometry": {"type": "Point", "coordinates": [10.6727475, 53.8450275]}, "properties": {"osm_id": 573826507, "osm_type": "node", "amenity": "place_of_worship", "name": "Alevitische Gemeinde Lübeck", "religion": "muslim"}}, {"type": "Feature", "geometry": {"type": "Point", "coordinates": [10.4197948, 53.254291]}, "properties": {"osm_id": 581287690, "osm_type": "node", "amenity": "place_of_worship", "denomination": "sunni", "name": "Moschee", "religion": "muslim"}}, {"type": "Feature", "geometry": {"type": "Point", "coordinates": [7.1008071, 50.7396226]}, "properties": {"osm_id": 600410346, "osm_type": "node", "addr:city": "Bonn", "addr:country": "DE", "addr:housenumber": "12", "addr:postcode": "53111", "addr:street": "Theaterstraße", "amenity": "place_of_worship", "name": "Medina Moschee", "religion": "muslim"}}, {"type": "Feature", "geometry": {"type": "Point", "coordinates": [7.4047466, 51.5270986]}, "properties": {"osm_id": 631095519, "osm_type": "node", "amenity": "place_of_worship", "name": "Osman Gazi Moschee", "religion": "muslim", "toilets:wheelchair": "no", "wheelchair": "yes"}}, {"type": "Feature", "geometry": {"type": "Point", "coordinates": [10.0389512, 53.5791022]}, "properties": {"osm_id": 633030561, "osm_type": "node", "addr:city": "Hamburg", "addr:country": "DE", "addr:housenumber": "199", "addr:postcode": "22083", "addr:street": "Hamburger Straße", "amenity": "place_of_worship", "check_date": "2026-04-30", "name": "Ali Paşa Camii", "religion": "muslim"}}, {"type": "Feature", "geometry": {"type": "Point", "coordinates": [6.5606417, 51.3228419]}, "properties": {"osm_id": 648549168, "osm_type": "node", "alt_name": "Merkez-Moschee", "amenity": "place_of_worship", "name": "Merkez Camii", "operator": "Islamische Gemeinschaft Krefeld e. V.", "religion": "muslim", "wheelchair": "no"}}, {"type": "Feature", "geometry": {"type": "Point", "coordinates": [9.7336876, 52.3912359]}, "properties": {"osm_id": 655144252, "osm_type": "node", "amenity": "place_of_worship", "check_date": "2025-12-23", "email": "kontakt@igh-hannover.de", "name": "Mohammad Al-Amien Moschee", "operator": "Islamisches Gemeindehaus Hannover e.V.", "religion": "muslim", "website": "https://www.igh-hannover.de/"}}, {"type": "Feature", "geometry": {"type": "Point", "coordinates": [9.4215465, 54.7985284]}, "properties": {"osm_id": 656150089, "osm_type": "node", "addr:city": "Flensburg", "addr:country": "DE", "addr:housenumber": "7", "addr:postcode": "24939", "addr:street": "Meiereistraße", "amenity": "place_of_worship", "check_date": "2024-03-04", "name": "DİTİB Fatih Moschee", "religion": "muslim", "wheelchair": "limited"}}, {"type": "Feature", "geometry": {"type": "Point", "coordinates": [9.6567446, 54.3131794]}, "properties": {"osm_id": 662786932, "osm_type": "node", "amenity": "place_of_worship", "name": "Centrum-Moschee", "religion": "muslim", "wheelchair": "no"}}, {"type": "Feature", "geometry": {"type": "Point", "coordinates": [8.8852353, 53.0581161]}, "properties": {"osm_id": 668105599, "osm_type": "node", "amenity": "place_of_worship", "check_date": "2026-03-21", "name": "Kûba Camii", "religion": "muslim", "wheelchair": "no"}}, {"type": "Feature", "geometry": {"type": "Point", "coordinates": [11.5444805, 48.2033188]}, "properties": {"osm_id": 676956179, "osm_type": "node", "addr:city": "München", "addr:housenumber": "6", "addr:postcode": "80935", "addr:street": "Tagetesstraße", "amenity": "place_of_worship", "name": "Deutsch-Afghanische Begegnungsstätte", "phone": "+49 89 3511744", "religion": "muslim"}}, {"type": "Feature", "geometry": {"type": "Point", "coordinates": [10.0073715, 53.5555575]}, "properties": {"osm_id": 698302433, "osm_type": "node", "addr:city": "Hamburg", "addr:housenumber": "25", "addr:postcode": "20099", "addr:street": "Kirchenallee", "amenity": "place_of_worship", "check_date": "2025-11-22", "name": "MuhajJirien Moschee - Der islamische Bund e.v.", "religion": "muslim", "wheelchair": "no"}}, {"type": "Feature", "geometry": {"type": "Point", "coordinates": [9.3226728, 49.5179821]}, "properties": {"osm_id": 762567564, "osm_type": "node", "amenity": "place_of_worship", "name": "Kocatepe Camii", "religion": "muslim"}}, {"type": "Feature", "geometry": {"type": "Point", "coordinates": [10.0042468, 48.3946103]}, "properties": {"osm_id": 768603846, "osm_type": "node", "addr:city": "Neu-Ulm", "addr:country": "DE", "addr:housenumber": "42", "addr:postcode": "89231", "addr:street": "Maximilianstraße", "amenity": "place_of_worship", "check_date": "2026-02-09", "name": "IGMG Neu-Ulm Camii", "religion": "muslim", "wheelchair": "no"}}, {"type": "Feature", "geometry": {"type": "Point", "coordinates": [8.734439, 48.0796734]}, "properties": {"osm_id": 793242346, "osm_type": "node", "amenity": "place_of_worship", "description": "Moschee", "name": "Moschee", "religion": "muslim", "wheelchair": "yes"}}, {"type": "Feature", "geometry": {"type": "Point", "coordinates": [10.0141878, 53.5550328]}, "properties": {"osm_id": 825108243, "osm_type": "node", "amenity": "place_of_worship", "name": "Pak-Alem Moschee", "religion": "muslim"}}, {"type": "Feature", "geometry": {"type": "Point", "coordinates": [10.014654, 53.5550122]}, "properties": {"osm_id": 825108270, "osm_type": "node", "amenity": "place_of_worship", "check_date": "2024-03-30", "name": "Vahdet Moschee", "religion": "muslim"}}, {"type": "Feature", "geometry": {"type": "Point", "coordinates": [8.7239324, 53.1782202]}, "properties": {"osm_id": 835786259, "osm_type": "node", "amenity": "place_of_worship", "name": "Bremen Yunus Emre Camii", "religion": "muslim"}}, {"type": "Feature", "geometry": {"type": "Point", "coordinates": [7.3262603, 51.4375041]}, "properties": {"osm_id": 837983329, "osm_type": "node", "amenity": "place_of_worship", "contact:email": "ikz.witten@gmail.com", "contact:facebook": "https://www.facebook.com/ikz.witten/", "contact:instagram": "ikz.witten", "contact:website": "https://www.ikz-witten.de/", "contact:whatsapp": "+49 157 37892069", "contact:youtube": "https://www.youtube.com/channel/UCCl6P_wmAoMZCnIo45f6Rkg", "disused:amenity": "pub;cafe", "image": "https://www.flickr.com/photos/wwwuppertal/7131998145/", "indoor": "yes", "language:ar": "main", "language:de": "yes", "level": "0", "min_age": "18", "name": "Islamisches Kulturzentrum Witten", "name:ar": "المركز الثقافي الإسلامي في فيتن", "old_name": "Zum alten Gußstahlwerk;Café Babo", "operator": "Islamisches Kulturzentrum Witten e.V.", "operator:type": "community", "religion": "muslim", "short_name": "IKZ Witten", "toilets": "yes", "wheelchair": "no"}}, {"type": "Feature", "geometry": {"type": "Point", "coordinates": [7.6743459, 50.4320544]}, "properties": {"osm_id": 843125965, "osm_type": "node", "amenity": "place_of_worship", "religion": "muslim"}}, {"type": "Feature", "geometry": {"type": "Point", "coordinates": [8.3599954, 49.9903442]}, "properties": {"osm_id": 856499463, "osm_type": "node", "amenity": "place_of_worship", "name": "Yanus Emre Camli", "religion": "muslim"}}, {"type": "Feature", "geometry": {"type": "Point", "coordinates": [7.1495527, 50.68934]}, "properties": {"osm_id": 883398219, "osm_type": "node", "addr:city": "Bonn", "addr:country": "DE", "addr:housenumber": "93", "addr:postcode": "53173", "addr:street": "Bonner Straße", "amenity": "place_of_worship", "name": "Al Ansar Moschee", "religion": "muslim"}}, {"type": "Feature", "geometry": {"type": "Point", "coordinates": [8.5154631, 49.2293107]}, "properties": {"osm_id": 893961599, "osm_type": "node", "addr:city": "Waghäusel", "addr:country": "DE", "addr:housenumber": "79", "addr:postcode": "68753", "addr:street": "Mannheimer Straße", "addr:suburb": "Wiesental", "amenity": "place_of_worship", "denomination": "sunni", "name": "Fatih-Moschee", "operator": "DITIB Türkisch Islamische Kultur Verein e.V.", "religion": "muslim", "wheelchair": "no"}}, {"type": "Feature", "geometry": {"type": "Point", "coordinates": [11.3872928, 48.1364]}, "properties": {"osm_id": 904317998, "osm_type": "node", "addr:city": "Germering", "addr:country": "DE", "addr:housenumber": "13a", "addr:postcode": "82110", "addr:street": "Münchener Straße", "alt_name": "Türkisch Islamische Gemeinde Germering", "alt_name:de": "Türkisch Islamische Gemeinde Germering", "alt_name:tr": "Türk Islam Kültür Cemiyeti", "amenity": "place_of_worship", "check_date": "2023-08-30", "name": "Germering Camii", "name:de": "Moschee Germering", "name:tr": "Germering Camii", "religion": "muslim", "wheelchair": "yes"}}, {"type": "Feature", "geometry": {"type": "Point", "coordinates": [8.4344749, 49.4887846]}, "properties": {"osm_id": 926474373, "osm_type": "node", "addr:city": "Ludwigshafen am Rhein", "addr:country": "DE", "addr:housenumber": "45", "addr:postcode": "67063", "addr:street": "Rohrlachstraße", "amenity": "place_of_worship", "check_date": "2025-12-09", "name": "Medine Moschee", "religion": "muslim"}}, {"type": "Feature", "geometry": {"type": "Point", "coordinates": [8.7600969, 51.7278338]}, "properties": {"osm_id": 941295401, "osm_type": "node", "addr:city": "Paderborn", "addr:country": "DE", "addr:housenumber": "14", "addr:postcode": "33102", "addr:street": "Salierstraße", "amenity": "place_of_worship", "check_date": "2025-10-26", "name": "Begegnungsstätte Arrahma", "operator": "Islamische Gemeinschaft Paderborn", "phone": "+49 5251 74576", "religion": "muslim", "website": "http://www.arrahma-paderborn.de"}}, {"type": "Feature", "geometry": {"type": "Point", "coordinates": [7.0705211, 52.4231106]}, "properties": {"osm_id": 956430008, "osm_type": "node", "amenity": "place_of_worship", "religion": "muslim"}}, {"type": "Feature", "geometry": {"type": "Point", "coordinates": [8.7434825, 51.7094837]}, "properties": {"osm_id": 964775999, "osm_type": "node", "addr:city": "Paderborn", "addr:country": "DE", "addr:housenumber": "24", "addr:postcode": "33098", "addr:street": "Abtsbrede", "amenity": "place_of_worship", "check_date": "2026-04-22", "name": "Diyanet Türkisch-Islamischer Kulturverein e.V.", "phone": "+49 5251 75861", "religion": "muslim"}}, {"type": "Feature", "geometry": {"type": "Point", "coordinates": [8.8112494, 47.9812593]}, "properties": {"osm_id": 1115333881, "osm_type": "node", "amenity": "place_of_worship", "name": "Moschee", "religion": "muslim"}}, {"type": "Feature", "geometry": {"type": "Point", "coordinates": [10.9110552, 48.3113605]}, "properties": {"osm_id": 1119989589, "osm_type": "node", "addr:city": "Augsburg", "addr:country": "DE", "addr:housenumber": "29", "addr:street": "Bürgermeister-Widmeier-Straße", "amenity": "place_of_worship", "check_date": "2024-08-22", "denomination": "sunni", "name": "Fatih Moschee", "operator": "DITIB Türkisch-Islamische Gemeinde zu Augsburg-Haunstetten e.V.", "religion": "muslim", "website": "https://www.ditib-haunstetten.de/"}}, {"type": "Feature", "geometry": {"type": "Point", "coordinates": [7.6406145, 51.6229398]}, "properties": {"osm_id": 1126270047, "osm_type": "node", "addr:city": "Bergkamen", "addr:country": "DE", "addr:housenumber": "81", "addr:postcode": "59192", "addr:street": "Präsidentenstraße", "amenity": "place_of_worship", "check_date": "2025-09-14", "name": "Bildungszentrum Bergkamen", "religion": "muslim"}}, {"type": "Feature", "geometry": {"type": "Point", "coordinates": [6.2243949, 50.7799701]}, "properties": {"osm_id": 1156731496, "osm_type": "node", "amenity": "place_of_worship", "name": "Millî Görüş", "religion": "muslim"}}, {"type": "Feature", "geometry": {"type": "Point", "coordinates": [8.9270594, 52.2895818]}, "properties": {"osm_id": 1171104890, "osm_type": "node", "addr:city": "Minden", "addr:housenumber": "9", "addr:postcode": "32423", "addr:street": "Kaiserstraße", "alt_name": "Ditib Türkisch-Islamische Gemeinde zu Minden e.V.", "amenity": "place_of_worship", "name": "Barboros Merkez Camii", "operator": "Ditib", "phone": "+49 571 8291207", "religion": "muslim", "website": "http://www.ditib-minden.de/", "wheelchair": "no"}}, {"type": "Feature", "geometry": {"type": "Point", "coordinates": [11.0584699, 49.445022]}, "properties": {"osm_id": 1189645112, "osm_type": "node", "addr:city": "Nürnberg", "addr:country": "DE", "addr:housenumber": "12-14", "addr:postcode": "90443", "addr:street": "Hessestraße", "amenity": "place_of_worship", "name": "Islamische Gemeinde Nürnberg", "religion": "muslim", "website": "https://igninfo.wixsite.com/ignev"}}, {"type": "Feature", "geometry": {"type": "Point", "coordinates": [11.5325545, 48.1780673]}, "properties": {"osm_id": 1209458631, "osm_type": "node", "addr:city": "München", "addr:country": "DE", "addr:housenumber": "1", "addr:postcode": "80992", "addr:street": "Dürrstraße", "amenity": "place_of_worship", "denomination": "shia", "name": "Islamische Vereinigung in Bayern (Iranische Moschee)", "name:ar": "الجمعية الإسلامية في بافاريا - المسجد الإيراني", "operator": "Islamische Gemeinschaft der schiitischen Gemeinden Deutschlands e.V. (IGS)", "phone": "+49 89 14902724", "religion": "muslim", "website": "https://mfmunich.blogfa.com/"}}, {"type": "Feature", "geometry": {"type": "Point", "coordinates": [7.5129402, 51.6235848]}, "properties": {"osm_id": 1222688980, "osm_type": "node", "addr:city": "Lünen", "addr:country": "DE", "addr:housenumber": "5", "addr:postcode": "44534", "addr:street": "Alstedder Straße", "amenity": "place_of_worship", "religion": "muslim"}}, {"type": "Feature", "geometry": {"type": "Point", "coordinates": [10.2011072, 53.5429835]}, "properties": {"osm_id": 1241463270, "osm_type": "node", "amenity": "place_of_worship", "name": "Islamische Gemeinde Glinde", "religion": "muslim"}}, {"type": "Feature", "geometry": {"type": "Point", "coordinates": [10.1630932, 48.6665345]}, "properties": {"osm_id": 1271892160, "osm_type": "node", "amenity": "place_of_worship", "name": "Mevlana", "religion": "muslim"}}, {"type": "Feature", "geometry": {"type": "Point", "coordinates": [7.0867075, 50.7366402]}, "properties": {"osm_id": 1301991217, "osm_type": "node", "amenity": "place_of_worship", "check_date": "2025-11-26", "name": "DITIB-Moschee", "religion": "muslim", "wheelchair": "yes"}}, {"type": "Feature", "geometry": {"type": "Point", "coordinates": [7.6376067, 51.9525164]}, "properties": {"osm_id": 1349705396, "osm_type": "node", "amenity": "place_of_worship", "denomination": "sunni", "name": "Sultan Ahmet Camii", "religion": "muslim"}}, {"type": "Feature", "geometry": {"type": "Point", "coordinates": [10.9915654, 49.461703]}, "properties": {"osm_id": 1354702017, "osm_type": "node", "addr:city": "Fürth", "addr:country": "DE", "addr:housenumber": "13", "addr:postcode": "90763", "addr:street": "Steubenstraße", "amenity": "place_of_worship", "check_date": "2025-09-29", "loc_name": "Moschee", "name": "Mevlana-Moschee", "phone": "+49 911 3941531", "religion": "muslim", "wheelchair": "no"}}, {"type": "Feature", "geometry": {"type": "Point", "coordinates": [7.2334487, 50.5784754]}, "properties": {"osm_id": 1359917639, "osm_type": "node", "amenity": "place_of_worship", "name": "Ditib Türkisch-Islamische Moschee", "religion": "muslim"}}, {"type": "Feature", "geometry": {"type": "Point", "coordinates": [10.5211119, 52.2674491]}, "properties": {"osm_id": 1360113386, "osm_type": "node", "addr:city": "Braunschweig", "addr:country": "DE", "addr:housenumber": "6", "addr:postcode": "38100", "addr:street": "Reichsstraße", "amenity": "place_of_worship", "check_date": "2025-01-02", "contact:email": "dmk-bs@t-online.de", "contact:phone": "+49 531 2842634", "contact:website": "http://www.ddmkbs.de/", "name": "DMK Moschee", "religion": "muslim", "wheelchair": "limited", "wheelchair:description": "Rampe sehr steil angelegt!"}}, {"type": "Feature", "geometry": {"type": "Point", "coordinates": [9.7328485, 52.3816073]}, "properties": {"osm_id": 1374534077, "osm_type": "node", "amenity": "place_of_worship", "name": "Bildung und Gemässigkeit e.V.", "religion": "muslim"}}, {"type": "Feature", "geometry": {"type": "Point", "coordinates": [7.1759123, 50.6721125]}, "properties": {"osm_id": 1407078276, "osm_type": "node", "amenity": "place_of_worship", "name": "Ar Rahma Moschee", "note": "Unbekannt welches Gebäude, ist nicht ausgeschildert. Der Gebetsraum IST im Gebäude der Hauses 226, siehe Website. .", "religion": "muslim", "website": "http://muslimrat-bonn.de/index.php?id=mitglieder_rates"}}, {"type": "Feature", "geometry": {"type": "Point", "coordinates": [6.9628626, 50.9186913]}, "properties": {"osm_id": 1431996526, "osm_type": "node", "amenity": "place_of_worship", "name": "Veysel-Karani-Moschee", "organisation": "DITIB", "religion": "muslim"}}, {"type": "Feature", "geometry": {"type": "Point", "coordinates": [11.0749065, 49.4330545]}, "properties": {"osm_id": 1538718064, "osm_type": "node", "addr:city": "Nürnberg", "addr:country": "DE", "addr:housenumber": "16", "addr:postcode": "90459", "addr:street": "Kurfürstenstraße", "amenity": "place_of_worship", "name": "Eyüp Sultan Moschee", "religion": "muslim", "wheelchair": "yes"}}, {"type": "Feature", "geometry": {"type": "Point", "coordinates": [9.4920678, 51.3218623]}, "properties": {"osm_id": 1543833264, "osm_type": "node", "amenity": "place_of_worship", "operator": "Türkisch-islamischer Kulturverein Sultan Alparslan Camii", "religion": "muslim"}}, {"type": "Feature", "geometry": {"type": "Point", "coordinates": [6.8151386, 51.2126181]}, "properties": {"osm_id": 1562668263, "osm_type": "node", "addr:city": "Düsseldorf", "addr:country": "DE", "addr:housenumber": "145", "addr:postcode": "40233", "addr:street": "Ronsdorfer Straße", "amenity": "place_of_worship", "name": "Masjid Ar-Rahman", "religion": "muslim", "website": "http://arrahman.de/"}}, {"type": "Feature", "geometry": {"type": "Point", "coordinates": [6.945442, 51.5202233]}, "properties": {"osm_id": 1570006408, "osm_type": "node", "amenity": "place_of_worship", "name": "DITIP Türkisch-Islamische Union", "religion": "muslim"}}, {"type": "Feature", "geometry": {"type": "Point", "coordinates": [8.6387335, 48.3672429]}, "properties": {"osm_id": 1578258859, "osm_type": "node", "amenity": "place_of_worship", "religion": "muslim"}}, {"type": "Feature", "geometry": {"type": "Point", "coordinates": [12.9316302, 50.8307389]}, "properties": {"osm_id": 1580044447, "osm_type": "node", "addr:city": "Chemnitz", "addr:country": "DE", "addr:housenumber": "13", "addr:postcode": "09111", "addr:street": "Zieschestraße", "amenity": "place_of_worship", "check_date": "2025-04-19", "denomination": "hanafi", "language:ar": "yes", "language:de": "yes", "language:tr": "yes", "name": "Türkisch-Islamische Gemeinde Chemnitz", "name:ar": "Türkisch-Islamische Gemeinde Chemnitz", "name:de": "الجالية الإسلامية التركية كمنتس", "operator:wikidata": "Q881198", "religion": "muslim"}}, {"type": "Feature", "geometry": {"type": "Point", "coordinates": [7.1004486, 51.5348618]}, "properties": {"osm_id": 1587253921, "osm_type": "node", "amenity": "place_of_worship", "name": "Arrahman Moschee", "religion": "muslim"}}, {"type": "Feature", "geometry": {"type": "Point", "coordinates": [7.1139592, 51.5125723]}, "properties": {"osm_id": 1611660889, "osm_type": "node", "amenity": "place_of_worship", "name": "Tugra Kultur Zentrum", "religion": "muslim"}}, {"type": "Feature", "geometry": {"type": "Point", "coordinates": [10.3184584, 47.7147125]}, "properties": {"osm_id": 1657676215, "osm_type": "node", "amenity": "place_of_worship", "check_date": "2023-12-29", "name": "Hicret-Moschee", "operator": "IGMG", "religion": "muslim"}}, {"type": "Feature", "geometry": {"type": "Point", "coordinates": [6.9271108, 50.8631779]}, "properties": {"osm_id": 1668880517, "osm_type": "node", "addr:city": "Köln", "addr:housenumber": "3", "addr:postcode": "50997", "addr:street": "An der Fuhr", "amenity": "place_of_worship", "denomination": "sunni", "description": "Eingang über den Keller", "level": "-1", "name": "Ayasofya-Moschee", "organisation": "IGMG", "religion": "muslim"}}, {"type": "Feature", "geometry": {"type": "Point", "coordinates": [6.999895, 50.9397789]}, "properties": {"osm_id": 1668912697, "osm_type": "node", "amenity": "place_of_worship", "denomination": "sunni", "name": "Kuba-Moschee", "name:tr": "Kuba Camii", "organisation": "IGMG", "religion": "muslim"}}, {"type": "Feature", "geometry": {"type": "Point", "coordinates": [7.023202, 50.9404644]}, "properties": {"osm_id": 1668937430, "osm_type": "node", "amenity": "place_of_worship", "check_date": "2023-12-02", "denomination": "sunni", "name": "Mevlana-Moschee", "organisation": "DITIB", "religion": "muslim"}}, {"type": "Feature", "geometry": {"type": "Point", "coordinates": [7.0002344, 50.9386265]}, "properties": {"osm_id": 1668947979, "osm_type": "node", "amenity": "place_of_worship", "denomination": "sunni", "name": "Tauhid Moschee", "religion": "muslim", "subdenomination": "salafi"}}, {"type": "Feature", "geometry": {"type": "Point", "coordinates": [8.6154106, 50.103846]}, "properties": {"osm_id": 1669067972, "osm_type": "node", "addr:city": "Frankfurt am Main", "addr:housenumber": "24a", "addr:postcode": "60326", "addr:street": "Mönchhofstraße", "amenity": "place_of_worship", "name": "Tarik ben Ziad", "religion": "muslim"}}, {"type": "Feature", "geometry": {"type": "Point", "coordinates": [6.9962985, 50.9322407]}, "properties": {"osm_id": 1669519654, "osm_type": "node", "amenity": "place_of_worship", "check_date": "2024-04-18", "denomination": "sunni", "name": "Taqiyyu'd-Din al-Hilali Moschee", "religion": "muslim", "subdenomination": "salafi"}}, {"type": "Feature", "geometry": {"type": "Point", "coordinates": [6.9333427, 50.9780929]}, "properties": {"osm_id": 1669530874, "osm_type": "node", "addr:city": "Köln", "addr:country": "DE", "addr:housenumber": "222", "addr:postcode": "50739", "addr:street": "Etzelstraße", "amenity": "place_of_worship", "denomination": "sunni", "description": "Hintereingang (Keller)", "level": "-1", "name": "Weidenpesch Mescidi (Moschee)", "note": "Die Moschee befindet sich im Keller des Hauses Nr. 222 und ist über den Hintereingang erreichbar.", "organisation": "IGMG", "religion": "muslim", "source": "own field research"}}, {"type": "Feature", "geometry": {"type": "Point", "coordinates": [7.0197261, 50.9405507]}, "properties": {"osm_id": 1681928821, "osm_type": "node", "addr:city": "Köln", "addr:housenumber": "33-35", "addr:postcode": "51103", "addr:street": "Olpener Straße", "amenity": "place_of_worship", "denomination": "shia", "name": "Islamisches Kulturzentrum Köln - Schiitische Gemeinde", "operator": "Markaze Islami Farhangi Köln e.V.", "operator2": "Gemeinschaft der Mitte e.V.", "religion": "muslim"}}, {"type": "Feature", "geometry": {"type": "Point", "coordinates": [6.4996092, 50.8073024]}, "properties": {"osm_id": 1701735325, "osm_type": "node", "addr:city": "Düren", "addr:country": "DE", "addr:housenumber": "79", "addr:postcode": "52351", "addr:street": "Kölner Landstraße", "amenity": "place_of_worship", "name": "Dürener Moschee", "name:tr": "Düren Camii", "organisation": "VIKZ", "religion": "muslim"}}, {"type": "Feature", "geometry": {"type": "Point", "coordinates": [7.6718524, 51.2974199]}, "properties": {"osm_id": 1709034863, "osm_type": "node", "addr:city": "Altena", "addr:country": "DE", "addr:housenumber": "28", "addr:postcode": "58762", "addr:street": "Lüdenscheider Straße", "amenity": "place_of_worship", "name": "Moschee", "religion": "muslim", "wheelchair": "no"}}, {"type": "Feature", "geometry": {"type": "Point", "coordinates": [8.602632, 50.094634]}, "properties": {"osm_id": 1719589694, "osm_type": "node", "amenity": "place_of_worship", "denomination": "sunni", "name": "Markaz Islamisches Zentrum Frankfurt", "religion": "muslim"}}, {"type": "Feature", "geometry": {"type": "Point", "coordinates": [8.5949963, 50.098649]}, "properties": {"osm_id": 1720226795, "osm_type": "node", "amenity": "place_of_worship", "denomination": "sunni", "name": "Bilal-Moschee", "religion": "muslim", "source": "http://bilal-moschee.de/de/anschrift-bilal-moschee.html"}}, {"type": "Feature", "geometry": {"type": "Point", "coordinates": [8.6008519, 50.0921681]}, "properties": {"osm_id": 1720226797, "osm_type": "node", "amenity": "place_of_worship", "denomination": "shia", "name": "Hazrat Fatima Moschee", "religion": "muslim"}}, {"type": "Feature", "geometry": {"type": "Point", "coordinates": [12.0898018, 47.8498401]}, "properties": {"osm_id": 1735389261, "osm_type": "node", "amenity": "place_of_worship", "name": "Fatih Cami Rosenheim", "religion": "muslim"}}, {"type": "Feature", "geometry": {"type": "Point", "coordinates": [8.0610113, 52.2671805]}, "properties": {"osm_id": 1742788696, "osm_type": "node", "addr:city": "Osnabrück", "addr:country": "DE", "addr:housenumber": "13", "addr:postcode": "49082", "addr:street": "Frankenstraße", "amenity": "place_of_worship", "check_date": "2026-05-17", "check_date:opening_hours": "2026-05-17", "contact:bluesky": "ditib.bsky.social", "contact:facebook": "ditibbundesverband", "contact:instagram": "ditibbundesverband", "contact:twitter": "ditibkoln", "email": "info@ditib.de", "name": "Diyanet Isleri Türk-Islam Birligi-Yeni Camii", "name:de": "DITIB Türkisch-Islamische Union", "opening_hours": "Mo-Su 09:00-22:30", "phone": "+49 176 82078715", "religion": "muslim", "website": "https://www.ditib.de/"}}, {"type": "Feature", "geometry": {"type": "Point", "coordinates": [8.0600538, 52.2675194]}, "properties": {"osm_id": 1742800642, "osm_type": "node", "addr:city": "Osnabrück", "addr:country": "DE", "addr:housenumber": "7a", "addr:postcode": "49082", "addr:street": "Wasastraße", "amenity": "place_of_worship", "name": "Islamska Zajednica Bosnjaka", "religion": "muslim"}}, {"type": "Feature", "geometry": {"type": "Point", "coordinates": [13.5110551, 51.6907289]}, "properties": {"osm_id": 1747475852, "osm_type": "node", "amenity": "place_of_worship", "name": "Institut für Islamische Forschung", "religion": "muslim"}}, {"type": "Feature", "geometry": {"type": "Point", "coordinates": [7.7501413, 51.6627103]}, "properties": {"osm_id": 1780418411, "osm_type": "node", "amenity": "place_of_worship", "check_date": "2025-03-02", "name": "Ulu Camii", "religion": "muslim", "source": "survey"}}, {"type": "Feature", "geometry": {"type": "Point", "coordinates": [11.4385205, 48.7678784]}, "properties": {"osm_id": 1782409421, "osm_type": "node", "addr:city": "Ingolstadt", "addr:country": "DE", "addr:housenumber": "6", "addr:postcode": "85055", "addr:street": "Schillerstraße", "amenity": "place_of_worship", "denomination": "sunni", "name": "Ayasofya Moschee", "religion": "muslim"}}, {"type": "Feature", "geometry": {"type": "Point", "coordinates": [8.7459167, 50.1414295]}, "properties": {"osm_id": 1794759067, "osm_type": "node", "addr:city": "Frankfurt am Main", "addr:housenumber": "10", "addr:postcode": "60388", "addr:street": "Edisonstraße", "amenity": "place_of_worship", "check_date": "2026-04-03", "denomination": "sunni", "name": "Imam Abu Hanifa - Afghanischer Kulturverein", "religion": "muslim", "wheelchair": "no"}}, {"type": "Feature", "geometry": {"type": "Point", "coordinates": [10.9610581, 50.2578762]}, "properties": {"osm_id": 1804415132, "osm_type": "node", "addr:city": "Coburg", "addr:country": "DE", "addr:housenumber": "2", "addr:postcode": "96450", "addr:street": "Viktoriastraße", "amenity": "place_of_worship", "check_date": "2024-08-10", "name": "Yeni Cami", "operator": "DITIB", "religion": "muslim"}}, {"type": "Feature", "geometry": {"type": "Point", "coordinates": [11.9409156, 51.4834748]}, "properties": {"osm_id": 1808440924, "osm_type": "node", "addr:city": "Halle (Saale)", "addr:country": "DE", "addr:housenumber": "3", "addr:postcode": "06122", "addr:street": "Am Meeresbrunnen", "amenity": "place_of_worship", "contact:facebook": "https://www.facebook.com/ikchallesaale", "denomination": "sunni", "email": "info@islamischegemeinde-halle.de", "language:ar": "yes", "language:de": "yes", "name": "IKC Islamisches Kulturzentrum Halle", "name:ar": "المركز الثقافي الإسلامي هاله", "name:de": "Islamisches Kulturzentrum Halle", "name:en": "Islamic Cultural Centre Halle", "name:es": "Centro Cultural Islámico Halle", "name:fa": "مرکز فرهنگی اسلامی هاله", "name:ps": "د اسلامي فرهنګي مرکز هاله", "name:ur": "اسلامی ثقافتی مرکز حالی", "opening_hours": "09:00-21:00", "operator": "IKC e.V.", "phone": "+4922120049910", "religion": "muslim", "website": "https://www.islamischegemeinde-halle.de/"}}, {"type": "Feature", "geometry": {"type": "Point", "coordinates": [6.0981514, 50.7748454]}, "properties": {"osm_id": 1850265664, "osm_type": "node", "amenity": "place_of_worship", "name": "Al-Imam Malik Moschee", "religion": "muslim", "website": "http://www.imm-aachen.de/"}}, {"type": "Feature", "geometry": {"type": "Point", "coordinates": [9.6528089, 51.4186163]}, "properties": {"osm_id": 1855157707, "osm_type": "node", "addr:city": "Hann. Münden", "addr:country": "DE", "addr:housenumber": "3", "addr:postcode": "34346", "addr:street": "Sydekumstraße", "amenity": "place_of_worship", "check_date": "2024-09-18", "name": "Türkisch-Islamische Gemeinde zu Hann.Münden", "religion": "muslim", "wheelchair": "no"}}, {"type": "Feature", "geometry": {"type": "Point", "coordinates": [10.3650017, 52.0522118]}, "properties": {"osm_id": 1869605219, "osm_type": "node", "amenity": "place_of_worship", "religion": "muslim"}}, {"type": "Feature", "geometry": {"type": "Point", "coordinates": [7.1479842, 51.2634585]}, "properties": {"osm_id": 1877678784, "osm_type": "node", "addr:city": "Wuppertal", "addr:country": "DE", "addr:street": "Gathe", "amenity": "place_of_worship", "denomination": "sunni", "name": "Merkez Camii Moschee", "religion": "muslim"}}, {"type": "Feature", "geometry": {"type": "Point", "coordinates": [7.081146, 51.4693664]}, "properties": {"osm_id": 1911059435, "osm_type": "node", "amenity": "place_of_worship", "name": "Yavuz-Sultan-Selil-cami-i", "religion": "muslim", "wheelchair": "no"}}, {"type": "Feature", "geometry": {"type": "Point", "coordinates": [13.445666, 52.4718577]}, "properties": {"osm_id": 1976696605, "osm_type": "node", "addr:city": "Berlin", "addr:country": "DE", "addr:housenumber": "11", "addr:postcode": "12055", "addr:street": "Schöneweider Straße", "addr:suburb": "Neukölln", "amenity": "place_of_worship", "check_date": "2024-04-02", "name": "Gazi Osman Pasa Moschee eV", "religion": "muslim", "wheelchair": "limited"}}, {"type": "Feature", "geometry": {"type": "Point", "coordinates": [9.2304668, 52.9159776]}, "properties": {"osm_id": 1991475424, "osm_type": "node", "addr:city": "Verden (Aller)", "addr:country": "DE", "addr:housenumber": "31a", "addr:postcode": "27283", "addr:street": "Grüne Straße", "amenity": "place_of_worship", "denomination": "sunni", "name": "türkisch-islamische Gemeinde", "phone": "+49 4231 2455", "religion": "muslim"}}, {"type": "Feature", "geometry": {"type": "Point", "coordinates": [9.8555093, 53.4723987]}, "properties": {"osm_id": 2019926785, "osm_type": "node", "amenity": "place_of_worship", "check_date": "2025-02-09", "name": "Yildiz Camii", "operator": "Islamische Gemeinde Neugraben e.V.", "religion": "muslim"}}, {"type": "Feature", "geometry": {"type": "Point", "coordinates": [9.4312318, 54.794134]}, "properties": {"osm_id": 2030106272, "osm_type": "node", "addr:city": "Flensburg", "addr:country": "DE", "addr:housenumber": "129", "addr:postcode": "24939", "addr:street": "Norderstraße", "amenity": "place_of_worship", "name": "Eyyüß Sultan Camii", "religion": "muslim"}}, {"type": "Feature", "geometry": {"type": "Point", "coordinates": [11.6481221, 48.0832986]}, "properties": {"osm_id": 2036256862, "osm_type": "node", "addr:city": "München", "addr:country": "DE", "addr:housenumber": "60", "addr:postcode": "81739", "addr:street": "Carl-Wery-Straße", "amenity": "place_of_worship", "check_date": "2024-02-10", "name": "Salih Sanli Moschee", "religion": "muslim"}}, {"type": "Feature", "geometry": {"type": "Point", "coordinates": [10.6878787, 53.8630181]}, "properties": {"osm_id": 2054215049, "osm_type": "node", "amenity": "place_of_worship", "check_date": "2024-04-04", "name": "Yeni Cami", "religion": "muslim"}}, {"type": "Feature", "geometry": {"type": "Point", "coordinates": [7.2113865, 51.5681209]}, "properties": {"osm_id": 2060721440, "osm_type": "node", "amenity": "place_of_worship", "denomination": "sunni", "name": "Fathi Merkez Camii", "religion": "muslim"}}, {"type": "Feature", "geometry": {"type": "Point", "coordinates": [10.5709316, 49.2950038]}, "properties": {"osm_id": 2065657197, "osm_type": "node", "addr:city": "Ansbach", "addr:country": "DE", "addr:housenumber": "53", "addr:postcode": "91522", "addr:street": "Heilig-Kreuz-Straße", "amenity": "place_of_worship", "name": "Hilâl Camii", "religion": "muslim"}}, {"type": "Feature", "geometry": {"type": "Point", "coordinates": [8.7380753, 53.055041]}, "properties": {"osm_id": 2123977974, "osm_type": "node", "amenity": "place_of_worship", "name": "Ayasofya Camii", "religion": "muslim", "wheelchair": "limited"}}, {"type": "Feature", "geometry": {"type": "Point", "coordinates": [7.0843326, 51.4893942]}, "properties": {"osm_id": 2135141618, "osm_type": "node", "amenity": "place_of_worship", "denomination": "sunni", "name": "Barbaros Yeni Camii", "operator": "DITIB", "religion": "muslim"}}, {"type": "Feature", "geometry": {"type": "Point", "coordinates": [7.4433323, 52.2720634]}, "properties": {"osm_id": 2150643906, "osm_type": "node", "addr:city": "Rheine", "addr:housenumber": "93", "addr:postcode": "48431", "addr:street": "Münsterstraße", "amenity": "place_of_worship", "denomination": "sunni", "name": "Ulu Camii", "religion": "muslim", "website": "https://www.ditib-rheine.de/"}}, {"type": "Feature", "geometry": {"type": "Point", "coordinates": [7.4518654, 52.2770668]}, "properties": {"osm_id": 2152550642, "osm_type": "node", "amenity": "place_of_worship", "denomination": "sunni", "name": "Valide-i Sultan Moschee", "religion": "muslim"}}, {"type": "Feature", "geometry": {"type": "Point", "coordinates": [11.0529587, 49.4354108]}, "properties": {"osm_id": 2166886284, "osm_type": "node", "addr:city": "Nürnberg", "addr:housenumber": "25", "addr:postcode": "90441", "addr:street": "Holbeinstraße", "alt_name": "IGMG Merkez Camii", "amenity": "place_of_worship", "check_date": "2025-03-21", "contact:facebook": "https://www.facebook.com/NuernbergMerkezCamii/", "full_name": "Islamische Gemeinde Milli Görüş | Merkez Camii", "name": "Merkez Camii", "religion": "muslim"}}, {"type": "Feature", "geometry": {"type": "Point", "coordinates": [7.2335191, 51.4637104]}, "properties": {"osm_id": 2177314174, "osm_type": "node", "addr:city": "Bochum", "addr:country": "DE", "addr:housenumber": "65", "addr:postcode": "44789", "addr:street": "Querenburger Straße", "amenity": "place_of_worship", "check_date": "2024-06-13", "name": "Islamischer Kulturverein Bochum e.V.", "religion": "muslim", "website": "https://www.ikv-online.net/"}}, {"type": "Feature", "geometry": {"type": "Point", "coordinates": [8.5577204, 50.1030346]}, "properties": {"osm_id": 2194617823, "osm_type": "node", "amenity": "place_of_worship", "denomination": "alevi", "name": "Aelivi Kültür Merkezi Cemevi", "religion": "muslim"}}, {"type": "Feature", "geometry": {"type": "Point", "coordinates": [10.3862074, 53.8071296]}, "properties": {"osm_id": 2273911111, "osm_type": "node", "amenity": "place_of_worship", "name": "Mevlana Moschee Bad Oldesloe", "religion": "muslim"}}, {"type": "Feature", "geometry": {"type": "Point", "coordinates": [7.3961607, 51.1150964]}, "properties": {"osm_id": 2313330007, "osm_type": "node", "addr:city": "Wipperfürth", "addr:country": "DE", "addr:housenumber": "36", "addr:postcode": "51688", "addr:street": "Klosterstraße", "amenity": "place_of_worship", "check_date": "2024-11-30", "contact:email": "info@wip-fatih-camii.de", "contact:phone": "+49 2267 7916", "name": "Fatih Camii", "religion": "muslim", "start_date": "1977", "website": "http://www.wip-fatih-camii.de"}}, {"type": "Feature", "geometry": {"type": "Point", "coordinates": [6.7394096, 51.4873141]}, "properties": {"osm_id": 2343118506, "osm_type": "node", "amenity": "place_of_worship", "name": "Nour", "religion": "muslim"}}, {"type": "Feature", "geometry": {"type": "Point", "coordinates": [6.7418638, 51.4884248]}, "properties": {"osm_id": 2343120209, "osm_type": "node", "amenity": "place_of_worship", "name": "Yildirim", "religion": "muslim", "source": "local knowledge"}}, {"type": "Feature", "geometry": {"type": "Point", "coordinates": [8.6389662, 50.1030675]}, "properties": {"osm_id": 2351460402, "osm_type": "node", "addr:housenumber": "49-51", "addr:street": "Kriegkstraße", "amenity": "place_of_worship", "check_date": "2024-02-27", "name": "Valide Sultan Cami", "religion": "muslim"}}, {"type": "Feature", "geometry": {"type": "Point", "coordinates": [9.7494686, 52.373578]}, "properties": {"osm_id": 2353110274, "osm_type": "node", "amenity": "place_of_worship", "name": "Abu Bakr al-Siddiq Moschee", "religion": "muslim"}}, {"type": "Feature", "geometry": {"type": "Point", "coordinates": [9.7630379, 52.4016656]}, "properties": {"osm_id": 2353139344, "osm_type": "node", "amenity": "place_of_worship", "check_date": "2026-06-09", "int_name": "Masjid-el-Ummah", "name": "Al-Ummah-Moschee", "name:ar": "مسجد الامة", "name:de": "Al-Ummah-Moschee", "operator": "Pakistan Zentrum Hannover e.V.", "religion": "muslim"}}, {"type": "Feature", "geometry": {"type": "Point", "coordinates": [8.6381849, 53.0369859]}, "properties": {"osm_id": 2357940986, "osm_type": "node", "addr:city": "Delmenhorst", "addr:country": "DE", "addr:housenumber": "40", "addr:postcode": "27755", "addr:street": "Breslauer Straße", "amenity": "place_of_worship", "check_date": "2024-05-31", "contact:email": "info@mevlana-delmenhorst.de", "contact:phone": "+49 4221 62290", "contact:website": "www.mevlana-delmenhorst.de", "name": "Mevlana Moschee", "religion": "muslim"}}, {"type": "Feature", "geometry": {"type": "Point", "coordinates": [8.5221896, 49.4348566]}, "properties": {"osm_id": 2378725877, "osm_type": "node", "addr:city": "Mannheim", "addr:housenumber": "5", "addr:postcode": "68219", "addr:street": "Karlsruher Straße", "amenity": "place_of_worship", "name": "Nur Camii", "phone": "+49 621 80397850", "religion": "muslim"}}, {"type": "Feature", "geometry": {"type": "Point", "coordinates": [8.6543404, 50.1014374]}, "properties": {"osm_id": 2387749104, "osm_type": "node", "addr:city": "Frankfurt am Main", "addr:housenumber": "20-22", "addr:postcode": "60327", "addr:street": "Heilbronner Straße", "amenity": "place_of_worship", "denomination": "sunni", "name": "TAQWA Moschee - Marokkanischer Verein", "operator": "Marokkanischer Verein für die Förderung des Geistingen und Kulturellen Gutes", "religion": "muslim", "wheelchair": "no"}}, {"type": "Feature", "geometry": {"type": "Point", "coordinates": [8.7378925, 51.7042655]}, "properties": {"osm_id": 2396471936, "osm_type": "node", "addr:city": "Paderborn", "addr:country": "DE", "addr:housenumber": "61", "addr:postcode": "33098", "addr:street": "Benediktinerstraße", "amenity": "place_of_worship", "name": "Islamisches Zentrum Paderborn", "operator": "Islamisches Zentrum Paderborn e.V.", "religion": "muslim", "website": "http://www.iz-pb.de/"}}, {"type": "Feature", "geometry": {"type": "Point", "coordinates": [11.9383386, 48.4700097]}, "properties": {"osm_id": 2399760919, "osm_type": "node", "addr:city": "Moosburg a.d. Isar", "addr:country": "DE", "addr:housenumber": "9", "addr:postcode": "85368", "addr:street": "Steinbockstraße", "amenity": "place_of_worship", "check_date": "2025-07-26", "name": "Moosburg Horet Camii", "religion": "muslim", "wheelchair": "no"}}, {"type": "Feature", "geometry": {"type": "Point", "coordinates": [7.7672256, 51.6903837]}, "properties": {"osm_id": 2429873573, "osm_type": "node", "addr:city": "Hamm", "addr:housenumber": "193", "addr:postcode": "59075", "addr:street": "Hammer Straße", "amenity": "place_of_worship", "name": "Selimiye Camii", "religion": "muslim"}}, {"type": "Feature", "geometry": {"type": "Point", "coordinates": [9.9297941, 51.5416601]}, "properties": {"osm_id": 2431489873, "osm_type": "node", "addr:city": "Göttingen", "addr:country": "DE", "addr:housenumber": "14", "addr:postcode": "37073", "addr:street": "Güterbahnhofstraße", "amenity": "place_of_worship", "contact:fax": "+49 551 541141", "contact:phone": "+49 551 541140", "name": "Al Taqwa Moschee", "organisation": "Islamisches Kulturzentrum Al-Taqwa e. V. Göttingen", "religion": "muslim", "survey:date": "2025-11-12"}}, {"type": "Feature", "geometry": {"type": "Point", "coordinates": [13.1838279, 52.5265817]}, "properties": {"osm_id": 2478866162, "osm_type": "node", "addr:city": "Berlin", "addr:country": "DE", "addr:housenumber": "65", "addr:postcode": "13581", "addr:street": "Seeburger Straße", "addr:suburb": "Wilhelmstadt", "amenity": "place_of_worship", "denomination": "shia", "email": "jenali1@hotmail.de", "name": "Markaz Rasulallah e.V.", "name:ar": "مسجد مركز رسول الله", "operator": "Islamische Gemeinschaft der schiitischen Gemeinden Deutschlands e.V. (IGS)", "religion": "muslim", "source": "Geoportal Berlin / Hauskoordinaten;http://www.igs-deutschland.org/die-igs/moscheekarte"}}, {"type": "Feature", "geometry": {"type": "Point", "coordinates": [12.2440641, 51.8313467]}, "properties": {"osm_id": 2499868599, "osm_type": "node", "amenity": "place_of_worship", "name": "Islamisches Zentrum, Muhammed Moschee", "religion": "muslim", "wheelchair": "no"}}, {"type": "Feature", "geometry": {"type": "Point", "coordinates": [10.1504262, 54.3162322]}, "properties": {"osm_id": 2502430401, "osm_type": "node", "addr:city": "Kiel", "addr:country": "DE", "addr:housenumber": "6", "addr:postcode": "24143", "addr:street": "Elisabethstraße", "amenity": "place_of_worship", "check_date": "2024-02-22", "denomination": "sunni", "name": "Ula Camii", "operator": "DITIB", "religion": "muslim"}}, {"type": "Feature", "geometry": {"type": "Point", "coordinates": [10.1467478, 54.3099635]}, "properties": {"osm_id": 2503290051, "osm_type": "node", "addr:city": "Kiel", "addr:country": "DE", "addr:housenumber": "42", "addr:postcode": "24143", "addr:street": "Karlstal", "amenity": "place_of_worship", "check_date": "2026-02-22", "denomination": "sunni", "name": "Mevlana Moschee", "operator": "VIKZ", "religion": "muslim", "wheelchair": "no"}}, {"type": "Feature", "geometry": {"type": "Point", "coordinates": [10.1473224, 54.3145177]}, "properties": {"osm_id": 2503614425, "osm_type": "node", "addr:city": "Kiel", "addr:country": "DE", "addr:housenumber": "39", "addr:postcode": "24143", "addr:street": "Augustenstraße", "amenity": "place_of_worship", "long_name": "Masjid An-Nur", "name": "Masjid An-Nur (Afghanische Moschee)", "religion": "muslim"}}, {"type": "Feature", "geometry": {"type": "Point", "coordinates": [8.7567083, 53.1144405]}, "properties": {"osm_id": 2511020663, "osm_type": "node", "addr:city": "Bremen", "addr:country": "DE", "addr:housenumber": "33,35", "addr:postcode": "28237", "addr:street": "Lindenhofstraße", "amenity": "place_of_worship", "name": "Mevlana-Moschee", "religion": "muslim", "wheelchair": "no"}}, {"type": "Feature", "geometry": {"type": "Point", "coordinates": [8.4686293, 49.491471]}, "properties": {"osm_id": 2522847089, "osm_type": "node", "amenity": "place_of_worship", "denomination": "sunni", "ditib:code": "de-68159-84-0", "name": "IGMG Mannheim Çarsi Camii", "phone": "+49 621 17205555", "religion": "muslim"}}, {"type": "Feature", "geometry": {"type": "Point", "coordinates": [8.9299275, 53.0600388]}, "properties": {"osm_id": 2525498919, "osm_type": "node", "addr:city": "Bremen", "addr:country": "DE", "addr:housenumber": "11", "addr:postcode": "28327", "addr:street": "Soltend", "amenity": "place_of_worship", "name": "Osterholz Camii", "operator": "Integration und Bildung Bremen e.V.", "phone": "+49 421 421117", "religion": "muslim"}}, {"type": "Feature", "geometry": {"type": "Point", "coordinates": [13.3519377, 52.5329001]}, "properties": {"osm_id": 2529484537, "osm_type": "node", "addr:city": "Berlin", "addr:country": "DE", "addr:housename": "IWKZ e.V.", "addr:housenumber": "1", "addr:postcode": "10557", "addr:street": "Feldzeugmeisterstraße", "addr:suburb": "Moabit", "alt_name": "Masjid Al-Falah", "amenity": "place_of_worship", "check_date": "2025-07-26", "denomination": "sunni", "name": "Indonesisches Weisheits- & Kulturzentrum", "note": "Indonesian", "religion": "muslim", "website": "https://iwkz.de/"}}, {"type": "Feature", "geometry": {"type": "Point", "coordinates": [11.943542, 48.48148]}, "properties": {"osm_id": 2581701991, "osm_type": "node", "addr:city": "Moosburg a.d. Isar", "addr:country": "DE", "addr:housenumber": "6", "addr:postcode": "85368", "addr:street": "Riesengebirgstraße", "amenity": "place_of_worship", "check_date": "2025-01-14", "name": "Moosburg Mevlana Camii", "religion": "muslim", "website": "http://www.moosburgmevlanacamii.de/?q=mevlana-camii-moosburg-iletisim", "wheelchair": "limited"}}, {"type": "Feature", "geometry": {"type": "Point", "coordinates": [9.5156685, 51.320919]}, "properties": {"osm_id": 2590620009, "osm_type": "node", "addr:city": "Kassel", "addr:country": "DE", "addr:housenumber": "5", "addr:postcode": "34125", "addr:street": "Josephstraße", "amenity": "place_of_worship", "name": "Al-Huda Moschee", "name:fa": "مسجد الهدی", "name:tr": "El-Huda Camii", "phone": "+49 561 4919264", "religion": "muslim", "website": "http://blog.izkassel.de/"}}, {"type": "Feature", "geometry": {"type": "Point", "coordinates": [8.3716996, 49.4952463]}, "properties": {"osm_id": 2609363474, "osm_type": "node", "addr:city": "Ludwigshafen am Rhein", "addr:country": "DE", "addr:housenumber": "52", "addr:postcode": "67071", "addr:street": "Wormser Straße", "amenity": "place_of_worship", "email": "info@mevlana-moschee-lu.de", "name": "DITIB - Mevlana-Moschee", "phone": "+49 621 699098", "religion": "muslim", "website": "http://www.mevlana-moschee-lu.de"}}, {"type": "Feature", "geometry": {"type": "Point", "coordinates": [10.0301117, 48.3251833]}, "properties": {"osm_id": 2613144415, "osm_type": "node", "amenity": "place_of_worship", "name": "Islamisches Kulturzentrum", "religion": "muslim"}}, {"type": "Feature", "geometry": {"type": "Point", "coordinates": [9.4995099, 51.3196546]}, "properties": {"osm_id": 2620044834, "osm_type": "node", "amenity": "place_of_worship", "name": "Ayasofya Moschee", "name:fa": "مسجد ایاصوفیه", "name:tr": "Ayasofya Camii", "religion": "muslim", "website": "http://www.igmg-kassel.de"}}, {"type": "Feature", "geometry": {"type": "Point", "coordinates": [8.5002145, 51.9986552]}, "properties": {"osm_id": 2654258256, "osm_type": "node", "addr:city": "Bielefeld", "addr:country": "DE", "addr:housenumber": "38", "addr:postcode": "33647", "addr:street": "Eisenbahnstraße", "amenity": "place_of_worship", "name": "Türkisch-Aserbaidschanischer-Kulturverein e.V.", "religion": "muslim", "short_name": "Blaues Haus"}}, {"type": "Feature", "geometry": {"type": "Point", "coordinates": [7.7666108, 49.4406024]}, "properties": {"osm_id": 2722457685, "osm_type": "node", "amenity": "place_of_worship", "name": "Ditib Fatih Moschee e.V.", "religion": "muslim", "website": "http://www.ditib-kaiserslautern.de/"}}, {"type": "Feature", "geometry": {"type": "Point", "coordinates": [7.7601495, 49.4437606]}, "properties": {"osm_id": 2722457697, "osm_type": "node", "amenity": "place_of_worship", "check_date": "2023-10-14", "name": "Islamisches Zentrum Kaiserslautern e.V.", "religion": "muslim", "website": "http://izkl.de/", "wheelchair": "no"}}, {"type": "Feature", "geometry": {"type": "Point", "coordinates": [8.4399863, 49.4872738]}, "properties": {"osm_id": 2725026898, "osm_type": "node", "amenity": "place_of_worship", "name": "Mehmet Akif Camii", "religion": "muslim", "website": "https://www.igmg.org/tr/haberler/yazi/2009/06/04/igmg-rhein-neckar-saar-boelgesi-mehmet-akif-cemiyetine-secim-ziyareti.html", "wheelchair": "no"}}, {"type": "Feature", "geometry": {"type": "Point", "coordinates": [8.0610366, 50.3960264]}, "properties": {"osm_id": 2755608221, "osm_type": "node", "amenity": "place_of_worship", "religion": "muslim"}}, {"type": "Feature", "geometry": {"type": "Point", "coordinates": [13.4273767, 52.4860503]}, "properties": {"osm_id": 2759261083, "osm_type": "node", "addr:city": "Berlin", "addr:country": "DE", "addr:housenumber": "18", "addr:postcode": "12047", "addr:street": "Sonnenallee", "amenity": "place_of_worship", "denomination": "sunni", "name": "Hamidiye Camii", "name:en": "Hamidiye Mosque", "name:ku": "Mizgefta Hemîdiye", "religion": "muslim", "wheelchair": "yes"}}, {"type": "Feature", "geometry": {"type": "Point", "coordinates": [10.1020613, 53.5395827]}, "properties": {"osm_id": 2798438745, "osm_type": "node", "addr:city": "Hamburg", "addr:country": "DE", "addr:housenumber": "50", "addr:postcode": "22111", "addr:street": "Billstedter Hauptstraße", "amenity": "place_of_worship", "name": "Ibrahim-Khalil-Moschee", "religion": "muslim"}}, {"type": "Feature", "geometry": {"type": "Point", "coordinates": [11.527699, 48.1861023]}, "properties": {"osm_id": 2816069084, "osm_type": "node", "addr:city": "München", "addr:country": "DE", "addr:housenumber": "45", "addr:postcode": "80993", "addr:street": "Ehrenbreitsteiner Straße", "amenity": "place_of_worship", "denomination": "shia", "email": "a.safa@web.de", "name": "Moschee / Büro für Islamisches Recht - Ayatulah Fadlulah", "name:ar": "مسجد / مكتب الشريعة الإسلامية - آية الله فضل الله", "operator": "Islamische Gemeinschaft der schiitischen Gemeinden Deutschlands e.V. (IGS)", "religion": "muslim", "source": "survey;http://www.igs-deutschland.org/die-igs/moscheekarte"}}, {"type": "Feature", "geometry": {"type": "Point", "coordinates": [13.4388682, 52.4784894]}, "properties": {"osm_id": 2822957669, "osm_type": "node", "addr:city": "Berlin", "addr:country": "DE", "addr:housenumber": "110", "addr:postcode": "12043", "addr:street": "Richardstraße", "addr:suburb": "Neukölln", "amenity": "place_of_worship", "denomination": "shia", "email": "info@oniki-imam-yolu.com", "name": "Oniki Imam Yolu/Weg der Zwölf Imame", "name:ar": "مسجد طريقة الأئمة الاثني عشر (أليفيتشر كولترفيرين برلين أونيكي إمام يولو)", "operator": "Alevitischer Kulturverein Berlin e.V.", "phone": "+49 30 36463881", "religion": "muslim", "source": "Geoportal Berlin / Hauskoordinaten;http://www.igs-deutschland.org/die-igs/moscheekarte", "website": "http://www.oniki-imam-yolu.com/"}}, {"type": "Feature", "geometry": {"type": "Point", "coordinates": [10.102632, 48.8306014]}, "properties": {"osm_id": 2826463344, "osm_type": "node", "addr:city": "Aalen", "addr:housenumber": "104", "addr:postcode": "73431", "addr:street": "Ulmer Straße", "amenity": "place_of_worship", "name": "Fatih Moschee", "religion": "muslim", "website": "https://www.mgaalen.de/"}}, {"type": "Feature", "geometry": {"type": "Point", "coordinates": [13.4025532, 52.4247877]}, "properties": {"osm_id": 2848134843, "osm_type": "node", "addr:city": "Berlin", "addr:country": "DE", "addr:housenumber": "24", "addr:postcode": "12107", "addr:street": "Im Lesachtal", "addr:suburb": "Mariendorf", "amenity": "place_of_worship", "denomination": "shia", "name": "Islamisches Imam Hassan Werk e.V.", "name:ar": "مسجد عمل الإسلامي الإمام الحسن", "operator": "Islamische Gemeinschaft der schiitischen Gemeinden Deutschlands e.V. (IGS)", "religion": "muslim", "source": "Geoportal Berlin / Hauskoordinaten;http://www.igs-deutschland.org/die-igs/moscheekarte"}}, {"type": "Feature", "geometry": {"type": "Point", "coordinates": [8.5593096, 50.1436057]}, "properties": {"osm_id": 2853244162, "osm_type": "node", "addr:city": "Eschborn", "addr:housenumber": "50", "addr:postcode": "65760", "addr:street": "Schwalbacher Straße", "amenity": "place_of_worship", "language:tr": "main", "name": "Eschborn Camii", "name:de": "Moschee Eschborn", "note": "The Masjid open at the prayers times. Jummah prayer starts around 13:30, and the speech is only in Turkish language.", "religion": "muslim", "wheelchair": "no"}}, {"type": "Feature", "geometry": {"type": "Point", "coordinates": [11.4462586, 48.1461233]}, "properties": {"osm_id": 2877867082, "osm_type": "node", "addr:city": "München", "addr:country": "DE", "addr:housenumber": "80", "addr:postcode": "81243", "addr:street": "Bodenseestraße", "amenity": "place_of_worship", "denomination": "sunni", "name": "Islamische Gemeinschaft Džemaat SABUR e. V.", "phone": "+49 89 82940369", "religion": "muslim", "website": "http://www.sabur.de"}}, {"type": "Feature", "geometry": {"type": "Point", "coordinates": [6.9728275, 50.9343482]}, "properties": {"osm_id": 2883188103, "osm_type": "node", "amenity": "place_of_worship", "name": "Moschee Deutz", "operator": "IKV Köln Islamischer Kultur Verein e. V.", "religion": "muslim", "wheelchair": "limited"}}, {"type": "Feature", "geometry": {"type": "Point", "coordinates": [8.7103328, 50.098967]}, "properties": {"osm_id": 2899503594, "osm_type": "node", "addr:housenumber": "212", "addr:street": "Offenbacher Landstraße", "amenity": "place_of_worship", "name": "Pak Muhammadi Moschee", "religion": "muslim", "wheelchair": "limited"}}, {"type": "Feature", "geometry": {"type": "Point", "coordinates": [8.6003329, 53.5247843]}, "properties": {"osm_id": 2964264975, "osm_type": "node", "addr:city": "Bremerhaven", "addr:housenumber": "5-7", "addr:postcode": "27570", "addr:street": "Lübecker Straße", "amenity": "place_of_worship", "denomination": "sunni", "name": "Selimiye Camii Bremerhaven", "religion": "muslim"}}, {"type": "Feature", "geometry": {"type": "Point", "coordinates": [8.4844159, 53.4957176]}, "properties": {"osm_id": 2964274132, "osm_type": "node", "amenity": "place_of_worship", "denomination": "sunni", "name": "Selimiye Camii Nordenham", "religion": "muslim"}}, {"type": "Feature", "geometry": {"type": "Point", "coordinates": [10.0714576, 48.2119759]}, "properties": {"osm_id": 2974010002, "osm_type": "node", "amenity": "place_of_worship", "name": "Türkisch-Islamischer Kulturverein", "religion": "muslim", "wheelchair": "yes"}}, {"type": "Feature", "geometry": {"type": "Point", "coordinates": [10.5084015, 52.2790049]}, "properties": {"osm_id": 2992022503, "osm_type": "node", "addr:city": "Braunschweig", "addr:housenumber": "21", "addr:postcode": "38114", "addr:street": "Varrentrappstraße", "amenity": "place_of_worship", "denomination": "sunni", "name": "IGMG Ortsverein Braunschweig e.V.", "religion": "muslim"}}, {"type": "Feature", "geometry": {"type": "Point", "coordinates": [8.7927952, 50.0069949]}, "properties": {"osm_id": 3007969707, "osm_type": "node", "amenity": "place_of_worship", "name": "Tawhid Moschee", "note": "Neubau nördlich nebenan ist noch Baustelle (2015)", "religion": "muslim", "source": "Ortskenntnis"}}, {"type": "Feature", "geometry": {"type": "Point", "coordinates": [10.5245256, 52.2792176]}, "properties": {"osm_id": 3038356649, "osm_type": "node", "amenity": "place_of_worship", "contact:website": "http://www.ditib-braunschweig.de/", "name": "Merkez Camii", "phone": "+49 531 2338706", "religion": "muslim"}}, {"type": "Feature", "geometry": {"type": "Point", "coordinates": [10.5222137, 52.2599381]}, "properties": {"osm_id": 3038362971, "osm_type": "node", "amenity": "place_of_worship", "check_date": "2024-08-20", "contact:fax": "+49 531 6989882", "contact:phone": "+49 531 4739505", "name": "Braunschweig Moschee", "religion": "muslim"}}, {"type": "Feature", "geometry": {"type": "Point", "coordinates": [10.4779924, 52.2382628]}, "properties": {"osm_id": 3038363131, "osm_type": "node", "amenity": "place_of_worship", "check_date": "2025-11-11", "name": "Bosnische Moschee", "religion": "muslim"}}, {"type": "Feature", "geometry": {"type": "Point", "coordinates": [8.7435641, 50.1919377]}, "properties": {"osm_id": 3040016020, "osm_type": "node", "addr:city": "Bad Vilbel", "addr:housenumber": "2", "addr:postcode": "61118", "addr:street": "Büdinger Straße", "amenity": "place_of_worship", "name": "DITIB Türkisch Islamische Gemeinde e.V.", "religion": "muslim", "wheelchair": "limited"}}, {"type": "Feature", "geometry": {"type": "Point", "coordinates": [8.545417, 50.1035359]}, "properties": {"osm_id": 3041994848, "osm_type": "node", "amenity": "place_of_worship", "operator": "Bosnisch-Islamischer Verein e.V.", "religion": "muslim"}}, {"type": "Feature", "geometry": {"type": "Point", "coordinates": [8.5394864, 50.1095419]}, "properties": {"osm_id": 3042000132, "osm_type": "node", "addr:housenumber": "99", "addr:street": "Königsteiner Straße", "amenity": "place_of_worship", "name": "IGMG Ehl-i Beyt Camii", "operator": "Türkischer Kultur- und Freizeitverein e.V.", "religion": "muslim"}}, {"type": "Feature", "geometry": {"type": "Point", "coordinates": [8.5524465, 50.1018984]}, "properties": {"osm_id": 3042010704, "osm_type": "node", "amenity": "place_of_worship", "name": "ATiB Höchst Mevlana Camii", "religion": "muslim", "website": "http://www.atib-hoechst.com/"}}, {"type": "Feature", "geometry": {"type": "Point", "coordinates": [8.6014973, 50.0950002]}, "properties": {"osm_id": 3042021177, "osm_type": "node", "amenity": "place_of_worship", "name": "Islamisches Zentrum Frankfurt e.V.", "religion": "muslim", "url": "http://www.moschee-frankfurt.de/"}}, {"type": "Feature", "geometry": {"type": "Point", "coordinates": [8.6379678, 50.1012792]}, "properties": {"osm_id": 3042027479, "osm_type": "node", "addr:city": "Frankfurt am Main", "addr:housenumber": "15", "addr:postcode": "60326", "addr:street": "Lahnstraße", "amenity": "place_of_worship", "check_date": "2024-02-28", "name": "IKZ - Islamski Kulturni Centar", "religion": "muslim", "wheelchair": "limited"}}, {"type": "Feature", "geometry": {"type": "Point", "coordinates": [8.6699808, 50.1076777]}, "properties": {"osm_id": 3042031279, "osm_type": "node", "amenity": "place_of_worship", "name": "Merkez Moschee", "religion": "muslim", "website": "https://www.ditib.de/default.php?id=12&lang=en&12&filter=alphabet&abc=F", "wheelchair": "yes"}}, {"type": "Feature", "geometry": {"type": "Point", "coordinates": [8.657332, 50.1079572]}, "properties": {"osm_id": 3042047648, "osm_type": "node", "addr:city": "Frankfurt am Main", "addr:country": "DE", "addr:housenumber": "125", "addr:postcode": "60327", "addr:street": "Mainzer Landstraße", "amenity": "place_of_worship", "name": "Bosniakisches Kultur Center Frankfurt am Main", "name:bs": "Bošnjački Kulturni Centar Frankfurt na Majni", "name:de": "Bosniakisches Kultur Center Frankfurt am Main", "religion": "muslim", "website": "http://www.bkc-frankfurt.de/index.php/impressum", "wheelchair": "no"}}, {"type": "Feature", "geometry": {"type": "Point", "coordinates": [8.791634, 50.0085036]}, "properties": {"osm_id": 3043815139, "osm_type": "node", "amenity": "place_of_worship", "name": "DITIB Dietzenbach Fatih Moschee", "note": "Gemeinde von DITIB", "operator": "DITIB", "religion": "muslim", "source": "survey;local_knowledge;Info von user_5359 (TOM-Liste)"}}, {"type": "Feature", "geometry": {"type": "Point", "coordinates": [10.9873459, 49.4716044]}, "properties": {"osm_id": 3043877586, "osm_type": "node", "amenity": "place_of_worship", "name": "Fürth Türk Ocagi - Selimiye Camii", "religion": "muslim"}}, {"type": "Feature", "geometry": {"type": "Point", "coordinates": [6.1893065, 50.8612984]}, "properties": {"osm_id": 3050045599, "osm_type": "node", "addr:city": "Alsdorf", "addr:country": "DE", "addr:housenumber": "19", "addr:postcode": "52477", "addr:street": "Blumenrather Straße", "addr:suburb": "Mariadorf", "amenity": "place_of_worship", "name": "Mevlana Camii Moschee", "religion": "muslim", "website": "https://www.moscheesuche.de/moschee/Alsdorf/Mevlana_Camii/13080"}}, {"type": "Feature", "geometry": {"type": "Point", "coordinates": [9.1307636, 49.3461093]}, "properties": {"osm_id": 3052353073, "osm_type": "node", "amenity": "place_of_worship", "check_date": "2024-07-28", "image": "File:Mosbach_Moschee.JPG", "name": "Minar Sinan Camii", "religion": "muslim", "wheelchair": "yes"}}, {"type": "Feature", "geometry": {"type": "Point", "coordinates": [9.7099349, 52.3691803]}, "properties": {"osm_id": 3052423393, "osm_type": "node", "addr:city": "Hannover", "addr:country": "DE", "addr:housenumber": "11", "addr:postcode": "30449", "addr:street": "Dieckbornstraße", "amenity": "place_of_worship", "check_date": "2024-07-17", "name": "Jama'at un-Nur", "operator": "Jama'at un-Nur Hannover e.V.", "religion": "muslim"}}, {"type": "Feature", "geometry": {"type": "Point", "coordinates": [8.5366192, 50.0582897]}, "properties": {"osm_id": 3053283215, "osm_type": "node", "addr:housenumber": "85", "addr:street": "Mörfelder Straße", "amenity": "place_of_worship", "check_date": "2024-01-31", "name": "Fevzi Cakmak Camii", "religion": "muslim", "url": "http://www.atib-hoechst.com/", "wheelchair": "no"}}, {"type": "Feature", "geometry": {"type": "Point", "coordinates": [8.5480325, 50.1003841]}, "properties": {"osm_id": 3053294033, "osm_type": "node", "amenity": "place_of_worship", "name": "Höchst Camii", "religion": "muslim", "website": "http://www.atib-hoechst.com/"}}, {"type": "Feature", "geometry": {"type": "Point", "coordinates": [8.8209911, 50.1202883]}, "properties": {"osm_id": 3054132754, "osm_type": "node", "addr:postcode": "63165", "amenity": "place_of_worship", "name": "Bildungs- und Kulturverein Mühlheim e.V.", "religion": "muslim"}}, {"type": "Feature", "geometry": {"type": "Point", "coordinates": [8.7629899, 50.0866995]}, "properties": {"osm_id": 3056764151, "osm_type": "node", "addr:housenumber": "20", "addr:street": "Jacques-Offenbach-Straße", "amenity": "place_of_worship", "name": "Bosnische Moschee", "religion": "muslim", "url": "http://www.atib-hoechst.com/"}}, {"type": "Feature", "geometry": {"type": "Point", "coordinates": [7.1544357, 50.8143559]}, "properties": {"osm_id": 3057210842, "osm_type": "node", "amenity": "place_of_worship", "contact:email": "mohamed8@gmx.de", "denomination": "sunni", "name": "Al-Huda Moschee", "religion": "muslim"}}, {"type": "Feature", "geometry": {"type": "Point", "coordinates": [9.1613482, 48.8099216]}, "properties": {"osm_id": 3066121603, "osm_type": "node", "addr:city": "Stuttgart", "addr:country": "DE", "addr:housenumber": "72b", "addr:postcode": "70469", "addr:street": "Stuttgarter Straße", "amenity": "place_of_worship", "religion": "muslim", "wheelchair": "limited"}}, {"type": "Feature", "geometry": {"type": "Point", "coordinates": [9.8004689, 53.526109]}, "properties": {"osm_id": 3067674402, "osm_type": "node", "addr:city": "Hamburg", "addr:housenumber": "19", "addr:postcode": "21129", "addr:street": "Neuenfelder Fährdeich", "amenity": "place_of_worship", "check_date": "2025-10-31", "description": "Islamische Gemeinde Neuenfelde e.V.", "name": "Küçük İstanbul Camii", "religion": "muslim"}}, {"type": "Feature", "geometry": {"type": "Point", "coordinates": [8.4519067, 50.0149108]}, "properties": {"osm_id": 3067887908, "osm_type": "node", "addr:postcode": "65479", "amenity": "place_of_worship", "name": "Moschee Assadaka", "operator": "Marrokkanischer Verein", "religion": "muslim"}}, {"type": "Feature", "geometry": {"type": "Point", "coordinates": [8.4437414, 49.4833258]}, "properties": {"osm_id": 3067984399, "osm_type": "node", "amenity": "place_of_worship", "check_date": "2023-12-25", "name": "Albanischer-Islamischer-e.V.-Moschee", "religion": "muslim", "wheelchair": "yes"}}, {"type": "Feature", "geometry": {"type": "Point", "coordinates": [11.0682383, 49.4522624]}, "properties": {"osm_id": 3070846982, "osm_type": "node", "addr:city": "Nürnberg", "addr:country": "DE", "addr:housenumber": "47b", "addr:postcode": "90429", "addr:street": "Spittlertorgraben", "amenity": "place_of_worship", "check_date": "2026-05-04", "name": "Ayasofya Camii", "operator": "Bildung und Integration in Nürnberg e.V.", "religion": "muslim"}}, {"type": "Feature", "geometry": {"type": "Point", "coordinates": [11.0643058, 49.4300568]}, "properties": {"osm_id": 3071003204, "osm_type": "node", "addr:city": "Nürnberg", "addr:country": "DE", "addr:housenumber": "17", "addr:postcode": "90443", "addr:street": "Meisenstraße", "amenity": "place_of_worship", "name": "Nürnberger Moschee", "operator": "Islamische Gemeinschaft der Bosniaken Nürnberg e.V.", "religion": "muslim", "website": "https://www.dzamija.net/"}}, {"type": "Feature", "geometry": {"type": "Point", "coordinates": [8.8364777, 53.071775]}, "properties": {"osm_id": 3072968433, "osm_type": "node", "amenity": "place_of_worship", "building": "mosque", "fixme": "lage nicht sicher;weitere tags", "name": "Süleymaniye Camii", "religion": "muslim"}}, {"type": "Feature", "geometry": {"type": "Point", "coordinates": [8.7896313, 53.0972917]}, "properties": {"osm_id": 3073744210, "osm_type": "node", "addr:city": "Bremen", "addr:country": "DE", "addr:housenumber": "13", "addr:postcode": "28217", "addr:street": "Waller Heerstraße", "amenity": "place_of_worship", "check_date": "2024-05-20", "name": "Camiye giriş", "religion": "muslim", "wheelchair": "limited"}}, {"type": "Feature", "geometry": {"type": "Point", "coordinates": [8.2334441, 50.0781911]}, "properties": {"osm_id": 3073902057, "osm_type": "node", "addr:city": "Wiesbaden", "addr:housenumber": "24-26", "addr:postcode": "65185", "addr:street": "Dotzheimer Straße", "amenity": "place_of_worship", "denomination": "sunni", "name": "Süleymaniye-Moschee", "name:fa": "مسجد سلیمانیه", "name:tr": "Süleymaniye Camii", "operator": "VIKZ Islamischer Bildungs- & Kulturverein", "religion": "muslim"}}, {"type": "Feature", "geometry": {"type": "Point", "coordinates": [7.9297956, 49.9792959]}, "properties": {"osm_id": 3076787723, "osm_type": "node", "addr:city": "Rüdesheim am Rhein", "addr:country": "DE", "addr:housenumber": "24", "addr:postcode": "65385", "addr:street": "Geisenheimer Straße", "amenity": "place_of_worship", "contact:website": "http://www.rikv.de", "operator": "Rheingauer Islamischer Kultur Verein e.V.", "religion": "muslim"}}, {"type": "Feature", "geometry": {"type": "Point", "coordinates": [7.0300895, 52.2110756]}, "properties": {"osm_id": 3076839975, "osm_type": "node", "addr:city": "Gronau", "addr:country": "DE", "addr:housenumber": "11,13", "addr:postcode": "48599", "addr:street": "Burgstraße", "amenity": "place_of_worship", "contact:phone": "+49 2562 3071", "contact:website": "https://www.moschee-gronau.de", "name": "Türkisch Islamische Gemeinde", "religion": "muslim"}}, {"type": "Feature", "geometry": {"type": "Point", "coordinates": [10.9124186, 48.3864586]}, "properties": {"osm_id": 3084432636, "osm_type": "node", "amenity": "place_of_worship", "denomination": "sunni", "operator": "Kultur und Bildung in Lechhausen e.V. (VIKZ)", "religion": "muslim"}}, {"type": "Feature", "geometry": {"type": "Point", "coordinates": [11.6104729, 48.0531096]}, "properties": {"osm_id": 3084905766, "osm_type": "node", "addr:city": "Taufkirchen", "addr:country": "DE", "addr:housenumber": "9", "addr:postcode": "82024", "addr:street": "Am Bahnsteig", "amenity": "place_of_worship", "check_date": "2023-09-02", "name": "Taufkirchen Camii", "operator": "Türkisch Isalamische Gemeinde zu Zaufkirchen e.V.", "phone": "+49 89 99940079", "religion": "muslim", "source": "survey"}}, {"type": "Feature", "geometry": {"type": "Point", "coordinates": [11.5762985, 48.1134877]}, "properties": {"osm_id": 3085096640, "osm_type": "node", "amenity": "place_of_worship", "check_date": "2026-03-07", "name": "Fatih Camii", "operator": "Münchner Integrations-und Bildungsverein e.V.", "religion": "muslim", "wheelchair": "no"}}, {"type": "Feature", "geometry": {"type": "Point", "coordinates": [11.2779097, 49.5105915]}, "properties": {"osm_id": 3094712529, "osm_type": "node", "addr:city": "Lauf an der Pegnitz", "addr:country": "DE", "addr:housenumber": "14b", "addr:postcode": "91207", "addr:street": "Glockengießerstraße", "amenity": "place_of_worship", "contact:email": "ditiblauf@googlemail.com", "contact:phone": "+49 9123 82337", "name": "Mevlana Moschee", "religion": "muslim"}}, {"type": "Feature", "geometry": {"type": "Point", "coordinates": [8.7599433, 50.1026177]}, "properties": {"osm_id": 3098171901, "osm_type": "node", "amenity": "place_of_worship", "name": "BKZS - Dzemat Offenbach am Main", "religion": "muslim", "website": "http://www.dzemat-of.de/"}}, {"type": "Feature", "geometry": {"type": "Point", "coordinates": [8.8407229, 50.1342674]}, "properties": {"osm_id": 3101375726, "osm_type": "node", "amenity": "place_of_worship", "check_date": "2026-05-27", "name": "Maintal Camii", "operator": "Bildungs-und Kulturverein Maintal", "religion": "muslim"}}, {"type": "Feature", "geometry": {"type": "Point", "coordinates": [10.6384813, 47.8879163]}, "properties": {"osm_id": 3101380336, "osm_type": "node", "amenity": "place_of_worship", "denomination": "sunni", "name": "Türkisch-Islamische Gemeinde", "religion": "muslim"}}, {"type": "Feature", "geometry": {"type": "Point", "coordinates": [8.445431, 48.9962891]}, "properties": {"osm_id": 3113263488, "osm_type": "node", "addr:city": "Karlsruhe", "addr:country": "DE", "addr:housenumber": "10", "addr:postcode": "76227", "addr:street": "Dieselstraße", "addr:suburb": "Durlach", "amenity": "place_of_worship", "check_date": "2025-08-26", "denomination": "sunni", "name": "Fatih Camii", "religion": "muslim"}}, {"type": "Feature", "geometry": {"type": "Point", "coordinates": [8.3427733, 51.353763]}, "properties": {"osm_id": 3123517252, "osm_type": "node", "amenity": "place_of_worship", "denomination": "sunni", "name": "IGMG OG Meschede", "religion": "muslim"}}, {"type": "Feature", "geometry": {"type": "Point", "coordinates": [7.8554849, 48.005909]}, "properties": {"osm_id": 3126787437, "osm_type": "node", "addr:city": "Freiburg im Breisgau", "addr:country": "DE", "addr:housenumber": "79", "addr:postcode": "79104", "addr:street": "Habsburgerstraße", "addr:suburb": "Herdern", "amenity": "place_of_worship", "contact:website": "http://www.fatihcami-freiburg.de", "denomination": "sunni", "name": "Fatih Camii Freiburg", "operator": "Kulturzentrum für Bildung und Integration Freiburg e.V.", "religion": "muslim"}}, {"type": "Feature", "geometry": {"type": "Point", "coordinates": [9.2522665, 48.7653547]}, "properties": {"osm_id": 3135544813, "osm_type": "node", "amenity": "place_of_worship", "name": "Islamische Gemeinschaft Stuttgart e.V.", "religion": "muslim"}}, {"type": "Feature", "geometry": {"type": "Point", "coordinates": [12.1513764, 48.5532649]}, "properties": {"osm_id": 3136896483, "osm_type": "node", "addr:country": "DE", "addr:housenumber": "7", "addr:postcode": "84030", "addr:street": "Benzstraße", "amenity": "place_of_worship", "check_date": "2024-12-25", "name": "Yunus Emre Camii", "religion": "muslim"}}, {"type": "Feature", "geometry": {"type": "Point", "coordinates": [13.3368317, 52.4716001]}, "properties": {"osm_id": 3145126656, "osm_type": "node", "amenity": "place_of_worship", "check_date": "2023-09-17", "name": "Valide Sultan Camii", "operator": "Friedenauer Kulturverein zur Integration & Bildung e. V. in Berlin", "religion": "muslim", "source": "survey", "wheelchair": "no"}}, {"type": "Feature", "geometry": {"type": "Point", "coordinates": [7.2121028, 51.1760027]}, "properties": {"osm_id": 3151384025, "osm_type": "node", "amenity": "place_of_worship", "name": "Fatih Camii", "name:de": "Eroberer-Moschee", "note": "ATIB; Türkische Kulturverein e.V.", "phone": "+492191385491", "religion": "muslim"}}, {"type": "Feature", "geometry": {"type": "Point", "coordinates": [8.7588404, 50.1037907]}, "properties": {"osm_id": 3161085863, "osm_type": "node", "amenity": "place_of_worship", "check_date": "2023-08-15", "name": "Baitul Gafur Moschee", "religion": "muslim"}}, {"type": "Feature", "geometry": {"type": "Point", "coordinates": [8.7557911, 50.1022209]}, "properties": {"osm_id": 3176492261, "osm_type": "node", "amenity": "place_of_worship", "check_date": "2024-10-06", "name": "Sadik Ahmet Camii", "religion": "muslim"}}, {"type": "Feature", "geometry": {"type": "Point", "coordinates": [8.4718364, 49.5024486]}, "properties": {"osm_id": 3186403320, "osm_type": "node", "addr:city": "Mannheim", "addr:housenumber": "4-6", "addr:postcode": "68169", "addr:street": "Pettenkoferstraße", "amenity": "place_of_worship", "check_date": "2026-03-27", "name": "Ulu Camii", "religion": "muslim"}}, {"type": "Feature", "geometry": {"type": "Point", "coordinates": [10.1705099, 47.9885411]}, "properties": {"osm_id": 3189201778, "osm_type": "node", "amenity": "place_of_worship", "name": "Memmingen Camii", "religion": "muslim"}}, {"type": "Feature", "geometry": {"type": "Point", "coordinates": [7.0993026, 51.0864074]}, "properties": {"osm_id": 3191852459, "osm_type": "node", "amenity": "place_of_worship", "name": "DiTiB", "operator": "Türkisch Islamische Gemeinde Burscheid", "religion": "muslim"}}, {"type": "Feature", "geometry": {"type": "Point", "coordinates": [7.2514877, 51.1889275]}, "properties": {"osm_id": 3191856961, "osm_type": "node", "addr:city": "Remscheid", "addr:country": "DE", "addr:housenumber": "15;17", "addr:postcode": "42897", "addr:street": "Karlstraße", "addr:suburb": "Lennep", "amenity": "place_of_worship", "operator": "Islamisches Kulturzentrum \"Ezan Xhamija\"", "religion": "muslim"}}, {"type": "Feature", "geometry": {"type": "Point", "coordinates": [7.0082297, 49.230236]}, "properties": {"osm_id": 3192161724, "osm_type": "node", "addr:city": "Saarbrücken", "addr:housenumber": "14-16", "addr:postcode": "66121", "addr:street": "Arndtstraße", "amenity": "place_of_worship", "check_date": "2023-07-15", "name": "Bosnisches Islamisches Kulturzentrum Saarbrücken", "religion": "muslim"}}, {"type": "Feature", "geometry": {"type": "Point", "coordinates": [7.5407647, 52.1688741]}, "properties": {"osm_id": 3204800335, "osm_type": "node", "amenity": "place_of_worship", "denomination": "sunni", "name": "Moschee Emsdetten", "religion": "muslim", "source": "http://www.moschee-emsdetten.de/6.html", "website": "http://www.moschee-emsdetten.de"}}, {"type": "Feature", "geometry": {"type": "Point", "coordinates": [9.9819712, 53.4572258]}, "properties": {"osm_id": 3210272868, "osm_type": "node", "amenity": "place_of_worship", "check_date": "2024-07-20", "name": "DITIB Türkisch Islamische Kultur Verein e.V.", "phone": "+49 40 7664795", "religion": "muslim"}}, {"type": "Feature", "geometry": {"type": "Point", "coordinates": [6.7975478, 51.2256255]}, "properties": {"osm_id": 3243608897, "osm_type": "node", "addr:city": "Düsseldorf", "addr:country": "DE", "addr:housenumber": "22", "addr:postcode": "40233", "addr:street": "Ackerstraße", "amenity": "place_of_worship", "name": "IKBS Düsseldorf Camii", "operator": "Integration, Kultur und Bildungstätte Düsseldorf e.V", "religion": "muslim"}}, {"type": "Feature", "geometry": {"type": "Point", "coordinates": [9.5101383, 53.9253941]}, "properties": {"osm_id": 3246559692, "osm_type": "node", "amenity": "place_of_worship", "name": "Ulu Camii", "religion": "muslim"}}, {"type": "Feature", "geometry": {"type": "Point", "coordinates": [11.764981, 48.3215436]}, "properties": {"osm_id": 3274212806, "osm_type": "node", "addr:city": "Hallbergmoos", "addr:country": "DE", "addr:housenumber": "47", "addr:postcode": "85399", "addr:street": "Birkenweg", "amenity": "place_of_worship", "denomination": "sunni", "name": "Hallbergmoos Camii", "operator": "Hallbergmooser Bildungs-und Kulturverein e.V.", "phone": "+49 811 2954", "religion": "muslim"}}, {"type": "Feature", "geometry": {"type": "Point", "coordinates": [8.4887843, 49.9181388]}, "properties": {"osm_id": 3277124239, "osm_type": "node", "addr:city": "Groß-Gerau", "addr:housenumber": "1", "addr:postcode": "64521", "addr:street": "Klein-Gerauer-Straße", "amenity": "place_of_worship", "check_date": "2024-07-26", "name": "Groß-Gerau Camii", "phone": "+49 6152 909689", "religion": "muslim"}}, {"type": "Feature", "geometry": {"type": "Point", "coordinates": [12.3378355, 51.3355537]}, "properties": {"osm_id": 3278221606, "osm_type": "node", "addr:city": "Leipzig", "addr:housenumber": "12", "addr:postcode": "04177", "addr:street": "Lützner Straße", "amenity": "place_of_worship", "denomination": "shia", "email": "dr.jabar2@yahoo.de", "name": "Islamisches Al-Sahra Center e. V.", "name:ar": "مسجد مركز الصحراء الإسلامي", "operator": "Islamische Gemeinschaft der schiitischen Gemeinden Deutschlands e.V. (IGS)", "phone": "+49 341 9020292", "religion": "muslim", "source": "http://www.igs-deutschland.org/die-igs/moscheekarte"}}, {"type": "Feature", "geometry": {"type": "Point", "coordinates": [12.4096887, 51.3452144]}, "properties": {"osm_id": 3278222473, "osm_type": "node", "addr:city": "Leipzig", "addr:country": "DE", "addr:housenumber": "108", "addr:postcode": "04315", "addr:street": "Eisenbahnstraße", "amenity": "place_of_worship", "denomination": "ahmadi", "language:ar": "yes", "language:de": "yes", "language:ur": "yes", "name": "Ahmadiyya-Gemeinde", "name:ar": "الجماعة الأحمدية", "name:de": "Ahmadiyya-Gemeinde", "name:ur": "احمدیہ برادری", "religion": "muslim"}}, {"type": "Feature", "geometry": {"type": "Point", "coordinates": [12.3285612, 51.3369174]}, "properties": {"osm_id": 3278228663, "osm_type": "node", "addr:city": "Leipzig", "addr:housenumber": "19", "addr:postcode": "04177", "addr:street": "Apostelstraße", "amenity": "place_of_worship", "check_date": "2025-07-27", "language:ar": "yes", "language:bs": "yes", "language:de": "yes", "language:sh": "yes", "name": "Islamisches Kulturzentrum der Bosniaken", "name:ar": "المركز الثقافي الإسلامي البوسني", "name:de": "Islamisches Kulturzentrum der Bosniaken", "religion": "muslim", "wheelchair": "no"}}, {"type": "Feature", "geometry": {"type": "Point", "coordinates": [6.9563958, 51.4630964]}, "properties": {"osm_id": 3312430961, "osm_type": "node", "addr:city": "Essen", "addr:housenumber": "508", "addr:postcode": "45355", "addr:street": "Altendorfer Straße", "amenity": "place_of_worship", "check_date": "2024-02-13", "name": "Integrations- und Bildungszentrum Essen e.V.", "religion": "muslim"}}, {"type": "Feature", "geometry": {"type": "Point", "coordinates": [7.4694923, 51.5262076]}, "properties": {"osm_id": 3316282743, "osm_type": "node", "addr:city": "Dortmund", "addr:housenumber": "33", "addr:postcode": "44145", "addr:street": "Schüchtermannstraße", "amenity": "place_of_worship", "check_date": "2025-10-04", "name": "Islamisches Kulturzentrum \"Bedr\" e.V. Dortmund", "religion": "muslim"}}, {"type": "Feature", "geometry": {"type": "Point", "coordinates": [10.1069787, 48.2208094]}, "properties": {"osm_id": 3323650132, "osm_type": "node", "amenity": "place_of_worship", "name": "Anadolu Camii", "operator": "DITIB Türkisch-islamischer Kulturverein e.V.", "religion": "muslim"}}, {"type": "Feature", "geometry": {"type": "Point", "coordinates": [9.9509642, 53.8331519]}, "properties": {"osm_id": 3325639227, "osm_type": "node", "addr:city": "Kaltenkirchen", "addr:country": "DE", "addr:housenumber": "53", "addr:postcode": "24568", "addr:street": "Funkenberg", "amenity": "place_of_worship", "name": "Veysel Karani Camii", "religion": "muslim"}}, {"type": "Feature", "geometry": {"type": "Point", "coordinates": [13.3746465, 52.5587606]}, "properties": {"osm_id": 3332061408, "osm_type": "node", "addr:city": "Berlin", "addr:country": "DE", "addr:housenumber": "32A", "addr:postcode": "13359", "addr:street": "Drontheimer Straße", "addr:suburb": "Gesundbrunnen", "amenity": "place_of_worship", "contact:phone": "+49 30 49500803", "denomination": "sunni", "level": "4", "name": "Interkulturelles Zentrum für Dialog und Bildung e.V.", "name:ar": "المركز الثقافي للحوار والتاهيل", "opening_hours": "sunrise-sunset", "religion": "muslim", "service_times": "sunrise-sunset", "source": "Geoportal Berlin / Hauskoordinaten", "website": "https://izdb-berlin.de/", "wheelchair": "yes"}}, {"type": "Feature", "geometry": {"type": "Point", "coordinates": [8.4291755, 49.4566392]}, "properties": {"osm_id": 3340284393, "osm_type": "node", "amenity": "place_of_worship", "name": "Mundenheim Camii", "religion": "muslim"}}, {"type": "Feature", "geometry": {"type": "Point", "coordinates": [11.5608, 48.1441029]}, "properties": {"osm_id": 3347952791, "osm_type": "node", "addr:city": "München", "addr:country": "DE", "addr:housenumber": "43", "addr:postcode": "80333", "addr:street": "Karlstraße", "amenity": "place_of_worship", "building": "mosque", "fax": "+49 89 507256", "name": "Islamische Gemeinschaft ''Balkan'' e.V.", "opening_hours": "Su-Th 11:00-19:00; Fr-Sa 11:00-21:00", "operator": "Islamische Gemeinschaft ''Balkan'' e.V.", "phone": "+49 89 55063367", "religion": "muslim", "website": "https://islam-balkan.weebly.com/", "wheelchair": "yes"}}, {"type": "Feature", "geometry": {"type": "Point", "coordinates": [8.8738484, 49.9961911]}, "properties": {"osm_id": 3355143316, "osm_type": "node", "addr:city": "Rodgau", "addr:country": "DE", "addr:housenumber": "9", "addr:postcode": "63110", "addr:street": "Ober-Rodener Straße", "amenity": "place_of_worship", "name": "Islamische Gemeinde Rodgau", "note:position": "bin mir nicht sicher, könnte auch ein Haus früher oder später sein. Ebenso ist die Tiefe geschätzt. Schild an Straße am Obst- und Gemüseladen", "religion": "muslim", "source": "Besichtigung (Schild an Hauswand) und note #236133, Sowie: http://www.moscheesuche.de/moschee/Rodgau/Islamische_Gemeinde_Rodgau/20126"}}, {"type": "Feature", "geometry": {"type": "Point", "coordinates": [8.8473566, 48.2795357]}, "properties": {"osm_id": 3361680384, "osm_type": "node", "amenity": "place_of_worship", "name": "Moschee", "religion": "muslim"}}, {"type": "Feature", "geometry": {"type": "Point", "coordinates": [8.8034981, 53.0858437]}, "properties": {"osm_id": 3380247432, "osm_type": "node", "amenity": "place_of_worship", "check_date": "2024-07-28", "name": "Islamisches Kulturzentrum", "religion": "muslim"}}, {"type": "Feature", "geometry": {"type": "Point", "coordinates": [8.4833094, 51.8525021]}, "properties": {"osm_id": 3381184374, "osm_type": "node", "addr:city": "Verl", "addr:country": "DE", "addr:housenumber": "146", "addr:postcode": "33415", "addr:street": "Reckerdamm", "amenity": "place_of_worship", "contact:facebook": "https://www.facebook.com/Verler.Cami", "name": "Hz. Ali Camii Verl", "operator": "Ditib Türkisch Islamische Gemeinde zu Verl e.V.", "religion": "muslim"}}, {"type": "Feature", "geometry": {"type": "Point", "coordinates": [7.6988711, 51.5403043]},